     3.03           OBSERVATION DATA     I:IRNSS            RINEX VERSION / TYPE
OBS GEN             Accord              01-JAN-24 00:00     PGM / RUN BY / DATE 
IRNSS                                                       MARKER NAME         
0                                                           MARKER NUMBER       
Human                                                       MARKER TYPE         
Unknown             Accord                                  OBSERVER / AGENCY   
01                  NGS-C60 CV22        1.0                 REC # / TYPE / VERS 
18730               L5S1                                    ANT # / TYPE        
  1243909.4450   5462556.0080   3038758.0532                APPROX POSITION XYZ 
        0.0000         0.0000         0.0000                ANTENNA: DELTA H/E/N
I    8 C5C L5C D5C S5C C9C L9C D9C S9C                      SYS / # / OBS TYPES 
DBHZ                                                        SIGNAL STRENGTH UNIT
SNR is mapped to RINEX snr flag value [1-9]                 COMMENT             
< 12dBHz -> 1; 12-17dBHz -> 2; 18-23dBHz -> 3               COMMENT             
24-29dBHz -> 4; 30-35dBHz -> 5; 36-41dBHz -> 6              COMMENT             
42-47dBHz -> 7; 48-53dBHz -> 8; >= 54dBHz -> 9              COMMENT             
                                                            COMMENT             
    30.000                                                  INTERVAL            
  2024     1     1     0     0    0.0000000     IRN         TIME OF FIRST OBS   
  2024     1     1    23    59   30.0000000     IRN         TIME OF LAST OBS    
                                                            SYS / PHASE SHIFT   
                                                            SYS / PHASE SHIFT   
                                                            END OF HEADER       
> 2024 01 01  0  0  0.0000000  0  9      -210.226854883775
I01         0.000 8         0.00008        -0.053 8        50.781           0.000 3         0.00003        -0.113 3        22.031  
I02  39501303.281 6 155008428.49206        97.331 6        41.250    39501298.038 5 328348306.57805       206.040 5        34.688  
I03  36493871.100 8 143206668.30908         3.194 8        50.469    36493865.491 7 303349045.60107         6.570 7        44.531  
I04         0.000 7         0.00007        -0.053 7        44.531           0.000 6         0.00006        -0.113 6        36.562  
I05         0.000 8         0.00008        -0.053 8        48.281           0.000 7         0.00007        -0.113 7        42.344  
I06  38399263.531 7 150683896.74507       -47.991 7        44.844    38399256.519 6 319187644.11006      -100.826 6        38.281  
I07         0.000 7         0.00007        -0.053 7        43.594           0.000 6         0.00006        -0.113 6        37.656  
I09  36179052.565 8 141971565.87308      -120.169 8        50.938    36179046.488 7 300732214.90707      -254.553 7        44.531  
I10  39464823.846 7 154865395.61307       -62.771 7        43.281    39464818.293 6 328045038.92006      -132.821 6        36.094  
> 2024 01 01  0  0 30.0000000  0  9      -209.268601770293
I01         0.000 8         0.00008         0.014 8        50.625           0.000 3         0.00003         0.029 3        22.656  
I02  39502039.835 6 155011318.10906        95.834 6        41.562    39502033.982 5 328354427.56305       202.406 5        34.531  
I03  36493895.905 8 143206765.57108         3.385 8        50.469    36493890.093 7 303349251.62607         7.152 7        44.375  
I04         0.000 7         0.00007         0.014 7        44.531           0.000 6         0.00006         0.029 6        36.875  
I05         0.000 8         0.00008         0.014 8        48.281           0.000 7         0.00007         0.029 7        42.344  
I06  38398898.847 7 150682463.94107       -47.841 7        44.844    38398891.325 6 319184609.01506      -100.961 6        38.438  
I07         0.000 7         0.00007         0.014 7        43.438           0.000 6         0.00006         0.029 6        37.656  
I09  36178134.740 8 141967963.43408      -120.122 8        50.938    36178128.677 7 300724583.98307      -254.377 7        45.000  
I10  39464343.058 7 154863507.52007       -62.834 7        43.438    39464337.593 6 328041039.45206      -133.377 6        36.250  
> 2024 01 01  0  1  0.0000000  0  9      -209.911128643002
I01         0.000 8         0.00008         0.050 8        50.781           0.000 3         0.00003         0.107 3        23.281  
I02  39502762.132 6 155014151.62906        93.734 6        41.719    39502755.740 5 328360429.67505       198.505 5        34.531  
I03  36493921.951 8 143206867.48608         3.548 8        50.469    36493916.244 7 303349467.49507         7.520 7        44.531  
I04         0.000 7         0.00007         0.050 7        44.375           0.000 6         0.00006         0.107 6        36.719  
I05         0.000 8         0.00008         0.050 8        48.281           0.000 7         0.00007         0.107 7        42.656  
I06  38398533.160 7 150681030.01707       -47.574 7        45.000    38398526.129 6 319181571.55606      -101.236 6        38.438  
I07         0.000 7         0.00007         0.050 7        43.438           0.000 6         0.00006         0.107 6        37.656  
I09  36177216.871 8 141964361.83308      -119.909 8        50.938    36177211.229 7 300716954.84407      -254.191 7        45.156  
I10  39463860.898 7 154861616.48507       -62.851 7        43.438    39463855.132 6 328037033.74906      -133.783 6        36.250  
> 2024 01 01  0  1 30.0000000  0  9      -209.769979822096
I01         0.000 8         0.00008        -0.079 8        50.781           0.000 3         0.00003        -0.167 3        22.656  
I02  39503469.913 6 155016929.34206        91.709 6        41.875    39503464.194 5 328366313.58105       194.219 5        35.000  
I03  36493949.098 8 143206974.04308         3.576 8        50.469    36493943.144 7 303349693.19107         7.618 7        44.375  
I04         0.000 7         0.00007        -0.079 7        44.219           0.000 6         0.00006        -0.167 6        36.875  
I05         0.000 8         0.00008        -0.079 8        48.438           0.000 7         0.00007        -0.167 7        42.344  
I06  38398167.628 7 150679594.99807       -48.105 7        44.844    38398160.468 6 319178531.78706      -101.769 6        38.438  
I07         0.000 7         0.00007        -0.079 7        43.594           0.000 6         0.00006        -0.167 6        37.812  
I09  36176299.219 8 141960761.01208      -120.148 8        50.938    36176293.656 7 300709327.35007      -254.502 7        45.312  
I10  39463378.112 7 154859722.50307       -63.217 7        43.438    39463372.459 6 328033021.80706      -134.526 6        36.250  
> 2024 01 01  0  2  0.0000000  0  9      -209.637631894121
I01         0.000 8         0.00008        -0.031 8        50.781           0.000 4         0.00004        -0.066 4        24.844  
I02  39504163.033 6 155019649.60706        90.053 6        41.562    39504157.351 5 328372075.82605       190.461 5        34.844  
I03  36493977.323 8 143207085.26308         3.779 8        50.469    36493971.687 7 303349928.79207         7.941 7        44.375  
I04         0.000 7         0.00007        -0.031 7        44.375           0.000 6         0.00006        -0.066 6        36.562  
I05         0.000 8         0.00008        -0.031 8        48.438           0.000 7         0.00007        -0.066 7        42.500  
I06  38397801.564 7 150678158.89607       -47.921 7        44.844    38397794.132 6 319175489.72506      -101.743 6        38.438  
I07         0.000 7         0.00007        -0.031 7        43.438           0.000 6         0.00006        -0.066 6        37.656  
I09  36175381.916 8 141957160.95308      -120.065 8        50.938    36175376.390 7 300701701.48007      -254.285 7        45.469  
I10  39462894.962 7 154857825.60907       -63.399 7        43.438    39462888.686 6 328029003.70006      -134.162 6        36.094  
> 2024 01 01  0  2 30.0000000  0  9      -210.038589950713
I01         0.000 8         0.00008        -0.059 8        50.781           0.000 4         0.00004        -0.124 4        24.844  
I02  39504841.677 6 155022312.52006        87.866 6        41.719    39504835.408 5 328377716.57105       185.725 5        34.844  
I03  36494006.890 8 143207201.09408         3.927 8        50.469    36494001.096 7 303350174.14307         8.277 7        44.531  
I04         0.000 7         0.00007        -0.059 7        44.219           0.000 6         0.00006        -0.124 6        36.719  
I05         0.000 8         0.00008        -0.059 8        48.281           0.000 7         0.00007        -0.124 7        42.812  
I06  38397435.149 7 150676721.70307       -47.884 7        45.000    38397427.993 6 319172445.33406      -101.298 6        38.281  
I07         0.000 7         0.00007        -0.059 7        43.438           0.000 6         0.00006        -0.124 6        37.812  
I09  36174464.762 8 141953561.71008      -120.035 8        51.094    36174458.908 7 300694077.31507      -254.228 7        45.312  
I10  39462410.755 7 154855925.79207       -63.547 7        43.438    39462404.821 6 328024979.39606      -134.659 6        36.250  
> 2024 01 01  0  3  0.0000000  0  9      -209.951617374034
I01         0.000 8         0.00008        -0.097 8        50.781           0.000 4         0.00004        -0.205 4        26.250  
I02  39505506.181 6 155024919.33406        85.746 6        41.719    39505500.301 5 328383238.49505       182.185 5        35.000  
I03  36494037.528 8 143207321.56508         4.055 8        50.312    36494031.838 7 303350429.32807         8.492 7        44.531  
I04         0.000 7         0.00007        -0.097 7        44.375           0.000 6         0.00006        -0.205 6        36.875  
I05         0.000 8         0.00008        -0.097 8        48.438           0.000 7         0.00007        -0.205 7        42.656  
I06  38397069.029 7 150675283.39607       -48.108 7        44.844    38397061.046 6 319169398.58906      -101.676 6        38.281  
I07         0.000 7         0.00007        -0.097 7        43.438           0.000 6         0.00006        -0.205 6        37.500  
I09  36173547.384 8 141949963.16108      -120.057 8        50.938    36173542.016 7 300686454.62807      -254.253 7        45.156  
I10  39461926.093 7 154854023.08507       -63.535 7        43.438    39461919.775 6 328020948.99206      -134.785 6        36.094  
> 2024 01 01  0  3 30.0000000  0  9      -210.024446722899
I01         0.000 8         0.00008        -0.014 8        50.781           0.000 3         0.00003        -0.029 3        23.906  
I02  39506155.799 6 155027469.88206        84.006 6        41.562    39506149.983 5 328388641.23205       178.226 5        34.844  
I03  36494069.502 8 143207446.69908         4.332 8        50.469    36494063.646 7 303350694.38107         8.931 7        44.531  
I04         0.000 7         0.00007        -0.014 7        44.062           0.000 6         0.00006        -0.029 6        36.875  
I05         0.000 8         0.00008        -0.014 8        48.594           0.000 7         0.00007        -0.029 7        42.812  
I06  38396702.116 7 150673844.01807       -47.915 7        45.000    38396694.705 6 319166349.59406      -101.523 6        38.281  
I07         0.000 7         0.00007        -0.014 7        43.594           0.000 6         0.00006        -0.029 6        37.656  
I09  36172630.786 8 141946365.36308      -119.904 8        50.938    36172625.176 7 300678833.53507      -254.097 7        45.156  
I10  39461440.325 7 154852117.47907       -63.434 7        43.594    39461434.185 5 328016912.41605      -134.449 5        35.781  
> 2024 01 01  0  4  0.0000000  0  9      -210.109975292023
I01         0.000 8         0.00008        -0.081 8        50.938           0.000 4         0.00004        -0.171 4        24.375  
I02  39506791.657 6 155029962.73106        82.074 6        41.562    39506785.738 5 328393921.75105       173.935 5        35.000  
I03  36494102.535 8 143207576.46308         4.321 8        50.469    36494096.897 7 303350969.26307         9.233 7        44.375  
I04         0.000 7         0.00007        -0.081 7        44.375           0.000 6         0.00006        -0.171 6        37.188  
I05         0.000 8         0.00008        -0.081 8        48.594           0.000 7         0.00007        -0.171 7        42.812  
I06  38396334.867 7 150672403.57507       -48.251 7        44.844    38396327.195 6 319163298.34306      -101.860 6        38.281  
I07         0.000 7         0.00007        -0.081 7        43.594           0.000 6         0.00006        -0.171 6        37.812  
I09  36171713.962 8 141942768.22008      -119.914 8        50.781    36171708.341 7 300671213.83507      -254.375 7        45.000  
I10  39460954.023 7 154850208.99107       -63.660 7        43.281    39460947.869 5 328012869.74405      -135.241 5        35.781  
> 2024 01 01  0  4 30.0000000  0  9      -209.999351223950
I01         0.000 8         0.00008        -0.013 8        50.781           0.000 3         0.00003        -0.028 3        22.656  
I02  39507412.301 6 155032399.65606        80.420 6        41.562    39507406.285 5 328399083.78805       170.476 5        35.156  
I03  36494136.924 8 143207710.86708         4.494 8        50.312    36494131.015 7 303351253.95707         9.582 7        44.531  
I04         0.000 7         0.00007        -0.013 7        44.219           0.000 6         0.00006        -0.028 6        37.188  
I05         0.000 8         0.00008        -0.013 8        48.594           0.000 7         0.00007        -0.028 7        42.344  
I06  38395967.568 7 150670962.07307       -48.090 7        44.844    38395960.197 6 319160244.84006      -101.810 6        38.281  
I07         0.000 7         0.00007        -0.013 7        43.594           0.000 6         0.00006        -0.028 6        37.812  
I09  36170797.526 8 141939171.77208      -119.864 8        50.625    36170791.728 7 300663595.60707      -253.889 7        45.000  
I10  39460467.032 7 154848297.62107       -63.559 7        43.281    39460461.149 5 328008820.98205      -134.846 5        35.938  
> 2024 01 01  0  5  0.0000000  0  9      -210.278899298743
I01         0.000 8         0.00008         0.024 8        50.625           0.000 3         0.00003         0.052 3        23.281  
I02  39508018.601 6 155034779.86106        78.617 6        41.406    39508013.118 5 328404125.71505       166.725 5        35.000  
I03  36494172.187 8 143207849.90608         4.775 8        50.312    36494166.412 7 303351548.47107        10.060 7        44.531  
I04         0.000 7         0.00007         0.024 7        44.062           0.000 6         0.00006         0.052 6        37.656  
I05         0.000 8         0.00008         0.024 8        48.438           0.000 7         0.00007         0.052 7        42.188  
I06  38395599.947 7 150669519.50707       -47.899 7        44.844    38395592.486 6 319157189.08606      -101.341 6        38.281  
I07         0.000 7         0.00007         0.024 7        43.594           0.000 6         0.00006         0.052 6        37.812  
I09  36169881.085 8 141935575.97508      -119.782 8        50.625    36169875.568 7 300655978.75407      -253.784 7        45.000  
I10  39459979.014 7 154846383.40407       -63.780 7        43.281    39459973.049 5 328004766.16705      -135.242 5        35.625  
> 2024 01 01  0  5 30.0000000  0  9      -210.464305070401
I01         0.000 8         0.00008        -0.022 8        50.781           0.000 4         0.00004        -0.047 4        25.156  
I02  39508610.405 6 155037102.93806        76.710 6        41.406    39508604.416 5 328409046.62005       162.024 5        34.688  
I03  36494208.723 8 143207993.56808         4.827 8        50.312    36494203.016 7 303351852.78407        10.116 7        44.375  
I04         0.000 7         0.00007        -0.022 7        44.219           0.000 6         0.00006        -0.047 6        37.656  
I05         0.000 8         0.00008        -0.022 8        48.281           0.000 7         0.00007        -0.047 7        42.031  
I06  38395232.315 7 150668075.88507       -48.210 7        44.844    38395224.515 6 319154131.09706      -101.943 6        38.438  
I07         0.000 7         0.00007        -0.022 7        43.594           0.000 6         0.00006        -0.047 6        37.656  
I09  36168964.864 8 141931980.79908      -119.835 8        50.625    36168959.302 7 300648363.21807      -253.842 7        44.688  
I10  39459490.683 7 154844466.30807       -63.876 7        43.125    39459484.468 5 328000705.28505      -135.334 5        35.469  
> 2024 01 01  0  6  0.0000000  0  9      -210.668668811847
I01         0.000 8         0.00008        -0.089 8        50.625           0.000 3         0.00003        -0.189 3        22.031  
I02  39509188.113 6 155039368.68406        74.603 6        41.406    39509181.943 5 328413846.05905       157.478 5        34.531  
I03  36494246.633 8 143208141.84908         4.833 8        50.312    36494240.857 7 303352166.87407        10.354 7        44.531  
I04         0.000 7         0.00007        -0.089 7        44.219           0.000 6         0.00006        -0.189 6        38.125  
I05         0.000 8         0.00008        -0.089 8        48.125           0.000 7         0.00007        -0.189 7        42.031  
I06  38394863.929 7 150666631.20007       -48.272 7        45.000    38394856.497 6 319151070.86906      -102.475 6        38.281  
I07         0.000 7         0.00007        -0.089 7        43.594           0.000 6         0.00006        -0.189 6        37.812  
I09  36168048.925 8 141928386.24208      -119.875 8        50.625    36168043.176 7 300640748.98907      -253.988 7        44.844  
I10  39459001.448 7 154842546.38807       -64.185 7        43.125    39458995.100 5 327996638.39705      -135.723 5        35.469  
> 2024 01 01  0  6 30.0000000  0  9      -210.855945352563
I01         0.000 8         0.00008        -0.075 8        50.781           0.000 3         0.00003        -0.160 3        23.281  
I02  39509751.337 6 155041579.83506        72.585 6        41.562    39509745.888 5 328418529.87405       153.654 5        35.312  
I03  36494285.440 8 143208294.74608         5.139 8        50.469    36494279.917 7 303352490.75807        10.754 7        44.531  
I04         0.000 7         0.00007        -0.075 7        44.219           0.000 6         0.00006        -0.160 6        37.969  
I05         0.000 8         0.00008        -0.075 8        48.438           0.000 7         0.00007        -0.160 7        42.188  
I06  38394495.505 7 150665185.46107       -48.170 7        45.000    38394488.106 6 319148008.40206      -102.298 6        38.438  
I07         0.000 7         0.00007        -0.075 7        43.594           0.000 6         0.00006        -0.160 6        37.656  
I09  36167132.900 8 141924792.29508      -119.924 8        50.625    36167127.394 7 300633136.05707      -253.891 7        44.688  
I10  39458511.170 7 154840623.58107       -64.237 7        42.031    39458505.125 5 327992565.48605      -135.827 5        35.625  
> 2024 01 01  0  7  0.0000000  0  9      -210.900897406789
I01         0.000 8         0.00008        -0.095 8        50.625           0.000 3         0.00003        -0.201 3        21.094  
I02  39510299.892 6 155043732.60206        70.538 6        41.562    39510294.065 5 328423090.02005       149.258 5        35.156  
I03  36494325.824 8 143208452.27408         5.236 8        50.469    36494319.764 7 303352824.43907        11.132 7        44.375  
I04         0.000 7         0.00007        -0.095 7        44.375           0.000 6         0.00006        -0.201 6        37.812  
I05         0.000 8         0.00008        -0.095 8        48.438           0.000 7         0.00007        -0.201 7        42.500  
I06  38394126.711 7 150663738.71307       -48.282 7        44.844    38394119.451 6 319144943.78606      -102.285 6        38.594  
I07         0.000 7         0.00007        -0.095 7        43.594           0.000 6         0.00006        -0.201 6        37.812  
I09  36166217.207 8 141921198.91808      -119.929 8        50.625    36166211.432 7 300625524.33107      -253.886 7        44.531  
I10  39458020.425 7 154838698.06207       -64.211 7        42.812    39458014.382 5 327988486.65105      -136.487 5        35.156  
> 2024 01 01  0  7 30.0000000  0  9      -210.410045938245
I01         0.000 8         0.00008        -0.104 8        50.625           0.000 3         0.00003        -0.220 3        23.750  
I02  39510834.345 6 155045829.17106        68.613 6        41.719    39510828.633 5 328427531.10805       145.337 5        35.156  
I03  36494367.039 8 143208614.43408         5.349 8        50.469    36494361.204 7 303353167.93207        11.411 7        44.375  
I04         0.000 7         0.00007        -0.104 7        44.375           0.000 6         0.00006        -0.220 6        37.344  
I05         0.000 8         0.00008        -0.104 8        48.281           0.000 7         0.00007        -0.220 7        42.500  
I06  38393757.924 7 150662290.91207       -48.298 7        45.000    38393750.960 6 319141876.95306      -102.466 6        38.594  
I07         0.000 7         0.00007        -0.104 7        43.594           0.000 6         0.00006        -0.220 6        37.812  
I09  36165301.610 8 141917606.09708      -119.914 8        50.625    36165295.504 7 300617913.79207      -253.929 7        44.375  
I10  39457528.964 7 154836769.69807       -64.336 7        42.812    39457523.002 5 327984401.87005      -136.346 5        35.312  
> 2024 01 01  0  8  0.0000000  0  9      -211.166453585378
I01         0.000 8         0.00008        -0.086 8        50.781           0.000 4         0.00004        -0.182 4        25.469  
I02  39511353.633 6 155047868.53206        67.016 6        41.719    39511347.679 5 328431851.01405       141.743 5        34.688  
I03  36494409.742 8 143208781.17708         5.553 8        50.469    36494403.752 7 303353521.14507        11.760 7        44.375  
I04         0.000 7         0.00007        -0.086 7        44.375           0.000 6         0.00006        -0.182 6        36.875  
I05         0.000 8         0.00008        -0.086 8        48.281           0.000 7         0.00007        -0.182 7        42.656  
I06  38393388.588 7 150660842.09607       -48.541 7        45.000    38393381.139 6 319138807.95806      -102.360 6        38.594  
I07         0.000 7         0.00007        -0.086 7        43.438           0.000 6         0.00006        -0.182 6        37.812  
I09  36164386.255 8 141914013.82508      -119.818 8        50.781    36164380.250 7 300610304.41607      -253.740 7        44.531  
I10  39457036.948 7 154834838.51307       -64.464 7        42.969    39457031.203 5 327980311.13805      -136.461 5        35.781  
> 2024 01 01  0  8 30.0000000  0  9      -211.155295625329
I01         0.000 8         0.00008        -0.096 8        50.781           0.000 4         0.00004        -0.203 4        24.375  
I02  39511859.087 6 155049851.02806        65.014 6        41.406    39511853.309 5 328436050.49105       137.825 5        34.688  
I03  36494453.198 8 143208952.55108         5.694 8        50.312    36494447.472 7 303353884.16307        12.053 7        44.531  
I04         0.000 7         0.00007        -0.096 7        44.219           0.000 6         0.00006        -0.203 6        37.188  
I05         0.000 8         0.00008        -0.096 8        48.125           0.000 7         0.00007        -0.203 7        42.344  
I06  38393019.121 7 150659392.27807       -48.434 7        44.844    38393011.346 6 319135736.84906      -102.380 6        38.281  
I07         0.000 7         0.00007        -0.096 7        43.594           0.000 6         0.00006        -0.203 6        37.656  
I09  36163471.000 8 141910422.07208      -119.829 8        50.625    36163465.034 7 300602696.14307      -253.731 7        44.531  
I10  39456544.337 7 154832904.55407       -64.646 7        42.969    39456538.055 5 327976214.51305      -137.225 5        35.469  
> 2024 01 01  0  9  0.0000000  0  9      -211.063664986536
I01         0.000 8         0.00008        -0.084 8        50.781           0.000 4         0.00004        -0.179 4        25.469  
I02  39512350.031 6 155051777.30406        63.053 6        41.719    39512343.821 5 328440130.84405       133.322 5        35.000  
I03  36494497.960 8 143209128.54008         5.845 8        50.312    36494492.428 7 303354256.95607        12.579 7        44.531  
I04         0.000 7         0.00007        -0.084 7        44.062           0.000 6         0.00006        -0.179 6        37.188  
I05         0.000 8         0.00008        -0.084 8        48.281           0.000 7         0.00007        -0.179 7        42.344  
I06  38392649.486 7 150657941.42707       -48.401 7        44.844    38392641.661 6 319132663.54406      -102.524 6        38.125  
I07         0.000 7         0.00007        -0.084 7        43.438           0.000 6         0.00006        -0.179 6        37.969  
I09  36162555.857 8 141906830.83908      -119.708 8        50.625    36162549.710 7 300595088.96307      -253.812 7        44.375  
I10  39456050.559 7 154830967.80507       -64.722 7        42.969    39456044.582 5 327972111.98205      -137.162 5        35.625  
> 2024 01 01  0  9 30.0000000  0  9      -211.136465262991
I01         0.000 8         0.00008        -0.049 8        50.781           0.000 3         0.00003        -0.104 3        21.875  
I02  39512826.637 6 155053647.32806        61.287 6        41.719    39512820.801 5 328444092.07105       130.183 5        35.312  
I03  36494544.097 8 143209309.16108         6.098 8        50.312    36494538.213 7 303354639.56307        12.893 7        44.531  
I04         0.000 7         0.00007        -0.049 7        43.750           0.000 6         0.00006        -0.104 6        37.188  
I05         0.000 8         0.00008        -0.049 8        48.281           0.000 7         0.00007        -0.104 7        42.344  
I06  38392279.197 7 150656489.55007       -48.355 7        44.844    38392271.745 6 319129588.08206      -102.627 6        37.969  
I07         0.000 7         0.00007        -0.049 7        43.594           0.000 6         0.00006        -0.104 6        37.812  
I09  36161640.822 8 141903240.07808      -119.727 8        50.781    36161634.673 7 300587482.78607      -253.551 7        44.375  
I10  39455556.401 7 154829028.30307       -64.728 7        42.969    39455550.542 5 327968003.62605      -137.105 5        35.938  
> 2024 01 01  0 10  0.0000000  0  9      -210.667057626751
I01         0.000 8         0.00008        -0.008 8        50.781           0.000 3         0.00003        -0.018 3        23.906  
I02  39513288.173 6 155055459.91906        59.770 6        41.406    39513282.823 5 328447931.62905       125.588 5        35.000  
I03  36494591.150 8 143209494.37008         6.263 8        50.312    36494585.512 7 303355031.88807        13.331 7        44.531  
I04         0.000 7         0.00007        -0.008 7        43.906           0.000 6         0.00006        -0.018 6        37.031  
I05         0.000 8         0.00008        -0.008 8        48.125           0.000 7         0.00007        -0.018 7        42.500  
I06  38391909.216 7 150655036.69507       -48.388 7        44.844    38391901.657 6 319126510.54206      -102.609 6        38.125  
I07         0.000 7         0.00007        -0.008 7        43.438           0.000 6         0.00006        -0.018 6        37.969  
I09  36160726.078 8 141899649.80408      -119.575 8        50.781    36160719.835 7 300579877.65107      -253.506 7        44.531  
I10  39455061.402 7 154827086.04107       -64.935 7        42.969    39455055.278 5 327963889.42605      -137.001 5        35.938  
> 2024 01 01  0 10 30.0000000  0  9      -210.782839853084
I01         0.000 8         0.00008        -0.101 8        50.781           0.000 4         0.00004        -0.215 4        24.844  
I02  39513735.589 6 155057215.14406        57.417 6        41.406    39513730.588 5 328451649.66405       122.185 5        35.469  
I03  36494639.643 8 143209684.20208         6.190 8        50.312    36494633.966 7 303355434.01107        13.374 7        44.531  
I04         0.000 7         0.00007        -0.101 7        43.906           0.000 6         0.00006        -0.215 6        37.344  
I05         0.000 8         0.00008        -0.101 8        48.281           0.000 7         0.00007        -0.215 7        42.500  
I06  38391539.001 7 150653582.88007       -48.525 7        44.844    38391530.925 6 319123430.96006      -102.831 6        37.969  
I07         0.000 7         0.00007        -0.101 7        43.594           0.000 6         0.00006        -0.215 6        37.812  
I09  36159811.286 8 141896059.98308      -119.796 8        50.938    36159805.269 7 300572273.45407      -253.770 7        44.531  
I10  39454566.021 7 154825141.03607       -64.928 7        42.812    39454560.234 5 327959769.41805      -137.624 5        35.781  
> 2024 01 01  0 11  0.0000000  0  9      -211.008204998339
I01         0.000 8         0.00008        -0.111 8        50.781           0.000 4         0.00004        -0.235 4        24.688  
I02  39514168.394 6 155058913.52406        55.483 6        41.406    39514163.536 5 328455247.28805       117.124 5        35.312  
I03  36494689.141 8 143209878.62008         6.550 8        50.156    36494683.404 7 303355845.85107        13.526 7        44.688  
I04         0.000 7         0.00007        -0.111 7        44.062           0.000 6         0.00006        -0.235 6        37.500  
I05         0.000 8         0.00008        -0.111 8        48.438           0.000 7         0.00007        -0.235 7        42.500  
I06  38391167.889 7 150652128.00807       -48.427 7        44.688    38391160.181 6 319120349.15306      -103.077 6        38.125  
I07         0.000 7         0.00007        -0.111 7        43.594           0.000 6         0.00006        -0.235 6        37.969  
I09  36158896.872 8 141892470.64108      -119.864 8        51.094    36158890.684 7 300564670.26307      -253.620 7        44.531  
I10  39454069.322 7 154823193.29307       -65.325 7        42.812    39454063.415 6 327955643.62306      -138.091 6        36.094  
> 2024 01 01  0 11 30.0000000  0  9      -211.213065157767
I01         0.000 8         0.00008        -0.041 8        50.938           0.000 3         0.00003        -0.087 3        21.875  
I02  39514586.545 6 155060554.64306        53.943 6        41.406    39514581.182 5 328458723.61605       114.375 5        35.469  
I03  36494739.910 8 143210077.69208         6.616 8        50.156    36494734.536 7 303356267.52607        14.108 7        44.531  
I04         0.000 7         0.00007        -0.041 7        43.906           0.000 6         0.00006        -0.087 6        37.500  
I05         0.000 8         0.00008        -0.041 8        48.594           0.000 7         0.00007        -0.087 7        42.500  
I06  38390797.203 7 150650672.15707       -48.593 7        44.844    38390789.381 6 319117265.28206      -102.400 6        38.125  
I07         0.000 7         0.00007        -0.041 7        43.438           0.000 6         0.00006        -0.087 6        37.812  
I09  36157982.388 8 141888881.71108      -119.628 8        51.094    36157976.187 7 300557067.97907      -253.519 7        44.688  
I10  39453572.407 7 154821242.83107       -65.066 7        42.812    39453566.235 5 327951512.04905      -137.843 5        35.938  
> 2024 01 01  0 12  0.0000000  0  9      -211.354467384313
I01         0.000 8         0.00008        -0.041 8        50.938           0.000 3         0.00003        -0.086 3        23.906  
I02  39514990.546 6 155062139.69906        51.921 6        41.719    39514985.460 5 328462081.19205       109.922 5        35.625  
I03  36494791.761 8 143210281.33208         6.815 8        50.312    36494786.097 7 303356698.90407        14.603 7        44.531  
I04         0.000 7         0.00007        -0.041 7        43.906           0.000 6         0.00006        -0.086 6        37.500  
I05         0.000 8         0.00008        -0.041 8        48.438           0.000 7         0.00007        -0.086 7        42.656  
I06  38390425.906 7 150649215.37707       -48.569 7        44.844    38390418.268 6 319114179.41806      -102.890 6        38.281  
I07         0.000 7         0.00007        -0.041 7        43.438           0.000 6         0.00006        -0.086 6        37.812  
I09  36157067.929 8 141885293.20408      -119.740 8        50.938    36157061.987 7 300549466.57707      -253.487 7        44.844  
I10  39453074.461 7 154819289.65507       -65.001 7        42.812    39453068.623 5 327947374.74205      -138.408 5        35.781  
> 2024 01 01  0 12 30.0000000  0  9      -211.109940295176
I01         0.000 8         0.00008        -0.165 8        50.938           0.000 4         0.00004        -0.350 4        25.156  
I02  39515380.047 6 155063668.10906        49.781 6        41.406    39515375.117 5 328465318.78605       105.382 5        35.469  
I03  36494844.864 8 143210489.56408         6.827 8        50.312    36494839.099 7 303357139.99307        14.461 7        44.375  
I04         0.000 7         0.00007        -0.165 7        43.594           0.000 6         0.00006        -0.350 6        37.656  
I05         0.000 8         0.00008        -0.165 8        48.281           0.000 7         0.00007        -0.350 7        42.344  
I06  38390054.385 7 150647757.60307       -48.715 7        44.688    38390046.439 6 319111091.45906      -102.925 6        38.438  
I07         0.000 7         0.00007        -0.165 7        43.438           0.000 6         0.00006        -0.350 6        38.125  
I09  36156153.666 8 141881705.07808      -119.774 8        50.938    36156147.678 7 300541865.98007      -253.775 7        44.844  
I10  39452576.259 7 154817333.78807       -65.782 7        42.812    39452569.879 5 327943231.73405      -138.460 5        35.781  
> 2024 01 01  0 13  0.0000000  0  9      -211.676954314816
I01         0.000 8         0.00008        -0.015 8        50.938           0.000 4         0.00004        -0.031 4        25.312  
I02  39515755.253 6 155065139.98906        48.375 6        41.562    39515750.007 6 328468436.62506       101.750 6        36.094  
I03  36494899.018 8 143210702.40808         7.084 8        50.312    36494893.448 7 303357590.86007        15.123 7        44.531  
I04         0.000 7         0.00007        -0.015 7        43.594           0.000 6         0.00006        -0.031 6        37.812  
I05         0.000 8         0.00008        -0.015 8        48.281           0.000 7         0.00007        -0.031 7        42.500  
I06  38389682.666 7 150646298.84307       -48.638 7        44.688    38389674.713 6 319108001.42806      -103.313 6        38.281  
I07         0.000 7         0.00007        -0.015 7        43.594           0.000 6         0.00006        -0.031 6        37.812  
I09  36155239.355 8 141878117.36208      -119.673 8        50.938    36155233.301 7 300534266.25307      -253.337 7        44.688  
I10  39452077.110 7 154815375.25207       -65.155 7        42.500    39452070.709 5 327939083.02405      -138.479 5        35.312  
> 2024 01 01  0 13 30.0000000  0  9      -211.658512863682
I01         0.000 8         0.00008        -0.104 8        50.938           0.000 3         0.00003        -0.220 3        23.906  
I02  39516115.965 6 155066555.53206        46.309 6        41.562    39516111.027 6 328471435.14706        97.376 6        36.250  
I03  36494954.481 8 143210919.80608         7.240 8        50.312    36494948.822 7 303358051.36707        15.307 7        44.531  
I04         0.000 7         0.00007        -0.104 7        43.594           0.000 6         0.00006        -0.220 6        37.812  
I05         0.000 8         0.00008        -0.104 8        48.438           0.000 7         0.00007        -0.220 7        42.500  
I06  38389310.778 7 150644839.17107       -48.787 7        44.844    38389303.064 6 319104909.43506      -103.151 6        37.969  
I07         0.000 7         0.00007        -0.104 7        43.438           0.000 6         0.00006        -0.220 6        37.812  
I09  36154325.367 8 141874530.00108      -119.747 8        51.094    36154319.211 7 300526667.27707      -253.449 7        44.688  
I10  39451577.004 7 154813414.01507       -65.760 7        42.344    39451570.754 5 327934928.66905      -138.725 5        34.844  
> 2024 01 01  0 14  0.0000000  0  9      -211.423442041803
I01         0.000 8         0.00008        -0.139 8        50.938           0.000 3         0.00003        -0.294 3        22.969  
I02  39516462.354 6 155067913.61406        43.944 6        41.406    39516457.325 6 328474311.91006        93.061 6        36.406  
I03  36495011.162 8 143211141.83208         7.314 8        50.312    36495005.513 7 303358521.68307        15.471 7        44.531  
I04         0.000 7         0.00007        -0.139 7        43.438           0.000 6         0.00006        -0.294 6        37.969  
I05         0.000 8         0.00008        -0.139 8        48.594           0.000 7         0.00007        -0.294 7        42.500  
I06  38388938.464 7 150643378.49407       -48.911 7        45.000    38388930.259 6 319101815.33806      -103.565 6        37.812  
I07         0.000 7         0.00007        -0.139 7        43.281           0.000 6         0.00006        -0.294 6        37.656  
I09  36153411.290 8 141870943.03608      -119.727 8        51.250    36153404.979 7 300519069.14707      -253.541 7        44.844  
I10  39451076.698 7 154811450.10407       -65.555 7        42.500    39451070.496 5 327930768.61905      -138.908 5        35.312  
> 2024 01 01  0 14 30.0000000  0  9      -211.679162321839
I01         0.000 8         0.00008         0.082 8        51.094           0.000 4         0.00004         0.174 4        24.531  
I02  39516793.910 6 155069215.81106        43.194 6        41.406    39516788.715 6 328477070.34506        91.175 6        36.094  
I03  36495068.906 8 143211368.42108         7.741 8        50.312    36495063.112 7 303359001.66807        16.278 7        44.531  
I04         0.000 7         0.00007         0.082 7        43.438           0.000 6         0.00006         0.174 6        38.125  
I05         0.000 8         0.00008         0.082 8        48.438           0.000 7         0.00007         0.174 7        42.344  
I06  38388566.181 7 150641916.87807       -48.692 7        44.844    38388558.015 6 319098719.23306      -103.175 6        37.969  
I07         0.000 7         0.00007         0.082 7        43.438           0.000 6         0.00006         0.174 6        37.969  
I09  36152497.297 8 141867356.41908      -119.467 8        51.250    36152490.998 7 300511471.75007      -252.926 7        44.844  
I10  39450575.484 7 154809483.55107       -65.351 7        42.500    39450569.763 5 327926602.96705      -138.790 5        35.312  
> 2024 01 01  0 15  0.0000000  0  9      -211.941014638643
I01         0.000 8         0.00008        -0.061 8        51.094           0.000 3         0.00003        -0.129 3        21.719  
I02  39517110.503 6 155070459.53006        40.540 6        41.250    39517105.836 6 328479704.88906        85.458 6        36.406  
I03  36495127.762 8 143211599.59508         7.787 8        50.312    36495122.113 7 303359491.35707        16.326 7        44.531  
I04         0.000 7         0.00007        -0.061 7        43.281           0.000 6         0.00006        -0.129 6        37.500  
I05         0.000 8         0.00008        -0.061 8        48.438           0.000 7         0.00007        -0.129 7        42.188  
I06  38388193.394 7 150640454.34107       -48.785 7        44.844    38388185.351 6 319095621.18506      -103.567 6        37.969  
I07         0.000 7         0.00007        -0.061 7        43.438           0.000 6         0.00006        -0.129 6        37.969  
I09  36151583.561 8 141863770.14008      -119.642 8        51.406    36151577.397 7 300503875.06707      -253.327 7        44.688  
I10  39450073.895 7 154807514.35607       -65.748 7        42.500    39450067.458 5 327922431.72505      -139.224 5        35.156  
> 2024 01 01  0 15 30.0000000  0  9      -212.093930975927
I01         0.000 8         0.00008        -0.044 8        51.094           0.000 4         0.00004        -0.094 4        24.219  
I02  39517413.625 6 155071648.32206        38.633 6        41.406    39517408.901 6 328482223.08006        81.587 6        36.406  
I03  36495187.835 8 143211835.35908         7.862 8        50.312    36495182.300 7 303359990.77307        16.701 7        44.531  
I04         0.000 7         0.00007        -0.044 7        43.438           0.000 6         0.00006        -0.094 6        37.188  
I05         0.000 8         0.00008        -0.044 8        48.438           0.000 6         0.00006        -0.094 6        41.875  
I06  38387820.415 7 150638990.82907       -48.597 7        44.844    38387812.515 6 319092521.08406      -103.624 6        38.125  
I07         0.000 7         0.00007        -0.044 7        43.438           0.000 6         0.00006        -0.094 6        37.812  
I09  36150669.673 8 141860184.19508      -119.589 8        51.250    36150663.564 7 300496279.09207      -253.374 7        44.844  
I10  39449571.051 7 154805542.54607       -65.837 7        42.500    39449564.760 5 327918254.92305      -139.060 5        35.156  
> 2024 01 01  0 16  0.0000000  0  9      -212.233939888969
I01         0.000 8         0.00008         0.105 8        51.094           0.000 3         0.00003         0.222 3        20.312  
I02  39517702.048 6 155072779.69806        37.454 6        41.406    39517697.214 6 328484619.64406        78.233 6        36.094  
I03  36495249.109 8 143212075.69508         8.379 8        50.312    36495243.413 7 303360499.86807        17.394 7        44.531  
I04         0.000 7         0.00007         0.105 7        43.750           0.000 6         0.00006         0.222 6        37.500  
I05         0.000 8         0.00008         0.105 8        48.438           0.000 7         0.00007         0.222 7        42.188  
I06  38387447.371 7 150637526.39707       -48.873 7        45.000    38387439.460 6 319089419.02906      -103.286 6        37.969  
I07         0.000 7         0.00007         0.105 7        43.438           0.000 6         0.00006         0.222 6        37.969  
I09  36149756.063 8 141856598.56208      -119.296 8        51.250    36149749.774 7 300488683.77507      -252.987 7        45.000  
I10  39449068.062 7 154803568.08007       -65.544 7        42.656    39449061.319 5 327914072.51705      -139.266 5        34.688  
> 2024 01 01  0 16 30.0000000  0  9      -211.857385001387
I01         0.000 8         0.00008        -0.031 8        51.094           0.000 3         0.00003        -0.066 3        23.125  
I02  39517976.005 6 155073855.29006        35.162 6        41.562    39517971.533 6 328486898.07006        73.602 6        36.406  
I03  36495311.510 8 143212320.61708         8.121 8        50.312    36495305.778 7 303361018.67807        17.447 7        44.531  
I04         0.000 7         0.00007        -0.031 7        43.906           0.000 6         0.00006        -0.066 6        37.656  
I05         0.000 8         0.00008        -0.031 8        48.594           0.000 7         0.00007        -0.066 7        42.188  
I06  38387074.018 7 150636061.05007       -48.853 7        44.844    38387065.760 6 319086315.03206      -103.491 6        37.969  
I07         0.000 7         0.00007        -0.031 7        43.438           0.000 6         0.00006        -0.066 6        37.969  
I09  36148842.496 8 141853013.26208      -119.600 8        51.406    36148836.306 7 300481089.16407      -253.103 7        45.000  
I10  39448564.479 7 154801591.03807       -65.911 7        42.500    39448557.880 5 327909884.63605      -139.816 5        34.844  
> 2024 01 01  0 17  0.0000000  0  9      -211.926590578011
I01         0.000 8         0.00008        -0.103 8        50.938           0.000 3         0.00003        -0.219 3        21.719  
I02  39518235.958 6 155074873.90106        32.940 6        41.406    39518230.669 6 328489055.77406        69.626 6        36.406  
I03  36495375.113 8 143212570.13008         8.248 8        50.312    36495369.445 7 303361547.20907        17.583 7        44.531  
I04         0.000 7         0.00007        -0.103 7        44.062           0.000 6         0.00006        -0.219 6        37.656  
I05         0.000 8         0.00008        -0.103 8        48.750           0.000 6         0.00006        -0.219 6        41.875  
I06  38386700.405 7 150634594.77207       -49.123 7        45.000    38386692.533 6 319083209.07706      -103.735 6        37.969  
I07         0.000 7         0.00007        -0.103 7        43.438           0.000 6         0.00006        -0.219 6        37.969  
I09  36147928.903 8 141849428.24408      -119.611 8        51.406    36147922.619 7 300473495.14707      -253.386 7        45.000  
I10  39448059.986 7 154799611.37107       -66.100 7        42.656    39448053.737 5 327905691.20205      -139.982 5        34.531  
> 2024 01 01  0 17 30.0000000  0  9      -212.720796786542
I01         0.000 8         0.00008        -0.239 8        50.938           0.000 3         0.00003        -0.507 3        23.906  
I02  39518480.597 6 155075835.39006        30.270 6        41.562    39518476.059 6 328491092.49406        65.058 6        36.406  
I03  36495439.808 8 143212824.19808         8.257 8        50.312    36495434.341 7 303362085.40507        17.435 7        44.531  
I04         0.000 7         0.00007        -0.239 7        44.219           0.000 6         0.00006        -0.507 6        37.344  
I05         0.000 8         0.00008        -0.239 8        48.906           0.000 7         0.00007        -0.507 7        42.188  
I06  38386326.543 7 150633127.57507       -49.209 7        45.000    38386318.305 6 319080101.16806      -104.292 6        38.281  
I07         0.000 7         0.00007        -0.239 7        43.438           0.000 6         0.00006        -0.507 6        37.812  
I09  36147015.370 8 141845843.50608      -119.739 8        51.562    36147008.912 7 300465901.72707      -253.823 7        45.000  
I10  39447554.898 7 154797629.11307       -66.424 7        42.656    39447548.113 5 327901492.27605      -140.749 5        34.688  
> 2024 01 01  0 18  0.0000000  0  9      -212.357519878378
I01         0.000 8         0.00008        -0.027 8        50.938           0.000 3         0.00003        -0.058 3        21.250  
I02  39518711.779 6 155076740.67906        29.035 6        41.406    39518706.486 6 328493010.15706        61.419 6        36.250  
I03  36495505.749 8 143213082.83508         8.704 8        50.312    36495500.158 7 303362633.27607        18.419 7        44.531  
I04         0.000 7         0.00007        -0.027 7        44.219           0.000 6         0.00006        -0.058 6        37.344  
I05         0.000 8         0.00008        -0.027 8        48.906           0.000 7         0.00007        -0.058 7        42.188  
I06  38385952.181 7 150631659.49007       -48.875 7        45.000    38385944.355 6 319076991.37206      -103.875 6        38.281  
I07         0.000 7         0.00007        -0.027 7        43.438           0.000 6         0.00006        -0.058 6        37.812  
I09  36146102.023 8 141842259.06408      -119.463 8        51.406    36146095.607 7 300458308.94307      -253.038 7        44.688  
I10  39447049.268 7 154795644.28907       -65.970 7        42.656    39447042.499 5 327897287.92005      -140.495 5        34.844  
> 2024 01 01  0 18 30.0000000  0  9      -212.457908191670
I01         0.000 8         0.00008        -0.049 8        50.938           0.000 4         0.00004        -0.103 4        25.625  
I02  39518927.816 6 155077589.46906        27.417 6        41.562    39518923.294 6 328494808.15606        57.790 6        36.094  
I03  36495572.804 8 143213346.06808         8.761 8        50.312    36495567.183 7 303363190.86907        18.552 7        44.688  
I04         0.000 7         0.00007        -0.049 7        44.219           0.000 6         0.00006        -0.103 6        37.344  
I05         0.000 8         0.00008        -0.049 8        49.062           0.000 6         0.00006        -0.103 6        41.875  
I06  38385578.046 7 150630190.49407       -49.036 7        45.000    38385569.910 6 319073879.66506      -103.867 6        38.438  
I07         0.000 7         0.00007        -0.049 7        43.438           0.000 6         0.00006        -0.103 6        37.969  
I09  36145188.703 8 141838674.90108      -119.550 8        51.406    36145182.264 7 300450716.73607      -253.179 7        44.844  
I10  39446542.967 7 154793656.89007       -66.217 7        42.656    39446535.791 5 327893078.10305      -140.506 5        35.000  
> 2024 01 01  0 19  0.0000000  0  9      -212.395462733169
I01         0.000 8         0.00008        -0.065 8        50.938           0.000 3         0.00003        -0.138 3        23.906  
I02  39519129.899 6 155078381.29906        25.513 6        41.406    39519124.621 6 328496485.48606        53.631 6        36.094  
I03  36495640.998 8 143213613.84408         8.930 8        50.312    36495635.501 7 303363758.08907        18.910 7        44.688  
I04         0.000 7         0.00007        -0.065 7        44.375           0.000 6         0.00006        -0.138 6        36.719  
I05         0.000 8         0.00008        -0.065 8        49.062           0.000 6         0.00006        -0.138 6        41.562  
I06  38385203.442 7 150628720.58407       -49.073 7        45.000    38385195.585 6 319070766.02006      -103.814 6        38.438  
I07         0.000 7         0.00007        -0.065 7        43.281           0.000 6         0.00006        -0.138 6        37.812  
I09  36144275.410 8 141835090.99408      -119.568 8        51.406    36144269.011 7 300443125.06807      -253.340 7        44.844  
I10  39446035.666 7 154791666.94907       -66.429 7        42.656    39446028.899 5 327888862.90905      -140.862 5        34.688  
> 2024 01 01  0 19 30.0000000  0  9      -212.715645765909
I01         0.000 8         0.00008        -0.087 8        50.938           0.000 3         0.00003        -0.185 3        23.750  
I02  39519316.912 6 155079116.43606        23.497 6        41.562    39519311.915 5 328498042.71705        49.853 5        35.938  
I03  36495710.358 8 143213886.19108         9.132 8        50.312    36495704.862 7 303364334.99607        19.232 7        44.531  
I04         0.000 7         0.00007        -0.087 7        44.375           0.000 6         0.00006        -0.185 6        37.031  
I05         0.000 8         0.00008        -0.087 8        48.906           0.000 6         0.00006        -0.185 6        41.562  
I06  38384828.437 7 150627249.79607       -49.128 7        44.844    38384820.894 6 319067650.51306      -103.957 6        38.594  
I07         0.000 7         0.00007        -0.087 7        43.438           0.000 6         0.00006        -0.185 6        37.969  
I09  36143362.162 8 141831507.33508      -119.524 8        51.406    36143355.860 7 300435533.94007      -253.194 7        45.000  
I10  39445528.169 7 154789674.45107       -66.666 7        42.969    39445520.861 5 327884642.28105      -140.849 5        35.156  
> 2024 01 01  0 20  0.0000000  0  9      -212.454790022881
I01         0.000 8         0.00008        -0.153 8        50.938           0.000 4         0.00004        -0.324 4        24.375  
I02  39519490.014 6 155079794.84106        21.443 6        41.562    39519485.076 5 328499479.83905        45.578 5        35.625  
I03  36495780.980 8 143214163.09208         9.125 8        50.312    36495775.384 7 303364921.55307        19.312 7        44.688  
I04         0.000 7         0.00007        -0.153 7        44.219           0.000 6         0.00006        -0.324 6        37.656  
I05         0.000 8         0.00008        -0.153 8        48.750           0.000 6         0.00006        -0.324 6        41.250  
I06  38384453.700 7 150625778.13107       -49.272 7        44.844    38384445.906 6 319064533.14606      -104.717 6        38.438  
I07         0.000 7         0.00007        -0.153 7        43.438           0.000 6         0.00006        -0.324 6        38.125  
I09  36142449.064 8 141827923.93208      -119.602 8        51.406    36142442.623 7 300427943.34807      -253.332 7        45.156  
I10  39445019.896 7 154787679.41607       -66.877 7        42.969    39445012.764 5 327880416.28505      -141.340 5        35.156  
> 2024 01 01  0 20 30.0000000  0  9      -212.281085853902
I01         0.000 8         0.00008        -0.104 8        50.938           0.000 4         0.00004        -0.220 4        24.375  
I02  39519648.704 6 155080417.26306        19.759 6        41.719    39519643.258 5 328500798.32605        42.020 5        35.938  
I03  36495852.753 8 143214444.53408         9.332 8        50.312    36495847.130 7 303365517.74307        19.750 7        44.688  
I04         0.000 7         0.00007        -0.104 7        44.062           0.000 6         0.00006        -0.220 6        37.656  
I05         0.000 8         0.00008        -0.104 8        48.750           0.000 6         0.00006        -0.220 6        41.406  
I06  38384078.333 7 150624305.62707       -49.270 7        44.844    38384070.892 6 319061414.00606      -104.414 6        38.750  
I07         0.000 7         0.00007        -0.104 7        43.438           0.000 6         0.00006        -0.220 6        38.125  
I09  36141535.931 8 141824340.76308      -119.527 8        51.406    36141529.747 7 300420353.25007      -253.167 7        45.156  
I10  39444510.854 7 154785681.88007       -66.826 7        42.969    39444503.812 5 327876184.99405      -141.334 5        35.469  
> 2024 01 01  0 21  0.0000000  0  9      -212.710046560951
I01         0.000 8         0.00008        -0.178 8        50.938           0.000 4         0.00004        -0.378 4        25.000  
I02  39519792.690 6 155080982.98606        17.468 6        41.875    39519787.193 5 328501996.74705        37.127 5        35.781  
I03  36495925.647 8 143214730.55208         9.368 8        50.312    36495920.136 7 303366123.60807        20.013 7        44.688  
I04         0.000 7         0.00007        -0.178 7        44.375           0.000 6         0.00006        -0.378 6        37.344  
I05         0.000 8         0.00008        -0.178 8        48.438           0.000 6         0.00006        -0.378 6        41.562  
I06  38383702.853 7 150622832.23107       -49.262 7        44.844    38383695.502 6 319058292.96906      -104.680 6        38.438  
I07         0.000 7         0.00007        -0.178 7        43.438           0.000 6         0.00006        -0.378 6        37.969  
I09  36140622.839 8 141820757.78708      -119.699 8        51.406    36140616.612 7 300412763.58007      -253.296 7        45.000  
I10  39444001.257 7 154783681.81507       -66.988 7        42.969    39443993.875 5 327871948.35805      -141.464 5        35.312  
> 2024 01 01  0 21 30.0000000  0  9      -212.417655330382
I01         0.000 8         0.00008        -0.081 8        50.781           0.000 3         0.00003        -0.171 3        21.094  
I02  39519922.761 6 155081492.58206        16.069 6        41.875    39519917.076 5 328503076.25405        34.436 5        35.938  
I03  36495999.601 8 143215021.14108         9.640 8        50.312    36495994.022 7 303366739.15907        20.529 7        44.844  
I04         0.000 7         0.00007        -0.081 7        44.531           0.000 6         0.00006        -0.171 6        38.281  
I05         0.000 8         0.00008        -0.081 8        48.281           0.000 6         0.00006        -0.171 6        41.562  
I06  38383327.138 7 150621357.94507       -49.189 7        44.688    38383319.611 6 319055170.06706      -104.348 6        38.594  
I07         0.000 7         0.00007        -0.081 7        43.438           0.000 6         0.00006        -0.171 6        38.125  
I09  36139710.007 8 141817175.08008      -119.512 8        51.406    36139703.604 7 300405174.45807      -253.140 7        45.156  
I10  39443491.095 7 154781679.26707       -66.981 7        42.969    39443483.735 5 327867706.45605      -141.665 5        35.469  
> 2024 01 01  0 22  0.0000000  0  9      -212.321754859722
I01         0.000 8         0.00008        -0.050 8        50.938           0.000 4         0.00004        -0.106 4        25.000  
I02  39520038.439 6 155081945.60806        14.107 6        41.875    39520032.840 6 328504035.90906        30.040 6        36.094  
I03  36496074.821 8 143215316.25408         9.845 8        50.312    36496069.318 7 303367364.29407        21.092 7        44.844  
I04         0.000 7         0.00007        -0.050 7        44.688           0.000 6         0.00006        -0.106 6        37.969  
I05         0.000 8         0.00008        -0.050 8        48.281           0.000 6         0.00006        -0.106 6        41.562  
I06  38382951.461 7 150619882.80407       -49.197 7        44.688    38382943.715 6 319052045.32506      -104.477 6        38.750  
I07         0.000 7         0.00007        -0.050 7        43.438           0.000 6         0.00006        -0.106 6        37.969  
I09  36138797.114 8 141813592.61008      -119.476 8        51.406    36138790.510 7 300397585.83907      -253.111 7        45.000  
I10  39442979.870 7 154779674.21307       -66.784 7        43.125    39442972.369 5 327863459.25705      -142.157 5        35.312  
> 2024 01 01  0 22 30.0000000  0  9      -212.647333436466
I01         0.000 8         0.00008        -0.031 8        51.094           0.000 3         0.00003        -0.066 3        22.188  
I02  39520139.002 6 155082342.49706        12.319 6        41.719    39520133.977 5 328504876.66705        26.415 5        35.938  
I03  36496151.149 8 143215615.92908        10.138 8        50.312    36496145.754 7 303367999.08607        21.282 7        44.844  
I04         0.000 7         0.00007        -0.031 7        44.375           0.000 6         0.00006        -0.066 6        38.125  
I05         0.000 8         0.00008        -0.031 8        48.438           0.000 6         0.00006        -0.066 6        41.875  
I06  38382575.090 7 150618406.80007       -49.250 7        44.844    38382567.751 6 319048918.80206      -104.324 6        38.594  
I07         0.000 7         0.00007        -0.031 7        43.438           0.000 6         0.00006        -0.066 6        37.812  
I09  36137884.223 8 141810010.35008      -119.434 8        51.406    36137877.548 7 300389997.67307      -253.026 7        45.000  
I10  39442468.328 7 154777666.70007       -66.922 7        43.281    39442461.523 5 327859206.81705      -141.966 5        35.625  
> 2024 01 01  0 23  0.0000000  0  9      -212.911655904060
I01         0.000 8         0.00008         0.036 8        51.094           0.000 4         0.00004         0.076 4        24.688  
I02  39520225.382 6 155082682.20706        10.532 6        41.719    39520220.733 6 328505596.31206        21.750 6        36.406  
I03  36496228.756 8 143215920.15608        10.295 8        50.312    36496223.157 7 303368643.52307        21.677 7        44.844  
I04         0.000 7         0.00007         0.036 7        44.219           0.000 6         0.00006         0.076 6        38.281  
I05         0.000 8         0.00008         0.036 8        48.281           0.000 7         0.00007         0.076 7        42.031  
I06  38382198.786 7 150616929.97107       -49.036 7        44.688    38382191.308 6 319045790.50406      -104.160 6        38.594  
I07         0.000 7         0.00007         0.036 7        43.281           0.000 6         0.00006         0.076 6        38.125  
I09  36136971.420 8 141806428.29008      -119.323 8        51.406    36136964.857 7 300382409.93007      -252.954 7        44.844  
I10  39441956.057 7 154775656.72007       -66.779 7        43.281    39441949.462 5 327854949.15905      -141.952 5        35.625  
> 2024 01 01  0 23 30.0000000  0  9      -212.183062510812
I01         0.000 8         0.00008        -0.070 8        50.938           0.000 4         0.00004        -0.149 4        24.531  
I02  39520298.091 6 155082965.93306         8.483 6        41.875    39520293.255 6 328506197.36406        17.837 6        36.406  
I03  36496307.476 8 143216228.90908        10.311 8        50.312    36496301.877 7 303369297.55307        21.781 7        44.688  
I04         0.000 7         0.00007        -0.070 7        44.062           0.000 6         0.00006        -0.149 6        38.594  
I05         0.000 8         0.00008        -0.070 8        48.281           0.000 6         0.00006        -0.149 6        41.875  
I06  38381822.382 7 150615452.29607       -49.296 7        44.844    38381814.451 6 319042660.41906      -104.681 6        38.438  
I07         0.000 7         0.00007        -0.070 7        43.281           0.000 6         0.00006        -0.149 6        38.281  
I09  36136058.602 8 141802846.43808      -119.480 8        51.406    36136051.971 7 300374822.62107      -253.115 7        44.688  
I10  39441443.532 7 154773644.28007       -67.224 7        43.281    39441436.408 5 327850686.30605      -142.529 5        35.625  
> 2024 01 01  0 24  0.0000000  0  9      -209.797085234067
I01         0.000 8         0.00008        -0.073 8        50.938           0.000 3         0.00003        -0.154 3        22.500  
I02  39520355.763 6 155083193.03806         6.560 6        41.875    39520351.814 6 328506678.49006        13.643 6        36.562  
I03  36496387.208 8 143216542.23008        10.495 8        50.312    36496381.699 7 303369961.24907        22.182 7        44.688  
I04         0.000 7         0.00007        -0.073 7        44.062           0.000 6         0.00006        -0.154 6        38.438  
I05         0.000 8         0.00008        -0.073 8        48.281           0.000 6         0.00006        -0.154 6        41.875  
I06  38381445.576 7 150613973.80107       -49.429 7        44.844    38381437.485 6 319039528.58206      -104.367 6        38.438  
I07         0.000 7         0.00007        -0.073 7        43.438           0.000 6         0.00006        -0.154 6        38.281  
I09  36135145.961 8 141799264.77608      -119.521 8        51.406    36135139.111 7 300367235.70907      -253.077 7        44.844  
I10  39440929.608 7 154771629.38707       -67.189 7        43.125    39440923.536 5 327846418.25305      -142.584 5        35.625  
> 2024 01 01  0 24 30.0000000  0  9      -209.288711845532
I01         0.000 8         0.00008        -0.086 8        51.094           0.000 4         0.00004        -0.183 4        24.219  
I02  39520399.354 7 155083363.37507         4.550 7        42.031    39520394.256 6 328507039.35706         9.651 6        36.875  
I03  36496468.328 8 143216860.07508        10.780 8        50.312    36496462.818 7 303370634.53507        22.530 7        44.688  
I04         0.000 7         0.00007        -0.086 7        44.062           0.000 6         0.00006        -0.183 6        38.594  
I05         0.000 8         0.00008        -0.086 8        48.281           0.000 7         0.00007        -0.183 7        42.031  
I06  38381068.604 7 150612494.45707       -49.344 7        44.844    38381060.679 6 319036394.97406      -105.133 6        38.438  
I07         0.000 7         0.00007        -0.086 7        43.438           0.000 6         0.00006        -0.183 6        38.125  
I09  36134233.196 8 141795683.29708      -119.486 8        51.406    36134226.527 7 300359649.20707      -253.092 7        45.000  
I10  39440415.945 7 154769612.08007       -67.554 7        43.125    39440409.185 5 327842145.09205      -142.322 5        35.938  
> 2024 01 01  0 25  0.0000000  0  9      -209.387526426389
I01         0.000 8         0.00008        -0.124 8        50.938           0.000 3         0.00003        -0.263 3        22.656  
I02  39520428.309 6 155083477.99406         2.662 6        41.875    39520424.151 6 328507282.21706         5.954 6        36.875  
I03  36496550.459 8 143217182.45708        10.627 8        50.312    36496544.887 7 303371317.43807        22.622 7        44.844  
I04         0.000 7         0.00007        -0.124 7        44.062           0.000 6         0.00006        -0.263 6        37.969  
I05         0.000 8         0.00008        -0.124 8        48.438           0.000 7         0.00007        -0.263 7        42.188  
I06  38380691.325 7 150611014.29007       -49.252 7        44.844    38380683.696 6 319033259.60706      -104.670 6        38.125  
I07         0.000 7         0.00007        -0.124 7        43.438           0.000 6         0.00006        -0.263 6        38.281  
I09  36133320.639 8 141792102.02208      -119.455 8        51.406    36133313.952 7 300352063.12307      -253.054 7        45.000  
I10  39439901.054 7 154767592.36107       -67.842 7        43.125    39439894.349 5 327837866.82505      -142.967 5        35.781  
> 2024 01 01  0 25 30.0000000  0  9      -208.616551126070
I01         0.000 8         0.00008        -0.114 8        50.938           0.000 3         0.00003        -0.241 3        22.812  
I02  39520443.545 6 155083536.00006         1.066 6        41.875    39520438.630 6 328507405.14006         2.145 6        36.562  
I03  36496633.677 8 143217509.37108        10.746 8        50.312    36496628.119 7 303372009.92407        22.985 7        44.688  
I04         0.000 7         0.00007        -0.114 7        43.906           0.000 6         0.00006        -0.241 6        37.500  
I05         0.000 8         0.00008        -0.114 8        48.594           0.000 7         0.00007        -0.241 7        42.031  
I06  38380314.128 7 150609533.29107       -49.567 7        44.688    38380306.110 6 319030122.48706      -104.912 6        38.125  
I07         0.000 7         0.00007        -0.114 7        43.438           0.000 6         0.00006        -0.241 6        38.281  
I09  36132408.072 8 141788520.94708      -119.508 8        51.406    36132401.525 7 300344477.45807      -253.188 7        44.844  
I10  39439386.215 7 154765570.22807       -67.718 7        43.125    39439379.420 5 327833583.43605      -143.057 5        35.938  
> 2024 01 01  0 26  0.0000000  0  9      -209.058472814416
I01         0.000 8         0.00008        -0.012 8        51.094           0.000 4         0.00004        -0.025 4        25.000  
I02  39520443.654 6 155083538.16906        -0.846 6        41.875    39520439.524 6 328507409.78706        -1.979 6        36.562  
I03  36496718.294 8 143217840.81008        11.044 8        50.312    36496712.644 7 303372712.00007        23.533 7        44.844  
I04         0.000 7         0.00007        -0.012 7        44.062           0.000 6         0.00006        -0.025 6        37.188  
I05         0.000 8         0.00008        -0.012 8        48.750           0.000 7         0.00007        -0.025 7        42.031  
I06  38379936.148 7 150608051.53607       -49.424 7        44.844    38379928.375 6 319026983.76606      -104.797 6        37.969  
I07         0.000 7         0.00007        -0.012 7        43.438           0.000 6         0.00006        -0.025 6        38.281  
I09  36131495.422 8 141784940.03408      -119.444 8        51.562    36131488.973 7 300336892.15107      -252.846 7        44.844  
I10  39438870.018 7 154763545.71207       -67.120 7        42.969    39438863.459 5 327829294.99805      -143.229 5        35.938  
> 2024 01 01  0 26 30.0000000  0  9      -208.839609848553
I01         0.000 8         0.00008        -0.011 8        50.938           0.000 4         0.00004        -0.023 4        24.531  
I02  39520430.174 6 155083483.17806        -2.489 6        41.875    39520424.836 6 328507293.36006        -5.995 6        36.719  
I03  36496803.835 8 143218176.80008        11.387 8        50.312    36496798.446 7 303373423.71007        23.951 7        44.844  
I04         0.000 7         0.00007        -0.011 7        44.062           0.000 6         0.00006        -0.023 6        36.875  
I05         0.000 8         0.00008        -0.011 8        48.906           0.000 7         0.00007        -0.023 7        42.344  
I06  38379558.414 7 150606568.92207       -49.470 7        44.688    38379550.598 6 319023843.23106      -104.891 6        38.125  
I07         0.000 7         0.00007        -0.011 7        43.438           0.000 6         0.00006        -0.023 6        38.438  
I09  36130582.834 8 141781359.33408      -119.363 8        51.406    36130576.522 7 300329307.28307      -252.840 7        44.844  
I10  39438353.636 7 154761518.80307       -67.673 7        43.125    39438346.778 5 327825001.51305      -143.306 5        35.938  
> 2024 01 01  0 27  0.0000000  0  9      -208.763430715896
I01         0.000 8         0.00008        -0.114 8        50.938           0.000 3         0.00003        -0.241 3        21.094  
I02  39520401.483 7 155083372.59107        -4.383 7        42.031    39520397.237 6 328507059.16806        -9.642 6        37.188  
I03  36496890.543 8 143218517.30208        11.124 8        50.312    36496885.102 7 303374144.99007        24.043 7        44.844  
I04         0.000 7         0.00007        -0.114 7        44.062           0.000 6         0.00006        -0.241 6        37.344  
I05         0.000 8         0.00008        -0.114 8        48.906           0.000 7         0.00007        -0.241 7        42.344  
I06  38379180.519 7 150605085.51507       -49.795 7        44.844    38379172.542 6 319020701.00706      -104.765 6        38.281  
I07         0.000 7         0.00007        -0.114 7        43.438           0.000 6         0.00006        -0.241 6        38.281  
I09  36129670.430 8 141777778.81908      -119.470 8        51.406    36129664.063 7 300321722.81307      -253.155 7        44.844  
I10  39437836.489 7 154759489.52107       -67.938 7        42.969    39437830.047 5 327820702.99305      -143.608 5        35.938  
> 2024 01 01  0 27 30.0000000  0  9      -207.936484232123
I01         0.000 8         0.00008         0.012 8        50.938           0.000 4         0.00004         0.025 4        24.531  
I02  39520359.470 7 155083205.66807        -6.411 7        42.188    39520354.870 6 328506705.64906       -13.366 6        37.031  
I03  36496978.532 8 143218862.32608        11.649 8        50.312    36496972.938 7 303374875.84407        24.435 7        44.844  
I04         0.000 7         0.00007         0.012 7        44.062           0.000 6         0.00006         0.025 6        36.875  
I05         0.000 8         0.00008         0.012 8        48.750           0.000 7         0.00007         0.025 7        42.656  
I06  38378802.092 7 150603601.30707       -49.332 7        44.844    38378794.009 6 319017557.07706      -104.713 6        38.281  
I07         0.000 7         0.00007         0.012 7        43.281           0.000 6         0.00006         0.025 6        38.594  
I09  36128758.007 8 141774198.46708      -119.329 8        51.406    36128752.071 7 300314138.68307      -252.943 7        45.000  
I10  39437318.745 7 154757457.88407       -67.606 7        42.969    39437312.238 5 327816399.47805      -143.494 5        35.938  
> 2024 01 01  0 28  0.0000000  0  9      -208.457411742303
I01         0.000 8         0.00008        -0.076 8        50.938           0.000 3         0.00003        -0.161 3        21.094  
I02  39520302.144 6 155082982.06906        -8.472 6        41.875    39520297.583 6 328506232.08606       -17.904 6        36.719  
I03  36497067.728 8 143219211.87308        11.676 8        50.312    36497062.102 7 303375616.27307        24.636 7        45.000  
I04         0.000 7         0.00007        -0.076 7        44.219           0.000 6         0.00006        -0.161 6        37.031  
I05         0.000 8         0.00008        -0.076 8        48.750           0.000 7         0.00007        -0.161 7        42.812  
I06  38378423.844 7 150602116.31607       -49.527 7        44.688    38378415.847 6 319014411.49506      -105.106 6        38.438  
I07         0.000 7         0.00007        -0.076 7        43.438           0.000 6         0.00006        -0.161 6        38.281  
I09  36127845.591 8 141770618.32508      -119.470 8        51.406    36127839.696 7 300306555.00807      -252.981 7        45.312  
I10  39436800.201 7 154755423.89407       -67.934 7        42.969    39436793.959 5 327812090.98005      -143.876 5        35.781  
> 2024 01 01  0 28 30.0000000  0  9      -208.188748270362
I01         0.000 8         0.00008        -0.087 8        51.094           0.000 4         0.00004        -0.184 4        25.312  
I02  39520231.185 7 155082702.30907       -10.252 7        42.031    39520226.330 6 328505639.52906       -20.912 6        36.719  
I03  36497157.862 8 143219565.90208        11.797 8        50.312    36497152.113 7 303376366.19707        25.087 7        44.844  
I04         0.000 7         0.00007        -0.087 7        44.219           0.000 6         0.00006        -0.184 6        37.031  
I05         0.000 8         0.00008        -0.087 8        48.750           0.000 7         0.00007        -0.184 7        42.812  
I06  38378045.167 7 150600630.56107       -49.811 7        44.844    38378036.935 6 319011264.29906      -105.208 6        38.125  
I07         0.000 7         0.00007        -0.087 7        43.281           0.000 6         0.00006        -0.184 6        38.281  
I09  36126933.384 8 141767038.35608      -119.451 8        51.562    36126927.383 7 300298971.69007      -252.968 7        45.156  
I10  39436281.446 7 154753387.58207       -67.941 7        42.969    39436275.153 5 327807777.56405      -144.048 5        35.781  
> 2024 01 01  0 29  0.0000000  0  9      -208.074210247734
I01         0.000 8         0.00008        -0.087 8        50.938           0.000 4         0.00004        -0.184 4        26.250  
I02  39520146.345 7 155082369.30507       -11.965 7        42.031    39520140.807 6 328504934.19606       -26.172 6        36.250  
I03  36497249.210 8 143219924.45008        11.836 8        50.312    36497243.635 7 303377125.69307        25.203 7        44.844  
I04         0.000 7         0.00007        -0.087 7        44.219           0.000 6         0.00006        -0.184 6        37.031  
I05         0.000 8         0.00008        -0.087 8        48.750           0.000 7         0.00007        -0.184 7        42.812  
I06  38377666.274 7 150599144.00707       -49.675 7        44.844    38377658.423 6 319008115.41206      -105.387 6        38.281  
I07         0.000 7         0.00007        -0.087 7        43.281           0.000 6         0.00006        -0.184 6        38.594  
I09  36126021.156 8 141763458.56608      -119.436 8        51.562    36126015.277 7 300291388.75407      -253.005 7        45.312  
I10  39435761.803 7 154751348.93007       -68.241 7        42.969    39435755.631 5 327803459.21105      -144.353 5        35.625  
> 2024 01 01  0 29 30.0000000  0  9      -208.317330543391
I01         0.000 8         0.00008        -0.064 8        50.938           0.000 4         0.00004        -0.135 4        25.625  
I02  39520046.237 7 155081976.13407       -14.078 7        42.188    39520040.980 6 328504101.43406       -30.248 6        36.406  
I03  36497341.616 8 143220287.53608        12.105 8        50.312    36497336.168 7 303377894.80707        25.679 7        44.844  
I04         0.000 7         0.00007        -0.064 7        44.375           0.000 6         0.00006        -0.135 6        37.031  
I05         0.000 8         0.00008        -0.064 8        48.750           0.000 7         0.00007        -0.135 7        42.812  
I06  38377287.273 7 150597656.67807       -49.561 7        44.844    38377279.286 6 319004964.88606      -105.663 6        38.125  
I07         0.000 7         0.00007        -0.064 7        43.281           0.000 6         0.00006        -0.135 6        38.438  
I09  36125108.941 8 141759878.98008      -119.376 8        51.562    36125102.895 7 300283806.25507      -252.954 7        45.156  
I10  39435241.959 7 154749307.97507       -68.154 7        42.969    39435234.863 5 327799135.96305      -144.333 5        35.625  
> 2024 01 01  0 30  0.0000000  0  9      -208.727895507953
I01         0.000 8         0.00008        -0.102 8        50.938           0.000 3         0.00003        -0.215 3        23.906  
I02  39519932.320 7 155081527.76607       -15.989 7        42.344    39519925.963 6 328503151.74706       -33.618 6        36.250  
I03  36497435.450 8 143220655.11308        12.350 8        50.312    36497429.793 7 303378673.42007        25.823 7        44.844  
I04         0.000 7         0.00007        -0.102 7        44.375           0.000 6         0.00006        -0.215 6        36.719  
I05         0.000 8         0.00008        -0.102 8        48.594           0.000 7         0.00007        -0.215 7        42.812  
I06  38376907.931 7 150596168.59107       -49.813 7        44.844    38376900.047 6 319001812.73706      -104.879 6        38.125  
I07         0.000 7         0.00007        -0.102 7        43.281           0.000 6         0.00006        -0.215 6        38.438  
I09  36124196.759 8 141756299.55808      -119.380 8        51.562    36124190.697 7 300276224.09807      -252.939 7        45.000  
I10  39434720.820 7 154747264.71107       -68.430 7        42.969    39434714.698 5 327794807.82905      -144.528 5        35.781  
> 2024 01 01  0 30 30.0000000  0  9      -208.520865529794
I01         0.000 8         0.00008        -0.101 8        50.938           0.000 3         0.00003        -0.215 3        23.906  
I02  39519803.786 7 155081023.21007       -17.976 7        42.500    39519797.520 5 328502083.01605       -38.210 5        35.938  
I03  36497530.278 8 143221027.17208        12.351 8        50.312    36497524.637 7 303379461.54507        26.152 7        44.688  
I04         0.000 7         0.00007        -0.101 7        44.219           0.000 6         0.00006        -0.215 6        37.344  
I05         0.000 8         0.00008        -0.101 8        48.438           0.000 7         0.00007        -0.215 7        42.969  
I06  38376528.571 7 150594679.73907       -49.792 7        44.844    38376521.034 6 318998659.01006      -105.767 6        38.125  
I07         0.000 7         0.00007        -0.101 7        43.281           0.000 6         0.00006        -0.215 6        38.438  
I09  36123284.923 8 141752720.29608      -119.353 8        51.562    36123278.608 7 300268642.27507      -252.825 7        45.000  
I10  39434200.047 7 154745219.15307       -68.303 7        43.125    39434193.334 5 327790474.83305      -144.687 5        35.469  
> 2024 01 01  0 31  0.0000000  0  9      -208.987752326163
I01         0.000 8         0.00008        -0.121 8        50.938           0.000 3         0.00003        -0.257 3        22.500  
I02  39519661.178 7 155080462.17107       -20.015 7        42.188    39519654.388 5 328500894.66505       -42.066 5        35.625  
I03  36497626.147 8 143221403.76508        12.423 8        50.312    36497620.343 7 303380259.26707        26.449 7        44.688  
I04         0.000 7         0.00007        -0.121 7        43.906           0.000 6         0.00006        -0.257 6        37.500  
I05         0.000 8         0.00008        -0.121 8        48.438           0.000 7         0.00007        -0.257 7        42.656  
I06  38376149.130 7 150593190.15007       -49.765 7        44.844    38376141.302 6 318995503.67406      -105.318 6        38.281  
I07         0.000 7         0.00007        -0.121 7        43.281           0.000 6         0.00006        -0.257 6        38.438  
I09  36122372.738 8 141749141.23908      -119.441 8        51.562    36122366.487 7 300261060.88507      -252.795 7        45.000  
I10  39433678.072 7 154743171.32007       -68.288 7        42.969    39433671.556 5 327786137.02605      -145.023 5        35.469  
> 2024 01 01  0 31 30.0000000  0  9      -208.875534191371
I01         0.000 8         0.00008        -0.154 8        50.938           0.000 4         0.00004        -0.327 4        24.688  
I02  39519504.145 7 155079844.95507       -21.860 7        42.188    39519497.128 5 328499587.28105       -46.500 5        35.469  
I03  36497723.274 8 143221784.84608        12.531 8        50.312    36497717.573 7 303381066.49507        26.654 7        44.688  
I04         0.000 7         0.00007        -0.154 7        43.594           0.000 6         0.00006        -0.327 6        37.812  
I05         0.000 8         0.00008        -0.154 8        48.281           0.000 7         0.00007        -0.327 7        42.188  
I06  38375769.383 7 150591699.81107       -49.920 7        45.000    38375761.745 6 318992346.77206      -105.252 6        38.438  
I07         0.000 7         0.00007        -0.154 7        43.281           0.000 6         0.00006        -0.327 6        38.594  
I09  36121460.688 8 141745562.39808      -119.428 8        51.562    36121454.653 7 300253479.94907      -253.110 7        45.156  
I10  39433155.675 7 154741121.20507       -68.552 7        42.969    39433148.887 5 327781794.38605      -145.250 5        35.781  
> 2024 01 01  0 32  0.0000000  0  9      -208.894994136151
I01         0.000 8         0.00008        -0.073 8        50.938           0.000 4         0.00004        -0.154 4        24.844  
I02  39519332.412 7 155079171.17907       -23.413 7        42.344    39519325.585 5 328498160.13005       -49.938 5        35.312  
I03  36497821.530 8 143222170.41608        12.839 8        50.312    36497815.933 7 303381883.24007        27.193 7        44.688  
I04         0.000 7         0.00007        -0.073 7        43.750           0.000 6         0.00006        -0.154 6        38.125  
I05         0.000 8         0.00008        -0.073 8        48.281           0.000 7         0.00007        -0.154 7        42.031  
I06  38375389.244 7 150590208.73207       -49.637 7        45.000    38375381.739 6 318989188.31206      -105.719 6        38.438  
I07         0.000 7         0.00007        -0.073 7        43.125           0.000 6         0.00006        -0.154 6        38.594  
I09  36120548.815 8 141741983.73708      -119.296 8        51.406    36120542.615 7 300245899.40407      -252.771 7        45.156  
I10  39432632.663 7 154739068.84607       -68.717 7        43.125    39432626.531 5 327777446.99405      -145.117 5        35.625  
> 2024 01 01  0 32 30.0000000  0  9      -209.188217501697
I01         0.000 8         0.00008        -0.084 8        50.781           0.000 3         0.00003        -0.177 3        21.875  
I02  39519146.414 7 155078442.38507       -25.363 7        42.188    39519139.295 5 328496616.41405       -52.452 5        35.625  
I03  36497920.905 8 143222560.48408        12.964 8        50.312    36497914.955 7 303382709.51307        27.610 7        44.688  
I04         0.000 7         0.00007        -0.084 7        43.906           0.000 6         0.00006        -0.177 6        38.281  
I05         0.000 8         0.00008        -0.084 8        48.438           0.000 7         0.00007        -0.177 7        42.500  
I06  38375009.330 7 150588716.90307       -49.819 7        45.000    38375001.524 6 318986028.23706      -105.756 6        38.750  
I07         0.000 7         0.00007        -0.084 7        43.281           0.000 6         0.00006        -0.177 6        38.438  
I09  36119636.770 8 141738405.26408      -119.293 8        51.406    36119630.695 7 300238319.26307      -252.891 7        45.156  
I10  39432109.043 7 154737014.24507       -68.632 7        43.125    39432102.892 5 327773094.86305      -145.117 5        35.781  
> 2024 01 01  0 33  0.0000000  0  9      -209.354284275565
I01         0.000 8         0.00008         0.003 8        50.781           0.000 3         0.00003         0.007 3        22.500  
I02  39518946.233 7 155077658.02807       -26.884 7        42.031    39518939.375 5 328494955.01605       -57.479 5        35.312  
I03  36498021.416 8 143222955.00308        13.197 8        50.312    36498015.817 7 303383545.20407        27.913 7        44.688  
I04         0.000 7         0.00007         0.003 7        43.906           0.000 6         0.00006         0.007 6        38.125  
I05         0.000 8         0.00008         0.003 8        48.438           0.000 7         0.00007         0.007 7        42.656  
I06  38374628.963 7 150587224.36707       -49.752 7        45.000    38374621.632 6 318982866.67106      -105.587 6        38.750  
I07         0.000 7         0.00007         0.003 7        43.281           0.000 6         0.00006         0.007 6        38.438  
I09  36118724.938 8 141734826.98308      -119.281 8        51.406    36118718.801 7 300230739.52307      -252.503 7        45.000  
I10  39431584.997 7 154734957.41307       -68.360 7        43.125    39431578.588 5 327768738.01005      -145.253 5        35.781  
> 2024 01 01  0 33 30.0000000  0  9      -208.940155194610
I01         0.000 8         0.00008        -0.102 8        50.781           0.000 3         0.00003        -0.217 3        20.312  
I02  39518732.527 7 155076818.13107       -29.157 7        42.188    39518725.455 5 328493175.95805       -61.378 5        35.156  
I03  36498123.173 8 143223354.02508        13.260 8        50.469    36498117.494 7 303384390.44007        28.183 7        44.688  
I04         0.000 7         0.00007        -0.102 7        43.594           0.000 6         0.00006        -0.217 6        37.812  
I05         0.000 8         0.00008        -0.102 8        48.438           0.000 7         0.00007        -0.217 7        42.812  
I06  38374248.470 7 150585731.11507       -49.958 7        45.000    38374241.276 6 318979703.58106      -105.846 6        38.906  
I07         0.000 7         0.00007        -0.102 7        43.125           0.000 6         0.00006        -0.217 6        38.594  
I09  36117813.173 8 141731248.93108      -119.314 8        51.406    36117807.007 7 300223160.25907      -252.808 7        45.000  
I10  39431060.234 7 154732898.35607       -68.774 7        43.125    39431054.071 5 327764376.44305      -145.492 5        35.938  
> 2024 01 01  0 34  0.0000000  0  9      -208.552503836940
I01         0.000 8         0.00008        -0.039 8        50.781           0.000 3         0.00003        -0.083 3        22.812  
I02  39518504.073 7 155075921.55807       -30.718 7        42.031    39518496.779 5 328491276.85305       -65.203 5        35.000  
I03  36498226.022 8 143223757.53908        13.607 8        50.312    36498220.419 7 303385245.19107        28.657 7        44.688  
I04         0.000 7         0.00007        -0.039 7        43.281           0.000 6         0.00006        -0.083 6        38.125  
I05         0.000 8         0.00008        -0.039 8        48.281           0.000 7         0.00007        -0.083 7        42.969  
I06  38373867.712 7 150584237.12507       -49.814 7        45.000    38373860.517 6 318976538.95006      -105.810 6        38.906  
I07         0.000 7         0.00007        -0.039 7        43.281           0.000 6         0.00006        -0.083 6        38.438  
I09  36116901.252 8 141727671.04308      -119.305 8        51.250    36116895.099 7 300215581.35307      -252.713 7        45.000  
I10  39430535.139 7 154730837.07507       -68.887 7        43.125    39430528.813 5 327760010.16205      -145.664 5        35.938  
> 2024 01 01  0 34 30.0000000  0  9      -208.649558107989
I01         0.000 8         0.00008        -0.044 8        50.781           0.000 3         0.00003        -0.093 3        23.125  
I02  39518261.223 7 155074969.27207       -32.527 7        42.031    39518254.032 5 328489259.74105       -68.677 5        34.688  
I03  36498330.020 8 143224165.53808        13.772 8        50.312    36498324.239 7 303386109.44107        28.822 7        44.688  
I04         0.000 7         0.00007        -0.044 7        43.281           0.000 6         0.00006        -0.093 6        38.594  
I05         0.000 8         0.00008        -0.044 8        48.125           0.000 7         0.00007        -0.093 7        42.969  
I06  38373486.845 7 150582742.40507       -49.866 7        45.000    38373479.802 6 318973372.76306      -105.592 6        39.062  
I07         0.000 7         0.00007        -0.044 7        43.281           0.000 6         0.00006        -0.093 6        38.750  
I09  36115989.686 8 141724093.38608      -119.374 8        51.250    36115983.502 7 300208002.93907      -252.641 7        45.000  
I10  39430009.372 7 154728773.61407       -68.972 7        43.281    39430003.508 6 327755639.26706      -145.640 6        36.250  
> 2024 01 01  0 35  0.0000000  0  9      -208.684097731284
I01         0.000 8         0.00008        -0.028 8        50.781           0.000 3         0.00003        -0.058 3        23.750  
I02  39518004.413 7 155073961.34407       -34.235 7        42.031    39517997.061 5 328487124.75005       -73.088 5        34.531  
I03  36498435.110 8 143224578.00908        13.830 8        50.469    36498429.395 7 303386983.17807        29.147 7        44.688  
I04         0.000 7         0.00007        -0.028 7        43.125           0.000 6         0.00006        -0.058 6        38.594  
I05         0.000 8         0.00008        -0.028 8        48.125           0.000 7         0.00007        -0.058 7        42.969  
I06  38373105.856 7 150581247.00807       -50.042 7        45.000    38373098.709 6 318970205.13406      -105.684 6        38.906  
I07         0.000 7         0.00007        -0.028 7        43.125           0.000 6         0.00006        -0.058 6        38.594  
I09  36115078.028 8 141720515.93808      -119.334 8        51.250    36115071.807 7 300200424.96107      -252.765 7        44.844  
I10  39429483.193 7 154726707.96107       -68.821 7        43.281    39429476.534 6 327751263.73206      -146.074 6        36.250  
> 2024 01 01  0 35 30.0000000  0  9      -208.379612482635
I01         0.000 8         0.00008        -0.098 8        50.625           0.000 4         0.00004        -0.208 4        24.688  
I02  39517733.522 6 155072897.92506       -36.510 6        41.875    39517726.545 5 328484872.24505       -76.848 5        34.688  
I03  36498541.349 8 143224994.96508        13.797 8        50.312    36498535.466 7 303387866.40107        29.351 7        44.688  
I04         0.000 7         0.00007        -0.098 7        43.281           0.000 6         0.00006        -0.208 6        38.750  
I05         0.000 7         0.00007        -0.098 7        47.969           0.000 7         0.00007        -0.208 7        42.812  
I06  38372724.536 7 150579750.87407       -49.980 7        45.000    38372717.586 6 318967035.96006      -105.934 6        39.219  
I07         0.000 7         0.00007        -0.098 7        43.125           0.000 6         0.00006        -0.208 6        38.594  
I09  36114166.464 8 141716938.71708      -119.335 8        51.250    36114160.204 7 300192847.46007      -252.752 7        45.000  
I10  39428955.739 7 154724640.12907       -69.079 7        43.281    39428950.082 6 327746883.59506      -146.073 6        36.250  
> 2024 01 01  0 36  0.0000000  0  9      -207.589026129597
I01         0.000 8         0.00008        -0.131 8        50.625           0.000 4         0.00004        -0.277 4        25.625  
I02  39517448.331 7 155071778.16707       -38.401 7        42.031    39517441.272 5 328482500.37405       -80.981 5        35.156  
I03  36498648.809 8 143225416.40208        13.989 8        50.312    36498642.998 7 303388759.12707        29.564 7        44.688  
I04         0.000 7         0.00007        -0.131 7        43.281           0.000 6         0.00006        -0.277 6        38.750  
I05         0.000 8         0.00008        -0.131 8        48.125           0.000 7         0.00007        -0.277 7        42.812  
I06  38372343.291 7 150578254.08107       -50.064 7        44.844    38372336.133 6 318963865.39306      -105.808 6        39.219  
I07         0.000 7         0.00007        -0.131 7        43.281           0.000 6         0.00006        -0.277 6        38.750  
I09  36113254.818 8 141713361.69808      -119.345 8        51.250    36113248.781 7 300185270.39407      -252.819 7        45.000  
I10  39428428.541 7 154722570.13207       -69.409 7        43.438    39428422.597 6 327742498.87606      -146.494 6        36.406  
> 2024 01 01  0 36 30.0000000  0  9      -207.301222221094
I01         0.000 8         0.00008        -0.118 8        50.625           0.000 4         0.00004        -0.250 4        24.375  
I02  39517149.137 6 155070603.36406       -40.207 6        41.875    39517142.129 5 328480011.90505       -85.344 5        35.156  
I03  36498757.279 8 143225842.30008        14.145 8        50.312    36498751.373 7 303389661.29107        30.009 7        44.688  
I04         0.000 7         0.00007        -0.118 7        43.281           0.000 6         0.00006        -0.250 6        38.438  
I05         0.000 7         0.00007        -0.118 7        47.969           0.000 7         0.00007        -0.250 7        42.344  
I06  38371961.434 7 150576756.57307       -50.055 7        45.000    38371954.601 6 318960693.30206      -106.115 6        39.219  
I07         0.000 7         0.00007        -0.118 7        43.281           0.000 6         0.00006        -0.250 6        38.750  
I09  36112343.349 8 141709784.93808      -119.384 8        51.250    36112337.104 7 300177693.87207      -252.792 7        45.000  
I10  39427900.534 7 154720497.98507       -69.396 7        43.438    39427894.599 6 327738109.57406      -146.498 6        36.406  
> 2024 01 01  0 37  0.0000000  0  9      -207.322058510118
I01         0.000 8         0.00008        -0.100 8        50.625           0.000 3         0.00003        -0.213 3        21.562  
I02  39516834.884 6 155069371.86806       -42.146 6        41.719    39516828.524 5 328477403.36305       -89.496 5        35.312  
I03  36498866.993 8 143226272.66808        14.265 8        50.312    36498861.054 7 303390572.93407        30.335 7        44.688  
I04         0.000 7         0.00007        -0.100 7        43.125           0.000 6         0.00006        -0.213 6        38.281  
I05         0.000 7         0.00007        -0.100 7        47.969           0.000 7         0.00007        -0.213 7        42.188  
I06  38371580.013 7 150575258.41807       -50.145 7        45.000    38371572.810 6 318957519.84406      -105.877 6        39.062  
I07         0.000 7         0.00007        -0.100 7        43.281           0.000 6         0.00006        -0.213 6        38.750  
I09  36111431.921 8 141706208.39508      -119.326 8        51.250    36111425.631 7 300170117.81307      -252.768 7        44.844  
I10  39427372.108 7 154718423.70607       -69.164 7        43.594    39427366.083 6 327733715.77006      -146.576 6        36.406  
> 2024 01 01  0 37 30.0000000  0  9      -207.426834093101
I01         0.000 8         0.00008        -0.067 8        50.625           0.000 4         0.00004        -0.142 4        25.938  
I02  39516506.875 6 155068084.91306       -44.051 6        41.719    39516500.379 5 328474677.31405       -93.304 5        35.469  
I03  36498977.759 8 143226707.48908        14.472 8        50.312    36498972.055 7 303391494.00307        30.816 7        44.688  
I04         0.000 7         0.00007        -0.067 7        43.125           0.000 6         0.00006        -0.142 6        37.969  
I05         0.000 8         0.00008        -0.067 8        48.281           0.000 7         0.00007        -0.142 7        42.188  
I06  38371197.885 7 150573759.59307       -50.056 7        45.000    38371190.771 6 318954344.97206      -105.880 6        39.219  
I07         0.000 7         0.00007        -0.067 7        43.125           0.000 6         0.00006        -0.142 6        38.594  
I09  36110520.569 8 141702632.08608      -119.209 8        51.250    36110514.217 7 300162542.25007      -252.721 7        44.844  
I10  39426843.190 7 154716347.30207       -69.131 7        43.438    39426837.138 6 327729317.49306      -146.575 6        36.250  
> 2024 01 01  0 38  0.0000000  0  9      -207.489622450958
I01         0.000 8         0.00008        -0.080 8        50.625           0.000 3         0.00003        -0.170 3        22.344  
I02  39516164.687 6 155066742.11606       -45.820 6        41.562    39516158.673 5 328471833.02505       -97.179 5        35.625  
I03  36499089.674 8 143227146.76608        14.649 8        50.312    36499083.938 7 303392424.51407        31.076 7        44.688  
I04         0.000 7         0.00007        -0.080 7        42.969           0.000 6         0.00006        -0.170 6        38.125  
I05         0.000 8         0.00008        -0.080 8        48.281           0.000 6         0.00006        -0.170 6        41.875  
I06  38370815.836 7 150572260.09207       -50.101 7        45.000    38370808.779 6 318951168.65506      -105.971 6        39.062  
I07         0.000 7         0.00007        -0.080 7        43.125           0.000 6         0.00006        -0.170 6        38.750  
I09  36109609.385 8 141699056.07808      -119.226 8        51.250    36109603.001 7 300154967.32607      -252.784 7        45.000  
I10  39426313.280 7 154714268.78307       -69.397 7        43.438    39426307.488 6 327724914.69106      -147.392 6        36.562  
> 2024 01 01  0 38 30.0000000  0  9      -206.796906841925
I01         0.000 8         0.00008        -0.079 8        50.781           0.000 4         0.00004        -0.167 4        24.844  
I02  39515808.424 6 155065343.87006       -47.699 6        41.719    39515802.461 5 328468871.27205      -100.739 5        35.469  
I03  36499202.776 8 143227590.49808        14.734 8        50.312    36499196.997 7 303393364.46307        31.408 7        44.531  
I04         0.000 7         0.00007        -0.079 7        43.281           0.000 6         0.00006        -0.167 6        37.500  
I05         0.000 8         0.00008        -0.079 8        48.281           0.000 6         0.00006        -0.167 6        41.875  
I06  38370433.595 7 150570759.93207       -50.165 7        45.156    38370426.696 6 318947990.95706      -106.209 6        38.906  
I07         0.000 7         0.00007        -0.079 7        43.281           0.000 6         0.00006        -0.167 6        38.594  
I09  36108698.103 8 141695480.29508      -119.189 8        51.250    36108691.941 7 300147392.88107      -252.483 7        45.000  
I10  39425783.320 7 154712188.14607       -69.348 7        43.438    39425777.391 6 327720507.43606      -147.080 6        36.562  
> 2024 01 01  0 39  0.0000000  0  9      -210.544198070445
I01         0.000 8         0.00008        -0.001 8        50.781           0.000 4         0.00004        -0.003 4        24.375  
I02  39515437.655 6 155063889.51206       -48.953 6        41.719    39515431.972 5 328465790.63605      -104.631 5        35.469  
I03  36499317.027 8 143228038.68608        14.896 8        50.312    36499311.165 7 303394313.84407        32.007 7        44.688  
I04         0.000 7         0.00007        -0.001 7        43.438           0.000 6         0.00006        -0.003 6        37.656  
I05         0.000 8         0.00008        -0.001 8        48.281           0.000 6         0.00006        -0.003 6        41.875  
I06  38370051.149 7 150569259.12607       -50.035 7        45.156    38370043.881 6 318944811.87806      -105.762 6        38.906  
I07         0.000 7         0.00007        -0.001 7        43.125           0.000 6         0.00006        -0.003 6        38.750  
I09  36107787.029 8 141691904.81208      -119.137 8        51.250    36107780.954 7 300139819.07307      -252.430 7        44.844  
I10  39425252.640 7 154710105.44107       -69.418 7        43.438    39425246.672 6 327716095.79406      -147.449 6        36.719  
> 2024 01 01  0 39 30.0000000  0  9      -210.742321930350
I01         0.000 8         0.00008        -0.106 8        50.938           0.000 4         0.00004        -0.224 4        24.375  
I02  39515053.328 6 155062380.10406       -51.571 6        41.562    39515046.942 5 328462593.44405      -109.087 5        35.469  
I03  36499432.304 8 143228491.33808        15.119 8        50.312    36499426.445 7 303395272.69207        31.928 7        44.688  
I04         0.000 7         0.00007        -0.106 7        43.750           0.000 6         0.00006        -0.224 6        38.125  
I05         0.000 8         0.00008        -0.106 8        48.125           0.000 7         0.00007        -0.224 7        42.031  
I06  38369668.778 7 150567757.64107       -50.204 7        45.156    38369661.313 6 318941631.35806      -106.048 6        38.906  
I07         0.000 7         0.00007        -0.106 7        43.281           0.000 6         0.00006        -0.224 6        38.594  
I09  36106875.891 8 141688329.59208      -119.324 8        51.406    36106869.721 7 300132245.81607      -252.716 7        44.844  
I10  39424721.501 7 154708020.65207       -69.494 7        43.594    39424715.071 6 327711679.72106      -147.191 6        36.719  
> 2024 01 01  0 40  0.0000000  0  9      -210.671838276117
I01         0.000 8         0.00008        -0.131 8        50.938           0.000 4         0.00004        -0.277 4        24.688  
I02  39514654.502 6 155060815.61906       -53.293 6        41.719    39514648.890 5 328459279.54905      -112.442 5        35.625  
I03  36499548.831 8 143228948.42908        15.136 8        50.312    36499543.046 7 303396240.94707        32.134 7        44.688  
I04         0.000 7         0.00007        -0.131 7        43.594           0.000 6         0.00006        -0.277 6        37.656  
I05         0.000 8         0.00008        -0.131 8        48.125           0.000 7         0.00007        -0.277 7        42.031  
I06  38369285.879 7 150566255.51907       -50.097 7        45.156    38369278.577 6 318938449.51506      -106.382 6        39.062  
I07         0.000 7         0.00007        -0.131 7        43.281           0.000 6         0.00006        -0.277 6        38.594  
I09  36105964.952 8 141684754.63808      -119.312 8        51.406    36105958.754 7 300124673.11707      -252.741 7        45.000  
I10  39424189.873 7 154705933.78507       -69.940 7        43.438    39424183.730 6 327707259.28606      -147.530 6        36.875  
> 2024 01 01  0 40 30.0000000  0  9      -210.778975071609
I01         0.000 8         0.00008        -0.028 8        50.938           0.000 4         0.00004        -0.059 4        24.531  
I02  39514241.554 6 155059194.83406       -54.876 6        41.875    39514235.418 5 328455846.40505      -115.886 5        35.469  
I03  36499666.466 8 143229409.99008        15.454 8        50.312    36499660.658 7 303397218.65907        32.592 7        44.688  
I04         0.000 7         0.00007        -0.028 7        43.594           0.000 6         0.00006        -0.059 6        37.656  
I05         0.000 8         0.00008        -0.028 8        48.125           0.000 7         0.00007        -0.059 7        42.188  
I06  38368902.853 7 150564752.76907       -49.970 7        45.312    38368895.565 6 318935266.32006      -106.272 6        38.906  
I07         0.000 7         0.00007        -0.028 7        43.281           0.000 6         0.00006        -0.059 6        38.594  
I09  36105053.977 8 141681180.00608      -119.208 8        51.406    36105047.807 7 300117101.11107      -252.394 7        45.000  
I10  39423657.660 7 154703844.87407       -69.655 7        43.438    39423651.599 6 327702834.47106      -147.792 6        36.875  
> 2024 01 01  0 41  0.0000000  0  9      -210.808792553203
I01         0.000 8         0.00008        -0.116 8        50.938           0.000 4         0.00004        -0.246 4        25.469  
I02  39513814.549 7 155057519.44907       -56.699 7        42.031    39513808.673 5 328452297.60505      -120.196 5        35.625  
I03  36499785.222 8 143229875.95608        15.440 8        50.312    36499779.369 7 303398205.69807        32.870 7        44.688  
I04         0.000 7         0.00007        -0.116 7        43.906           0.000 6         0.00006        -0.246 6        38.438  
I05         0.000 8         0.00008        -0.116 8        48.281           0.000 7         0.00007        -0.246 7        42.500  
I06  38368519.697 7 150563249.38807       -50.437 7        45.000    38368512.595 6 318932081.80006      -106.392 6        38.906  
I07         0.000 7         0.00007        -0.116 7        43.281           0.000 6         0.00006        -0.246 6        38.594  
I09  36104143.233 8 141677605.69108      -119.303 8        51.406    36104137.147 7 300109529.77507      -252.686 7        45.000  
I10  39423124.509 7 154701753.92707       -69.919 7        43.438    39423118.706 6 327698405.36906      -147.980 6        37.031  
> 2024 01 01  0 41 30.0000000  0  9      -210.808450478949
I01         0.000 8         0.00008        -0.121 8        50.938           0.000 3         0.00003        -0.255 3        23.906  
I02  39513373.888 7 155055789.14507       -58.779 7        42.031    39513367.333 5 328448632.44605      -124.662 5        35.469  
I03  36499904.975 8 143230346.37308        15.602 8        50.312    36499899.154 7 303399202.17907        33.091 7        44.688  
I04         0.000 7         0.00007        -0.121 7        44.062           0.000 6         0.00006        -0.255 6        38.750  
I05         0.000 8         0.00008        -0.121 8        48.281           0.000 7         0.00007        -0.255 7        42.656  
I06  38368136.371 7 150561745.37607       -50.372 7        45.156    38368129.461 6 318928895.92106      -106.505 6        38.906  
I07         0.000 7         0.00007        -0.121 7        43.125           0.000 6         0.00006        -0.255 6        38.594  
I09  36103232.402 8 141674031.66708      -119.189 8        51.250    36103226.137 7 300101959.05607      -252.590 7        45.156  
I10  39422590.774 7 154699660.93007       -69.996 7        43.438    39422585.441 6 327693971.93906      -147.950 6        36.875  
> 2024 01 01  0 42  0.0000000  0  9      -210.631877804041
I01         0.000 8         0.00008        -0.082 8        50.781           0.000 3         0.00003        -0.174 3        23.750  
I02  39512918.720 7 155054002.64407       -60.629 7        42.188    39512912.529 5 328444848.27905      -128.573 5        35.312  
I03  36500026.077 8 143230821.23108        15.858 8        50.312    36500020.198 7 303400208.06607        33.552 7        44.531  
I04         0.000 7         0.00007        -0.082 7        44.688           0.000 6         0.00006        -0.174 6        38.750  
I05         0.000 8         0.00008        -0.082 8        48.125           0.000 7         0.00007        -0.174 7        42.500  
I06  38367753.204 7 150560240.74207       -50.166 7        45.156    38367745.829 6 318925708.75206      -106.573 6        39.062  
I07         0.000 7         0.00007        -0.082 7        43.125           0.000 6         0.00006        -0.174 6        38.438  
I09  36102321.783 8 141670457.99108      -119.239 8        51.406    36102315.659 7 300094389.07407      -252.544 7        45.000  
I10  39422057.420 7 154697565.91807       -69.948 7        43.438    39422051.100 6 327689534.23106      -148.212 6        37.031  
> 2024 01 01  0 42 30.0000000  0  9      -210.871958549187
I01         0.000 8         0.00008        -0.082 8        50.938           0.000 3         0.00003        -0.173 3        21.719  
I02  39512449.631 7 155052161.49207       -62.441 7        42.344    39512443.187 5 328440948.33905      -132.256 5        35.469  
I03  36500148.219 8 143231300.52608        15.943 8        50.312    36500142.442 7 303401223.34807        33.858 7        44.688  
I04         0.000 7         0.00007        -0.082 7        44.844           0.000 6         0.00006        -0.173 6        38.906  
I05         0.000 8         0.00008        -0.082 8        48.281           0.000 7         0.00007        -0.173 7        42.656  
I06  38367369.686 7 150558735.46907       -50.255 7        45.156    38367362.244 6 318922520.22106      -106.491 6        39.219  
I07         0.000 7         0.00007        -0.082 7        43.125           0.000 6         0.00006        -0.173 6        38.594  
I09  36101411.196 8 141666884.66008      -119.149 8        51.406    36101405.061 7 300086819.82907      -252.423 7        45.000  
I10  39421522.711 7 154695468.89607       -69.987 7        43.438    39421517.289 6 327685092.25806      -148.465 6        37.188  
> 2024 01 01  0 43  0.0000000  0  9      -210.893966979717
I01         0.000 8         0.00008        -0.069 8        50.938           0.000 4         0.00004        -0.146 4        25.156  
I02  39511966.259 7 155050264.77707       -64.056 7        42.500    39511959.837 5 328436930.71605      -136.035 5        35.156  
I03  36500271.453 8 143231784.22308        15.992 8        50.312    36500265.675 7 303402247.96307        34.153 7        44.688  
I04         0.000 7         0.00007        -0.069 7        44.844           0.000 6         0.00006        -0.146 6        38.906  
I05         0.000 8         0.00008        -0.069 8        48.438           0.000 6         0.00006        -0.146 6        41.875  
I06  38366985.885 7 150557229.60707       -50.299 7        45.156    38366978.480 6 318919330.43006      -106.441 6        39.062  
I07         0.000 7         0.00007        -0.069 7        43.281           0.000 6         0.00006        -0.146 6        38.438  
I09  36100500.652 8 141663311.65408      -119.231 8        51.406    36100494.452 7 300079251.25807      -252.416 7        44.844  
I10  39420988.316 7 154693369.90007       -69.936 7        43.438    39420982.553 6 327680646.10906      -148.536 6        37.188  
> 2024 01 01  0 43 30.0000000  0  9      -210.673097898289
I01         0.000 8         0.00008        -0.174 8        50.781           0.000 3         0.00003        -0.368 3        21.406  
I02  39511469.212 7 155048312.79807       -66.132 7        42.812    39511463.117 5 328432796.01405      -140.375 5        35.312  
I03  36500395.922 8 143232272.36008        16.068 8        50.312    36500390.164 7 303403281.96307        34.211 7        44.688  
I04         0.000 7         0.00007        -0.174 7        45.000           0.000 6         0.00006        -0.368 6        38.281  
I05         0.000 8         0.00008        -0.174 8        48.438           0.000 6         0.00006        -0.368 6        41.875  
I06  38366601.984 7 150555723.13007       -50.474 7        45.156    38366594.502 6 318916139.34606      -106.933 6        39.062  
I07         0.000 7         0.00007        -0.174 7        43.281           0.000 6         0.00006        -0.368 6        38.281  
I09  36099590.279 8 141659739.03608      -119.266 8        51.250    36099584.014 7 300071683.51807      -252.630 7        44.844  
I10  39420452.539 7 154691268.90507       -70.536 7        43.281    39420446.904 6 327676195.71906      -148.995 6        37.031  
> 2024 01 01  0 44  0.0000000  0  9      -210.723630378952
I01         0.000 8         0.00008         0.020 8        50.781           0.000 4         0.00004         0.042 4        25.156  
I02  39510958.023 7 155046305.75807       -67.657 7        42.969    39510951.367 5 328428544.66705      -143.276 5        35.156  
I03  36500521.399 8 143232764.91708        16.568 8        50.312    36500515.555 7 303404325.33807        34.854 7        44.531  
I04         0.000 7         0.00007         0.020 7        45.000           0.000 6         0.00006         0.042 6        38.438  
I05         0.000 8         0.00008         0.020 8        48.438           0.000 6         0.00006         0.042 6        41.875  
I06  38366217.957 7 150554216.10107       -50.178 7        45.156    38366210.377 6 318912947.07806      -106.570 6        39.062  
I07         0.000 7         0.00007         0.020 7        43.125           0.000 6         0.00006         0.042 6        38.438  
I09  36098680.057 8 141656166.76408      -118.991 8        51.406    36098673.550 7 300064116.51007      -252.207 7        44.688  
I10  39419916.659 7 154689165.94107       -69.911 7        43.281    39419910.842 6 327671741.18506      -148.514 6        37.031  
> 2024 01 01  0 44 30.0000000  0  9      -211.110847370266
I01         0.000 8         0.00008        -0.064 8        50.781           0.000 3         0.00003        -0.136 3        23.750  
I02  39510432.488 7 155044244.22007       -69.813 7        42.969    39510425.556 5 328424177.91005      -147.294 5        35.312  
I03  36500648.132 8 143233261.86608        16.590 8        50.312    36500642.182 7 303405378.02707        34.916 7        44.531  
I04         0.000 7         0.00007        -0.064 7        45.156           0.000 6         0.00006        -0.136 6        38.281  
I05         0.000 8         0.00008        -0.064 8        48.125           0.000 7         0.00007        -0.136 7        42.031  
I06  38365833.762 7 150552708.44107       -50.326 7        45.156    38365826.303 6 318909753.49006      -106.535 6        39.062  
I07         0.000 7         0.00007        -0.064 7        43.281           0.000 6         0.00006        -0.136 6        38.438  
I09  36097769.761 8 141652594.91508      -119.133 8        51.406    36097763.211 7 300056550.39407      -252.523 7        44.531  
I10  39419380.337 7 154687061.02207       -70.088 7        43.281    39419374.786 6 327667282.49906      -148.589 6        36.875  
> 2024 01 01  0 45  0.0000000  0  9      -210.859270870412
I01         0.000 8         0.00008        -0.152 8        50.781           0.000 4         0.00004        -0.322 4        26.562  
I02  39509893.208 7 155042127.53807       -71.975 7        42.969    39509886.326 5 328419694.33205      -152.006 5        35.625  
I03  36500775.804 8 143233763.28408        16.662 8        50.312    36500769.837 7 303406440.16707        35.299 7        44.688  
I04         0.000 7         0.00007        -0.152 7        45.312           0.000 6         0.00006        -0.322 6        37.969  
I05         0.000 8         0.00008        -0.152 8        48.125           0.000 7         0.00007        -0.322 7        42.188  
I06  38365449.511 7 150551200.23507       -50.490 7        45.156    38365441.738 6 318906558.73106      -106.886 6        39.062  
I07         0.000 7         0.00007        -0.152 7        43.281           0.000 6         0.00006        -0.322 6        38.438  
I09  36096859.669 8 141649023.46308      -119.137 8        51.406    36096853.294 7 300048985.12607      -252.445 7        44.688  
I10  39418843.388 7 154684954.17207       -70.465 7        43.281    39418838.064 6 327662819.71406      -149.357 6        36.875  
> 2024 01 01  0 45 30.0000000  0  9      -210.694857118273
I01         0.000 8         0.00008        -0.126 8        50.938           0.000 4         0.00004        -0.266 4        24.844  
I02  39509339.490 7 155039955.41607       -73.381 7        42.969    39509333.418 5 328415093.31405      -155.889 5        35.781  
I03  36500904.756 8 143234269.06808        16.766 8        50.312    36500898.882 7 303407511.56407        35.561 7        44.688  
I04         0.000 7         0.00007        -0.126 7        45.312           0.000 6         0.00006        -0.266 6        38.281  
I05         0.000 8         0.00008        -0.126 8        48.281           0.000 7         0.00007        -0.266 7        42.344  
I06  38365065.138 7 150549691.43107       -50.474 7        45.156    38365057.913 6 318903362.72606      -106.927 6        38.750  
I07         0.000 7         0.00007        -0.126 7        43.281           0.000 6         0.00006        -0.266 6        38.281  
I09  36095949.615 8 141645452.43708      -119.189 8        51.406    36095943.316 7 300041420.75807      -252.477 7        44.688  
I10  39418306.084 7 154682845.38307       -70.620 7        43.125    39418300.239 6 327658352.84606      -149.336 6        36.719  
> 2024 01 01  0 46  0.0000000  0  9      -210.348693933385
I01         0.000 8         0.00008        -0.119 8        50.938           0.000 3         0.00003        -0.253 3        23.750  
I02  39508772.116 7 155037727.36707       -75.325 7        42.969    39508765.592 5 328410373.83805      -159.399 5        35.938  
I03  36501034.776 8 143234779.26408        16.953 8        50.312    36501028.896 7 303408592.30407        35.937 7        44.688  
I04         0.000 7         0.00007        -0.119 7        45.156           0.000 6         0.00006        -0.253 6        38.125  
I05         0.000 8         0.00008        -0.119 8        48.594           0.000 7         0.00007        -0.253 7        42.500  
I06  38364680.514 7 150548182.04007       -50.472 7        45.156    38364672.821 6 318900165.46906      -107.012 6        38.906  
I07         0.000 7         0.00007        -0.119 7        43.281           0.000 6         0.00006        -0.253 6        38.281  
I09  36095039.790 8 141641881.82908      -119.122 8        51.406    36095033.517 7 300033857.28007      -252.398 7        44.844  
I10  39417768.078 7 154680734.67207       -70.621 7        42.969    39417762.864 6 327653881.90106      -149.376 6        36.562  
> 2024 01 01  0 46 30.0000000  0  9      -210.937241607096
I01         0.000 8         0.00008        -0.098 8        50.938           0.000 3         0.00003        -0.207 3        23.281  
I02  39508190.050 7 155035444.62707       -77.036 7        42.969    39508183.539 5 328405538.51405      -163.123 5        35.469  
I03  36501165.895 8 143235293.87008        17.011 8        50.312    36501159.907 7 303409682.37507        36.109 7        44.688  
I04         0.000 7         0.00007        -0.098 7        45.156           0.000 6         0.00006        -0.207 6        38.594  
I05         0.000 8         0.00008        -0.098 8        48.906           0.000 7         0.00007        -0.207 7        42.812  
I06  38364295.818 7 150546672.08107       -50.366 7        45.312    38364287.822 6 318896966.99806      -106.700 6        38.906  
I07         0.000 7         0.00007        -0.098 7        43.281           0.000 6         0.00006        -0.207 6        38.281  
I09  36094129.958 8 141638311.67608      -119.183 8        51.406    36094123.865 7 300026294.75307      -252.297 7        45.000  
I10  39417229.792 7 154678622.05507       -70.547 7        43.125    39417224.324 6 327649406.91706      -148.923 6        36.562  
> 2024 01 01  0 47  0.0000000  0  9      -210.518232899360
I01         0.000 8         0.00008        -0.049 8        50.938           0.000 4         0.00004        -0.104 4        25.000  
I02  39507594.535 7 155033107.20707       -79.111 7        43.125    39507588.338 5 328400587.38105      -167.264 5        35.625  
I03  36501298.199 8 143235812.89008        17.407 8        50.312    36501292.271 7 303410781.80907        36.760 7        44.688  
I04         0.000 7         0.00007        -0.049 7        45.000           0.000 6         0.00006        -0.104 6        38.438  
I05         0.000 8         0.00008        -0.049 8        48.906           0.000 7         0.00007        -0.104 7        42.500  
I06  38363910.733 7 150545161.57107       -50.360 7        45.312    38363903.195 6 318893767.37106      -106.797 6        38.906  
I07         0.000 7         0.00007        -0.049 7        43.281           0.000 6         0.00006        -0.104 6        38.438  
I09  36093220.304 8 141634741.98608      -119.022 8        51.250    36093214.357 7 300018733.21107      -252.085 7        45.000  
I10  39416690.746 7 154676507.53507       -70.299 7        43.125    39416685.458 6 327644927.90206      -149.546 6        36.719  
> 2024 01 01  0 47 30.0000000  0  9      -210.659450611290
I01         0.000 8         0.00008        -0.031 8        50.938           0.000 3         0.00003        -0.065 3        23.750  
I02  39506984.914 7 155030715.15007       -80.609 7        42.969    39506978.760 5 328395520.48905      -170.721 5        35.781  
I03  36501431.576 8 143236336.30508        17.368 8        50.312    36501425.668 7 303411890.54207        37.050 7        44.688  
I04         0.000 7         0.00007        -0.031 7        44.844           0.000 6         0.00006        -0.065 6        38.438  
I05         0.000 8         0.00008        -0.031 8        48.750           0.000 7         0.00007        -0.065 7        42.500  
I06  38363525.533 7 150543650.53507       -50.212 7        45.312    38363517.761 6 318890566.62606      -106.649 6        38.906  
I07         0.000 7         0.00007        -0.031 7        43.281           0.000 6         0.00006        -0.065 6        38.438  
I09  36092310.765 8 141631172.78308      -118.981 8        51.094    36092304.852 7 300011172.69807      -252.228 7        45.000  
I10  39416151.478 7 154674391.13207       -70.514 7        43.125    39416146.165 6 327640444.90706      -149.802 6        36.875  
> 2024 01 01  0 48  0.0000000  0  9      -210.722354354156
I01         0.000 8         0.00008        -0.063 8        50.938           0.000 3         0.00003        -0.133 3        23.594  
I02  39506361.204 7 155028267.71707       -82.596 7        42.969    39506355.180 5 328390336.31005      -174.463 5        35.938  
I03  36501566.158 8 143236864.11508        17.611 8        50.312    36501560.073 7 303413008.60407        37.284 7        44.531  
I04         0.000 7         0.00007        -0.063 7        44.844           0.000 6         0.00006        -0.133 6        38.125  
I05         0.000 8         0.00008        -0.063 8        48.750           0.000 7         0.00007        -0.133 7        42.500  
I06  38363140.497 7 150542138.93007       -50.304 7        45.312    38363132.508 6 318887364.67206      -106.942 6        39.062  
I07         0.000 7         0.00007        -0.063 7        43.281           0.000 6         0.00006        -0.133 6        38.438  
I09  36091401.268 8 141627604.09608      -119.092 8        51.094    36091395.493 7 300003613.27207      -252.087 7        45.156  
I10  39415611.577 7 154672272.86107       -70.630 7        43.125    39415606.266 6 327635957.95206      -149.671 6        37.031  
> 2024 01 01  0 48 30.0000000  0  9      -210.346630622364
I01         0.000 8         0.00008        -0.155 8        50.781           0.000 4         0.00004        -0.329 4        24.062  
I02  39505724.038 7 155025765.87307       -84.752 7        43.125    39505717.626 5 328385036.85605      -179.212 5        35.938  
I03  36501701.643 8 143237396.31308        17.640 8        50.312    36501695.482 7 303414135.93807        37.514 7        44.688  
I04         0.000 7         0.00007        -0.155 7        44.844           0.000 6         0.00006        -0.329 6        38.594  
I05         0.000 8         0.00008        -0.155 8        48.750           0.000 7         0.00007        -0.329 7        42.812  
I06  38362755.228 7 150540626.78707       -50.501 7        45.312    38362747.706 6 318884161.57506      -107.174 6        39.062  
I07         0.000 7         0.00007        -0.155 7        43.281           0.000 6         0.00006        -0.329 6        38.281  
I09  36090491.956 8 141624035.91708      -119.100 8        51.094    36090486.338 7 299996054.93307      -252.212 7        45.312  
I10  39415071.298 7 154670152.71907       -70.962 7        42.969    39415066.536 6 327631467.05206      -150.042 6        37.031  
> 2024 01 01  0 49  0.0000000  0  9      -210.785056941197
I01         0.000 8         0.00008        -0.111 8        50.938           0.000 3         0.00003        -0.234 3        23.438  
I02  39505072.225 7 155023209.02807       -86.317 7        42.812    39505066.548 6 328379620.91106      -182.551 6        36.094  
I03  36501838.463 8 143237932.90208        17.844 8        50.312    36501832.728 7 303415272.59307        37.833 7        44.688  
I04         0.000 7         0.00007        -0.111 7        44.844           0.000 6         0.00006        -0.234 6        39.062  
I05         0.000 8         0.00008        -0.111 8        48.438           0.000 7         0.00007        -0.234 7        42.656  
I06  38362369.667 7 150539114.10007       -50.518 7        45.312    38362361.895 6 318880957.31906      -107.214 6        39.219  
I07         0.000 7         0.00007        -0.111 7        43.281           0.000 6         0.00006        -0.234 6        38.438  
I09  36089582.842 8 141620468.27108      -119.021 8        51.094    36089577.067 7 299988497.72307      -252.095 7        45.156  
I10  39414530.780 7 154668030.73507       -70.953 7        43.125    39414525.313 6 327626972.22106      -150.168 6        37.031  
> 2024 01 01  0 49 30.0000000  0  9      -210.445263626165
I01         0.000 8         0.00008        -0.076 8        50.781           0.000 4         0.00004        -0.162 4        24.062  
I02  39504406.524 7 155020597.78607       -87.999 7        42.656    39504400.729 5 328374089.75005      -186.590 5        35.781  
I03  36501976.300 8 143238473.87908        18.017 8        50.312    36501970.298 7 303416418.54207        38.134 7        44.688  
I04         0.000 7         0.00007        -0.076 7        44.844           0.000 6         0.00006        -0.162 6        39.219  
I05         0.000 7         0.00007        -0.076 7        47.969           0.000 7         0.00007        -0.162 7        42.500  
I06  38361984.444 7 150537600.89307       -50.440 7        45.312    38361976.443 6 318877751.97806      -107.132 6        39.062  
I07         0.000 7         0.00007        -0.076 7        43.281           0.000 6         0.00006        -0.162 6        38.438  
I09  36088673.828 8 141616901.17008      -119.042 8        51.094    36088668.162 7 299980941.67207      -252.056 7        45.156  
I10  39413989.598 7 154665906.90507       -70.893 7        43.125    39413984.532 6 327622473.51906      -150.065 6        37.031  
> 2024 01 01  0 50  0.0000000  0  9      -210.754961246235
I01         0.000 8         0.00008        -0.116 8        50.781           0.000 4         0.00004        -0.246 4        25.000  
I02  39503727.183 7 155017932.14307       -90.005 7        42.500    39503721.529 6 328368443.32706      -190.505 6        36.094  
I03  36502115.206 8 143239019.24108        18.176 8        50.312    36502109.404 7 303417573.76807        38.468 7        44.688  
I04         0.000 7         0.00007        -0.116 7        45.000           0.000 6         0.00006        -0.246 6        39.062  
I05         0.000 7         0.00007        -0.116 7        47.812           0.000 7         0.00007        -0.246 7        42.656  
I06  38361598.417 7 150536087.15007       -50.681 7        45.312    38361590.574 6 318874545.49406      -106.969 6        38.906  
I07         0.000 7         0.00007        -0.116 7        43.281           0.000 6         0.00006        -0.246 6        38.281  
I09  36087764.984 8 141613334.62308      -118.982 8        51.094    36087759.077 7 299973386.79307      -252.086 7        45.000  
I10  39413447.678 7 154663781.26307       -70.995 7        43.281    39413442.887 6 327617970.97306      -150.731 6        37.344  
> 2024 01 01  0 50 30.0000000  0  9      -210.288834781110
I01         0.000 8         0.00008        -0.065 8        50.781           0.000 4         0.00004        -0.138 4        24.219  
I02  39503034.220 7 155015212.31807       -91.751 7        42.500    39503028.693 6 328362682.13506      -194.411 6        36.406  
I03  36502255.335 8 143239568.99508        18.371 8        50.312    36502249.362 7 303418738.31007        38.888 7        44.531  
I04         0.000 7         0.00007        -0.065 7        45.000           0.000 6         0.00006        -0.138 6        38.594  
I05         0.000 7         0.00007        -0.065 7        47.812           0.000 7         0.00007        -0.138 7        42.812  
I06  38361212.588 7 150534572.87007       -50.467 7        45.469    38361204.928 6 318871337.88306      -107.198 6        39.062  
I07         0.000 7         0.00007        -0.065 7        43.281           0.000 6         0.00006        -0.138 6        38.594  
I09  36086856.258 8 141609768.66108      -119.029 8        51.250    36086850.401 7 299965833.15707      -251.920 7        45.000  
I10  39412905.904 7 154661653.80807       -70.832 7        43.281    39412900.672 6 327613464.57806      -150.591 6        37.188  
> 2024 01 01  0 51  0.0000000  0  9      -210.641267988604
I01         0.000 8         0.00008        -0.203 8        50.625           0.000 4         0.00004        -0.431 4        24.688  
I02  39502326.922 7 155012437.22307       -93.893 7        42.500    39502321.679 6 328356803.89806      -198.692 6        36.094  
I03  36502396.640 8 143240123.13308        18.234 8        50.312    36502390.551 7 303419912.13707        38.818 7        44.688  
I04         0.000 7         0.00007        -0.203 7        45.000           0.000 6         0.00006        -0.431 6        38.281  
I05         0.000 7         0.00007        -0.203 7        47.969           0.000 7         0.00007        -0.431 7        42.656  
I06  38360826.517 7 150533058.09907       -50.827 7        45.312    38360819.080 6 318868129.20806      -107.392 6        38.906  
I07         0.000 7         0.00007        -0.203 7        43.281           0.000 6         0.00006        -0.431 6        38.594  
I09  36085947.575 8 141606203.31508      -119.060 8        51.094    36085941.694 7 299958280.82107      -252.203 7        45.156  
I10  39412363.238 7 154659524.55207       -71.267 7        43.125    39412358.242 6 327608954.35806      -150.364 6        37.188  
> 2024 01 01  0 51 30.0000000  0  9      -210.634253868382
I01         0.000 8         0.00008        -0.063 8        50.625           0.000 4         0.00004        -0.134 4        25.312  
I02  39501606.194 7 155009608.27507       -95.401 7        42.656    39501601.264 6 328350811.56206      -202.100 6        36.562  
I03  36502538.820 8 143240681.62408        18.679 8        50.312    36502532.908 7 303421095.19307        39.609 7        44.531  
I04         0.000 7         0.00007        -0.063 7        44.844           0.000 6         0.00006        -0.134 6        37.500  
I05         0.000 7         0.00007        -0.063 7        47.656           0.000 7         0.00007        -0.134 7        42.656  
I06  38360440.255 7 150531542.82107       -50.522 7        45.469    38360432.947 6 318864919.48506      -106.910 6        38.750  
I07         0.000 7         0.00007        -0.063 7        43.438           0.000 6         0.00006        -0.134 6        38.594  
I09  36085039.108 8 141602638.56608      -118.808 8        51.094    36085033.137 7 299950729.75107      -251.758 7        44.844  
I10  39411820.302 7 154657393.51607       -71.084 7        43.281    39411814.993 6 327604440.39506      -151.005 6        37.188  
> 2024 01 01  0 52  0.0000000  0  9      -210.872108827053
I01         0.000 8         0.00008        -0.052 8        50.625           0.000 4         0.00004        -0.110 4        24.844  
I02  39500871.135 7 155006723.41607       -96.851 7        42.656    39500865.626 6 328344700.81506      -205.438 6        36.562  
I03  36502682.298 8 143241244.46908        18.724 8        50.469    36502676.245 7 303422287.46507        39.616 7        44.688  
I04         0.000 7         0.00007        -0.052 7        44.844           0.000 6         0.00006        -0.110 6        37.500  
I05         0.000 7         0.00007        -0.052 7        47.812           0.000 7         0.00007        -0.110 7        42.500  
I06  38360054.073 7 150530027.03007       -50.613 7        45.469    38360046.719 6 318861708.67006      -107.066 6        38.750  
I07         0.000 7         0.00007        -0.052 7        43.438           0.000 6         0.00006        -0.110 6        38.750  
I09  36084130.948 8 141599074.45308      -118.849 8        51.094    36084125.075 7 299943180.03007      -251.811 7        45.000  
I10  39411276.775 7 154655260.69907       -71.153 7        43.281    39411271.867 6 327599922.64006      -150.924 6        37.188  
> 2024 01 01  0 52 30.0000000  0  9      -210.793879545238
I01         0.000 8         0.00008        -0.213 8        50.469           0.000 4         0.00004        -0.452 4        25.156  
I02  39500122.834 7 155003785.96907       -99.487 7        42.969    39500117.216 6 328338478.66306      -210.427 6        36.562  
I03  36502826.884 8 143241811.71708        18.787 8        50.312    36502821.017 7 303423489.07007        39.821 7        44.531  
I04         0.000 7         0.00007        -0.213 7        45.000           0.000 6         0.00006        -0.452 6        37.969  
I05         0.000 7         0.00007        -0.213 7        47.656           0.000 7         0.00007        -0.452 7        42.500  
I06  38359667.721 7 150528510.77707       -50.786 7        45.469    38359660.228 6 318858496.86606      -107.464 6        38.750  
I07         0.000 7         0.00007        -0.213 7        43.281           0.000 6         0.00006        -0.452 6        38.438  
I09  36083222.886 8 141595511.02308      -119.029 8        51.094    36083216.805 7 299935631.74207      -252.008 7        44.844  
I10  39410732.752 7 154653126.12907       -71.559 7        43.125    39410727.736 6 327595401.18806      -151.079 6        36.875  
> 2024 01 01  0 53  0.0000000  0  9      -210.574413574155
I01         0.000 8         0.00008        -0.152 8        50.625           0.000 4         0.00004        -0.322 4        25.312  
I02  39499360.483 7 155000793.90607      -101.234 7        42.969    39499354.667 6 328332140.83906      -214.073 6        36.406  
I03  36502972.528 8 143242383.26808        19.108 8        50.312    36502966.564 7 303424699.78307        40.152 7        44.531  
I04         0.000 7         0.00007        -0.152 7        45.156           0.000 6         0.00006        -0.322 6        37.500  
I05         0.000 7         0.00007        -0.152 7        47.656           0.000 7         0.00007        -0.322 7        42.500  
I06  38359281.111 7 150526994.01407       -50.888 7        45.312    38359274.000 6 318855283.98706      -107.543 6        38.906  
I07         0.000 7         0.00007        -0.152 7        43.438           0.000 6         0.00006        -0.322 6        38.594  
I09  36082315.007 8 141591948.26508      -118.865 8        51.094    36082308.873 7 299928084.88207      -251.862 7        45.156  
I10  39410188.870 7 154650989.79507       -71.300 7        43.125    39410183.476 6 327590876.00006      -151.121 6        37.031  
> 2024 01 01  0 53 30.0000000  0  9      -210.637406815706
I01         0.000 8         0.00008        -0.194 8        50.625           0.000 3         0.00003        -0.412 3        20.469  
I02  39498584.457 7 154997747.77307      -103.001 7        43.125    39498578.800 6 328325688.43106      -217.608 6        36.562  
I03  36503119.311 8 143242959.22308        19.231 8        50.312    36503113.305 7 303425919.83207        40.558 7        44.688  
I04         0.000 7         0.00007        -0.194 7        45.469           0.000 6         0.00006        -0.412 6        37.500  
I05         0.000 7         0.00007        -0.194 7        47.969           0.000 7         0.00007        -0.412 7        42.188  
I06  38358894.495 7 150525476.78607       -50.896 7        45.312    38358887.329 6 318852070.12506      -107.485 6        38.750  
I07         0.000 7         0.00007        -0.194 7        43.438           0.000 6         0.00006        -0.412 6        38.750  
I09  36081407.236 8 141588386.20808      -118.994 8        51.094    36081401.271 7 299920539.51907      -251.975 7        45.000  
I10  39409643.911 7 154648851.72007       -71.651 7        43.125    39409638.380 6 327586347.13906      -151.285 6        37.031  
> 2024 01 01  0 54  0.0000000  0  9      -211.370112993146
I01         0.000 8         0.00008        -0.047 8        50.625           0.000 4         0.00004        -0.099 4        24.219  
I02  39497794.220 7 154994647.27407      -104.223 7        43.125    39497788.473 6 328319120.87006      -220.524 6        36.406  
I03  36503267.232 8 143243539.52608        19.478 8        50.469    36503261.215 7 303427149.08907        41.042 7        44.688  
I04         0.000 7         0.00007        -0.047 7        45.469           0.000 6         0.00006        -0.099 6        37.031  
I05         0.000 8         0.00008        -0.047 8        48.125           0.000 7         0.00007        -0.099 7        42.500  
I06  38358507.823 7 150523959.06807       -50.695 7        45.312    38358500.284 6 318848855.21806      -107.167 6        38.750  
I07         0.000 7         0.00007        -0.047 7        43.438           0.000 6         0.00006        -0.099 6        38.594  
I09  36080499.671 8 141584824.88008      -118.736 8        50.938    36080493.810 7 299912995.68907      -251.587 7        45.000  
I10  39409098.665 7 154646711.91607       -71.367 7        43.125    39409092.857 6 327581814.60806      -151.049 6        36.719  
> 2024 01 01  0 54 30.0000000  0  9      -209.885531362909
I01         0.000 8         0.00008        -0.086 8        50.625           0.000 3         0.00003        -0.182 3        23.594  
I02  39496990.601 7 154991492.70607      -106.233 7        43.125    39496984.227 5 328312438.81105      -224.532 5        35.938  
I03  36503416.226 8 143244124.20308        19.559 8        50.312    36503410.216 7 303428387.59907        41.224 7        44.688  
I04         0.000 7         0.00007        -0.086 7        45.312           0.000 6         0.00006        -0.182 6        37.500  
I05         0.000 8         0.00008        -0.086 8        48.281           0.000 6         0.00006        -0.182 6        41.875  
I06  38358120.634 7 150522440.88707       -50.761 7        45.469    38358113.524 6 318845639.34306      -107.619 6        38.750  
I07         0.000 7         0.00007        -0.086 7        43.438           0.000 6         0.00006        -0.182 6        38.438  
I09  36079592.372 8 141581264.31908      -118.779 8        50.938    36079586.426 7 299905453.48307      -251.522 7        45.156  
I10  39408552.882 7 154644570.38307       -71.423 7        43.281    39408547.400 6 327577278.41406      -151.650 6        36.562  
> 2024 01 01  0 55  0.0000000  0  9      -210.125894760072
I01         0.000 8         0.00008        -0.162 8        50.625           0.000 4         0.00004        -0.343 4        24.688  
I02  39496173.065 7 154988284.16107      -108.100 7        43.281    39496166.318 5 328305642.37905      -228.642 5        35.938  
I03  36503566.289 8 143244713.21608        19.608 8        50.312    36503560.236 7 303429635.30807        41.373 7        44.531  
I04         0.000 7         0.00007        -0.162 7        45.000           0.000 6         0.00006        -0.343 6        36.875  
I05         0.000 8         0.00008        -0.162 8        48.281           0.000 6         0.00006        -0.343 6        41.875  
I06  38357733.898 7 150520922.24807       -51.042 7        45.469    38357726.576 6 318842422.49106      -107.621 6        38.906  
I07         0.000 7         0.00007        -0.162 7        43.438           0.000 6         0.00006        -0.343 6        38.438  
I09  36078685.170 8 141577704.52008      -118.852 8        50.938    36078679.424 7 299897912.89207      -251.678 7        44.844  
I10  39408006.615 7 154642427.16007       -71.713 7        43.281    39408000.952 6 327572738.65606      -151.516 6        36.562  
> 2024 01 01  0 55 30.0000000  0  9      -210.047291776761
I01         0.000 8         0.00008        -0.030 8        50.625           0.000 4         0.00004        -0.063 4        24.844  
I02  39495341.942 7 154985022.02507      -109.509 7        43.125    39495335.407 6 328298732.46006      -232.027 6        36.094  
I03  36503717.573 8 143245306.55408        19.869 8        50.312    36503711.486 7 303430892.17807        41.924 7        44.531  
I04         0.000 7         0.00007        -0.030 7        44.844           0.000 6         0.00006        -0.063 6        37.031  
I05         0.000 8         0.00008        -0.030 8        48.438           0.000 7         0.00007        -0.063 7        42.188  
I06  38357346.682 7 150519403.12507       -50.572 7        45.312    38357338.933 6 318839204.60906      -107.415 6        38.438  
I07         0.000 7         0.00007        -0.030 7        43.438           0.000 6         0.00006        -0.063 6        38.438  
I09  36077778.208 8 141574145.50108      -118.670 8        50.938    36077772.395 7 299890373.96407      -251.192 7        45.000  
I10  39407460.264 7 154640282.25407       -71.593 7        43.281    39407454.254 6 327568195.32806      -151.249 6        36.250  
> 2024 01 01  0 56  0.0000000  0  9      -210.115507236278
I01         0.000 8         0.00008        -0.153 8        50.781           0.000 3         0.00003        -0.325 3        22.031  
I02  39494496.833 7 154981705.42507      -111.862 7        42.969    39494490.158 6 328291707.14306      -236.600 6        36.406  
I03  36503869.822 8 143245904.25508        19.872 8        50.312    36503863.836 7 303432158.28107        42.051 7        44.531  
I04         0.000 7         0.00007        -0.153 7        45.000           0.000 6         0.00006        -0.325 6        38.125  
I05         0.000 8         0.00008        -0.153 8        48.281           0.000 7         0.00007        -0.325 7        42.188  
I06  38356959.423 7 150517883.56007       -50.832 7        45.469    38356951.869 6 318835985.79306      -107.676 6        38.594  
I07         0.000 7         0.00007        -0.153 7        43.281           0.000 6         0.00006        -0.325 6        38.438  
I09  36076871.486 8 141570587.28608      -118.872 8        50.781    36076865.645 7 299882836.73207      -251.611 7        45.000  
I10  39406913.322 7 154638135.64607       -71.714 7        43.281    39406907.454 5 327563648.42505      -151.799 5        35.938  
> 2024 01 01  0 56 30.0000000  0  9      -210.112129190267
I01         0.000 8         0.00008        -0.119 8        50.938           0.000 4         0.00004        -0.253 4        24.219  
I02  39493638.093 7 154978335.21707      -113.352 7        42.969    39493631.706 6 328284568.29206      -240.288 6        36.406  
I03  36504023.283 8 143246506.29908        19.960 8        50.312    36504017.037 7 303433433.59207        42.441 7        44.531  
I04         0.000 7         0.00007        -0.119 7        45.312           0.000 6         0.00006        -0.253 6        37.969  
I05         0.000 8         0.00008        -0.119 8        48.281           0.000 7         0.00007        -0.253 7        42.344  
I06  38356572.080 7 150516363.57007       -51.069 7        45.312    38356564.085 6 318832766.07806      -107.467 6        38.594  
I07         0.000 7         0.00007        -0.119 7        43.281           0.000 6         0.00006        -0.253 6        38.594  
I09  36075965.036 8 141567029.92508      -118.609 8        50.781    36075959.223 7 299875301.31507      -251.492 7        45.000  
I10  39406365.871 7 154635987.39307       -71.690 7        43.281    39406360.268 5 327559098.02305      -152.266 5        35.781  
> 2024 01 01  0 57  0.0000000  0  9      -210.194264155738
I01         0.000 8         0.00008        -0.007 8        50.938           0.000 4         0.00004        -0.014 4        24.219  
I02  39492765.557 7 154974911.41607      -114.831 7        42.812    39492759.635 6 328277315.90706      -243.934 6        36.406  
I03  36504177.739 8 143247112.67108        20.302 8        50.312    36504171.703 7 303434718.06407        42.988 7        44.531  
I04         0.000 7         0.00007        -0.007 7        45.469           0.000 6         0.00006        -0.014 6        38.125  
I05         0.000 8         0.00008        -0.007 8        48.281           0.000 7         0.00007        -0.014 7        42.188  
I06  38356184.781 7 150514843.10007       -50.655 7        45.469    38356176.932 6 318829545.34806      -107.448 6        38.750  
I07         0.000 7         0.00007        -0.007 7        43.438           0.000 6         0.00006        -0.014 6        38.438  
I09  36075058.730 8 141563473.39608      -118.444 8        50.938    36075052.883 7 299867767.65207      -251.226 7        45.000  
I10  39405818.071 7 154633837.48207       -71.696 7        43.281    39405811.972 5 327554544.10405      -151.881 5        35.625  
> 2024 01 01  0 57 30.0000000  0  9      -210.056154214328
I01         0.000 8         0.00008        -0.053 8        50.938           0.000 4         0.00004        -0.111 4        24.062  
I02  39491879.373 7 154971433.37307      -116.887 7        43.281    39491873.015 6 328269948.68306      -247.828 6        36.250  
I03  36504333.526 8 143247723.38708        20.350 8        50.312    36504327.359 7 303436011.73307        43.223 7        44.531  
I04         0.000 7         0.00007        -0.053 7        45.625           0.000 6         0.00006        -0.111 6        38.906  
I05         0.000 8         0.00008        -0.053 8        48.438           0.000 7         0.00007        -0.111 7        42.188  
I06  38355797.039 7 150513322.22507       -50.601 7        45.312    38355789.196 6 318826323.74506      -107.550 6        38.594  
I07         0.000 7         0.00007        -0.053 7        43.438           0.000 6         0.00006        -0.111 6        38.438  
I09  36074152.731 8 141559917.79508      -118.589 8        50.938    36074146.843 7 299860235.95007      -251.129 7        45.000  
I10  39405269.788 7 154631685.94007       -71.743 7        43.125    39405263.901 5 327549986.73005      -151.902 5        35.938  
> 2024 01 01  0 58  0.0000000  0  9      -209.853131337751
I01         0.000 8         0.00008        -0.041 8        50.938           0.000 3         0.00003        -0.086 3        20.938  
I02  39490979.369 7 154967901.48807      -118.451 7        43.125    39490972.713 6 328262467.35606      -251.617 6        36.094  
I03  36504490.313 8 143248338.41808        20.453 8        50.312    36504484.057 7 303437314.55907        43.363 7        44.375  
I04         0.000 7         0.00007        -0.041 7        45.469           0.000 6         0.00006        -0.086 6        39.531  
I05         0.000 8         0.00008        -0.041 8        48.594           0.000 6         0.00006        -0.086 6        41.875  
I06  38355409.419 7 150511800.92907       -50.791 7        45.156    38355401.832 6 318823101.27506      -107.647 6        38.438  
I07         0.000 7         0.00007        -0.041 7        43.438           0.000 6         0.00006        -0.086 6        38.594  
I09  36073246.880 8 141556363.10108      -118.443 8        50.938    36073240.984 7 299852706.18607      -251.055 7        44.844  
I10  39404721.243 7 154629532.75407       -71.802 7        43.125    39404715.424 5 327545425.89305      -152.145 5        35.938  
> 2024 01 01  0 58 30.0000000  0  9      -210.214543540858
I01         0.000 8         0.00008        -0.013 8        50.938           0.000 4         0.00004        -0.027 4        25.000  
I02  39490065.804 7 154964315.88207      -120.370 7        42.969    39490059.342 6 328254872.22506      -254.786 6        36.094  
I03  36504648.036 8 143248957.77008        20.774 8        50.312    36504641.808 7 303438626.53407        43.891 7        44.531  
I04         0.000 7         0.00007        -0.013 7        45.312           0.000 6         0.00006        -0.027 6        39.375  
I05         0.000 8         0.00008        -0.013 8        48.438           0.000 6         0.00006        -0.027 6        41.875  
I06  38355021.635 7 150510279.19507       -50.657 7        45.156    38355013.980 6 318819877.85306      -107.416 6        38.750  
I07         0.000 7         0.00007        -0.013 7        43.438           0.000 6         0.00006        -0.027 6        38.594  
I09  36072341.257 8 141552809.31808      -118.454 8        51.094    36072335.378 7 299845178.34807      -250.947 7        44.844  
I10  39404172.233 7 154627377.96307       -71.726 7        42.969    39404166.021 5 327540861.64805      -152.239 5        35.938  
> 2024 01 01  0 59  0.0000000  0  9      -210.067532158427
I01         0.000 8         0.00008        -0.030 8        50.938           0.000 3         0.00003        -0.064 3        22.344  
I02  39489139.224 7 154960677.01707      -122.021 7        42.969    39489131.473 6 328247164.26706      -258.580 6        36.562  
I03  36504806.884 8 143249581.45708        20.922 8        50.312    36504800.671 7 303439947.67907        44.260 7        44.688  
I04         0.000 7         0.00007        -0.030 7        45.469           0.000 6         0.00006        -0.064 6        39.375  
I05         0.000 8         0.00008        -0.030 8        48.281           0.000 7         0.00007        -0.064 7        42.188  
I06  38354633.629 7 150508757.04507       -50.773 7        45.156    38354626.109 6 318816653.56606      -107.572 6        38.750  
I07         0.000 7         0.00007        -0.030 7        43.281           0.000 6         0.00006        -0.064 6        38.750  
I09  36071435.949 8 141549256.50308      -118.383 8        50.938    36071429.927 7 299837652.55407      -250.803 7        45.000  
I10  39403622.409 7 154625221.56807       -72.027 7        42.812    39403616.105 5 327536294.01105      -152.599 5        35.938  
> 2024 01 01  0 59 30.0000000  0  9      -210.089001464505
I01         0.000 8         0.00008        -0.107 8        50.938           0.000 4         0.00004        -0.226 4        25.625  
I02  39488198.046 7 154956984.40307      -123.943 7        43.125    39488191.413 6 328239342.50506      -262.761 6        36.406  
I03  36504967.006 8 143250209.42508        20.895 8        50.312    36504960.910 7 303441277.92407        44.374 7        44.688  
I04         0.000 7         0.00007        -0.107 7        45.625           0.000 6         0.00006        -0.226 6        39.219  
I05         0.000 8         0.00008        -0.107 8        48.125           0.000 7         0.00007        -0.226 7        42.188  
I06  38354245.747 7 150507234.50107       -50.883 7        45.312    38354238.333 6 318813428.45406      -107.846 6        38.750  
I07         0.000 7         0.00007        -0.107 7        43.438           0.000 6         0.00006        -0.226 6        38.750  
I09  36070530.909 8 141545704.70708      -118.564 8        50.938    36070524.863 7 299830128.92207      -250.904 7        45.000  
I10  39403072.604 7 154623063.57707       -72.225 7        42.812    39403066.108 6 327531722.98806      -152.962 6        36.094  
> 2024 01 01  1  0  0.0000000  0  9      -209.722993971633
I01         0.000 8         0.00008        -0.122 8        50.938           0.000 3         0.00003        -0.258 3        22.812  
I02  39487243.354 7 154953238.36607      -126.140 7        43.125    39487236.991 6 328231407.56006      -266.745 6        36.406  
I03  36505128.185 8 143250841.73208        21.025 8        50.312    36505122.007 7 303442617.34707        44.574 7        44.531  
I04         0.000 7         0.00007        -0.122 7        45.469           0.000 6         0.00006        -0.258 6        39.062  
I05         0.000 8         0.00008        -0.122 8        48.125           0.000 6         0.00006        -0.258 6        41.875  
I06  38353857.608 7 150505711.53507       -50.797 7        45.312    38353850.171 6 318810202.43006      -107.880 6        38.750  
I07         0.000 7         0.00007        -0.122 7        43.438           0.000 6         0.00006        -0.258 6        38.750  
I09  36069625.976 8 141542153.91308      -118.472 8        50.938    36069620.185 7 299822607.42207      -250.844 7        45.156  
I10  39402522.393 7 154620904.00407       -72.156 7        42.812    39402516.292 5 327527148.62605      -152.589 5        35.781  
> 2024 01 01  1  0 30.0000000  0  9      -210.226383855067
I01         0.000 8         0.00008        -0.104 8        50.781           0.000 3         0.00003        -0.219 3        23.125  
I02  39486275.229 7 154949438.39307      -127.880 7        42.969    39486268.416 6 328223358.35406      -270.621 6        36.406  
I03  36505290.325 8 143251478.34008        21.203 8        50.312    36505284.207 7 303443965.87607        44.902 7        44.531  
I04         0.000 7         0.00007        -0.104 7        45.625           0.000 6         0.00006        -0.219 6        39.375  
I05         0.000 8         0.00008        -0.104 8        48.125           0.000 6         0.00006        -0.219 6        41.719  
I06  38353469.488 7 150504188.17007       -50.845 7        45.312    38353461.868 6 318806975.56306      -107.894 6        38.906  
I07         0.000 7         0.00007        -0.104 7        43.438           0.000 6         0.00006        -0.219 6        38.750  
I09  36068721.451 8 141538604.13808      -118.427 8        51.094    36068715.487 7 299815088.07707      -250.783 7        45.000  
I10  39401971.679 7 154618742.87107       -72.078 7        42.656    39401965.227 5 327522570.93905      -153.095 5        35.781  
> 2024 01 01  1  1  0.0000000  0  9      -210.276284725327
I01         0.000 8         0.00008        -0.123 8        50.781           0.000 4         0.00004        -0.261 4        24.531  
I02  39485293.335 7 154945585.24207      -129.462 7        42.969    39485286.386 6 328215196.50806      -274.333 6        36.406  
I03  36505453.692 8 143252119.26208        21.252 8        50.312    36505447.602 7 303445323.55107        45.042 7        44.531  
I04         0.000 7         0.00007        -0.123 7        45.469           0.000 6         0.00006        -0.261 6        39.219  
I05         0.000 7         0.00007        -0.123 7        47.656           0.000 6         0.00006        -0.261 6        41.875  
I06  38353080.946 7 150502664.44107       -51.016 7        45.312    38353074.140 6 318803747.93206      -107.864 6        39.062  
I07         0.000 7         0.00007        -0.123 7        43.438           0.000 6         0.00006        -0.261 6        38.906  
I09  36067817.183 8 141535055.44308      -118.439 8        51.094    36067811.131 7 299807571.01607      -250.719 7        45.000  
I10  39401420.519 7 154616580.18107       -72.220 7        42.656    39401413.944 5 327517989.98405      -152.805 5        35.625  
> 2024 01 01  1  1 30.0000000  0  9      -210.500535401699
I01         0.000 8         0.00008        -0.034 8        50.938           0.000 4         0.00004        -0.071 4        24.375  
I02  39484297.296 7 154941678.51107      -131.081 7        43.125    39484291.372 6 328206921.20806      -276.883 6        36.250  
I03  36505617.999 8 143252764.45908        21.458 8        50.312    36505611.768 7 303446690.28607        45.719 7        44.531  
I04         0.000 7         0.00007        -0.034 7        45.312           0.000 6         0.00006        -0.071 6        39.219  
I05         0.000 7         0.00007        -0.034 7        47.656           0.000 7         0.00007        -0.071 7        42.188  
I06  38352692.835 7 150501140.31707       -50.645 7        45.312    38352685.830 6 318800519.46806      -107.804 6        39.062  
I07         0.000 7         0.00007        -0.034 7        43.438           0.000 6         0.00006        -0.071 6        38.750  
I09  36066913.188 8 141531507.85908      -118.285 8        51.094    36066907.133 7 299800056.31607      -250.571 7        45.000  
I10  39400868.969 7 154614415.96407       -72.093 7        42.500    39400862.662 5 327513405.77605      -153.094 5        35.469  
> 2024 01 01  1  2  0.0000000  0  9      -210.093011160684
I01         0.000 8         0.00008        -0.021 8        51.094           0.000 3         0.00003        -0.045 3        23.750  
I02  39483288.705 7 154937718.49007      -132.599 7        42.969    39483281.632 6 328198532.99606      -281.243 6        36.562  
I03  36505783.666 8 143253413.97708        21.727 8        50.312    36505777.613 7 303448066.16507        45.807 7        44.531  
I04         0.000 7         0.00007        -0.021 7        45.312           0.000 6         0.00006        -0.045 6        39.219  
I05         0.000 7         0.00007        -0.021 7        47.969           0.000 6         0.00006        -0.045 6        41.875  
I06  38352304.320 7 150499615.82907       -50.842 7        45.312    38352297.810 6 318797290.21506      -107.725 6        39.062  
I07         0.000 7         0.00007        -0.021 7        43.594           0.000 6         0.00006        -0.045 6        38.906  
I09  36066009.428 8 141527961.36608      -118.261 8        51.250    36066003.318 7 299792543.91707      -250.469 7        44.844  
I10  39400317.249 7 154612250.22307       -72.203 7        42.500    39400310.877 5 327508818.34405      -153.082 5        35.469  
> 2024 01 01  1  2 30.0000000  0  9      -210.451260579862
I01         0.000 8         0.00008        -0.056 8        50.938           0.000 3         0.00003        -0.119 3        23.906  
I02  39482265.966 7 154933705.20007      -134.181 7        42.969    39482258.744 6 328190031.91806      -285.424 6        36.562  
I03  36505950.257 8 143254067.78808        21.771 8        50.312    36505944.197 7 303449451.14007        46.257 7        44.531  
I04         0.000 7         0.00007        -0.056 7        45.312           0.000 6         0.00006        -0.119 6        39.062  
I05         0.000 8         0.00008        -0.056 8        48.125           0.000 6         0.00006        -0.119 6        41.719  
I06  38351915.706 7 150498090.96607       -51.022 7        45.156    38351909.065 6 318794060.18706      -107.937 6        39.062  
I07         0.000 7         0.00007        -0.056 7        43.594           0.000 6         0.00006        -0.119 6        38.906  
I09  36065106.057 8 141524416.04208      -118.219 8        51.250    36065099.899 7 299785034.00807      -250.344 7        45.000  
I10  39399764.915 7 154610082.95907       -72.528 7        42.500    39399758.257 5 327504227.69005      -152.943 5        35.469  
> 2024 01 01  1  3  0.0000000  0  9      -210.421749295508
I01         0.000 8         0.00008        -0.080 8        51.094           0.000 4         0.00004        -0.169 4        25.156  
I02  39481230.000 7 154929638.93407      -136.690 7        42.969    39481222.683 6 328181418.65706      -289.328 6        36.406  
I03  36506117.962 8 143254725.89608        22.005 8        50.312    36506111.954 7 303450845.22207        46.431 7        44.531  
I04         0.000 7         0.00007        -0.080 7        45.156           0.000 6         0.00006        -0.169 6        38.750  
I05         0.000 8         0.00008        -0.080 8        48.125           0.000 7         0.00007        -0.169 7        42.031  
I06  38351526.763 7 150496565.73607       -50.863 7        45.156    38351520.065 6 318790829.36306      -107.604 6        39.375  
I07         0.000 7         0.00007        -0.080 7        43.594           0.000 6         0.00006        -0.169 6        38.906  
I09  36064202.909 8 141520871.89008      -118.107 8        51.250    36064196.833 7 299777526.57807      -250.318 7        45.000  
I10  39399212.564 7 154607914.20807       -72.409 7        42.500    39399205.607 5 327499633.88305      -153.368 5        35.312  
> 2024 01 01  1  3 30.0000000  0  9      -210.425940702947
I01         0.000 8         0.00008        -0.070 8        50.938           0.000 3         0.00003        -0.149 3        23.906  
I02  39480180.358 7 154925519.90507      -138.324 7        42.969    39480173.497 6 328172693.60406      -292.594 6        36.562  
I03  36506286.771 8 143255388.30008        22.071 8        50.312    36506280.666 7 303452248.40507        46.702 7        44.531  
I04         0.000 7         0.00007        -0.070 7        45.000           0.000 6         0.00006        -0.149 6        38.438  
I05         0.000 7         0.00007        -0.070 7        47.969           0.000 6         0.00006        -0.149 6        41.875  
I06  38351138.192 7 150495040.14807       -50.787 7        45.156    38351131.487 6 318787597.80406      -107.819 6        39.375  
I07         0.000 7         0.00007        -0.070 7        43.594           0.000 6         0.00006        -0.149 6        38.906  
I09  36063300.171 8 141517328.96908      -118.116 8        51.406    36063293.961 7 299770021.75507      -250.374 7        45.156  
I10  39398659.325 7 154605743.98407       -72.459 7        42.344    39398652.593 5 327495036.95705      -153.399 5        35.469  
> 2024 01 01  1  4  0.0000000  0  9      -210.317454105641
I01         0.000 8         0.00008        -0.074 8        51.094           0.000 4         0.00004        -0.157 4        25.469  
I02  39479117.173 7 154921348.28407      -140.006 7        42.969    39479110.378 6 328163857.20706      -296.362 6        36.562  
I03  36506456.656 8 143256054.96408        22.263 8        50.312    36506450.466 7 303453660.61107        47.106 7        44.531  
I04         0.000 7         0.00007        -0.074 7        44.844           0.000 6         0.00006        -0.157 6        38.281  
I05         0.000 8         0.00008        -0.074 8        48.125           0.000 6         0.00006        -0.157 6        41.719  
I06  38350749.646 7 150493514.19907       -50.968 7        45.312    38350742.808 6 318784365.46106      -107.882 6        39.219  
I07         0.000 7         0.00007        -0.074 7        43.750           0.000 6         0.00006        -0.157 6        38.906  
I09  36062397.618 8 141513787.28508      -118.102 8        51.406    36062391.255 7 299762519.54707      -250.269 7        45.000  
I10  39398105.917 7 154603572.27307       -72.479 7        42.500    39398099.339 5 327490436.88105      -153.593 5        35.469  
> 2024 01 01  1  4 30.0000000  0  9      -210.825592454503
I01         0.000 8         0.00008        -0.179 8        51.094           0.000 3         0.00003        -0.380 3        22.188  
I02  39478040.731 7 154917122.50307      -142.207 7        42.969    39478033.637 6 328154906.04206      -300.852 6        36.719  
I03  36506627.604 8 143256725.90708        22.224 8        50.312    36506621.625 7 303455081.88307        47.079 7        44.688  
I04         0.000 7         0.00007        -0.179 7        44.844           0.000 6         0.00006        -0.380 6        37.656  
I05         0.000 8         0.00008        -0.179 8        48.125           0.000 6         0.00006        -0.380 6        41.719  
I06  38350360.622 7 150491987.90207       -51.151 7        45.312    38350353.805 6 318781132.40006      -108.317 6        39.219  
I07         0.000 7         0.00007        -0.179 7        43.750           0.000 6         0.00006        -0.380 6        38.906  
I09  36061495.417 8 141510246.87108      -118.055 8        51.406    36061489.296 7 299755020.04907      -250.473 7        45.000  
I10  39397552.062 7 154601399.09407       -72.792 7        42.500    39397545.346 5 327485833.70905      -153.907 5        35.312  
> 2024 01 01  1  5  0.0000000  0  9      -210.948493653595
I01         0.000 8         0.00008         0.035 8        51.094           0.000 3         0.00003         0.073 3        22.969  
I02  39476950.788 7 154912845.43607      -143.066 7        42.969    39476944.408 6 328145846.24806      -303.331 6        37.031  
I03  36506799.743 8 143257401.13708        22.603 8        50.469    36506793.750 7 303456512.24307        47.930 7        44.531  
I04         0.000 7         0.00007         0.035 7        45.000           0.000 6         0.00006         0.073 6        36.875  
I05         0.000 7         0.00007         0.035 7        47.969           0.000 6         0.00006         0.073 6        41.562  
I06  38349971.320 7 150490461.25507       -50.658 7        45.312    38349964.701 6 318777898.59406      -107.606 6        38.906  
I07         0.000 7         0.00007         0.035 7        43.906           0.000 6         0.00006         0.073 6        38.906  
I09  36060593.667 8 141506707.75808      -117.964 8        51.406    36060587.350 7 299747523.28907      -249.567 7        45.000  
I10  39396997.985 7 154599224.47407       -72.392 7        42.500    39396991.315 5 327481227.47505      -153.605 5        35.469  
> 2024 01 01  1  5 30.0000000  0  9      -210.768623166363
I01         0.000 8         0.00008        -0.182 8        50.938           0.000 4         0.00004        -0.386 4        24.688  
I02  39475847.411 7 154908514.12407      -145.764 7        43.125    39475840.061 6 328136671.56006      -308.444 6        37.031  
I03  36506972.879 8 143258080.66008        22.490 8        50.312    36506966.770 7 303457951.68907        47.825 7        44.688  
I04         0.000 7         0.00007        -0.182 7        45.000           0.000 6         0.00006        -0.386 6        37.188  
I05         0.000 8         0.00008        -0.182 8        48.125           0.000 6         0.00006        -0.386 6        41.719  
I06  38349582.365 7 150488934.29407       -51.119 7        45.156    38349575.719 6 318774664.10706      -108.194 6        39.062  
I07         0.000 7         0.00007        -0.182 7        43.750           0.000 6         0.00006        -0.386 6        38.906  
I09  36059692.105 8 141503169.97708      -118.141 8        51.406    36059685.891 7 299740029.35907      -250.049 7        45.156  
I10  39396443.596 7 154597048.39707       -72.738 7        42.500    39396436.706 5 327476618.18105      -154.310 5        35.469  
> 2024 01 01  1  6  0.0000000  0  9      -210.698733461114
I01         0.000 8         0.00008        -0.017 8        51.094           0.000 3         0.00003        -0.036 3        23.750  
I02  39474730.390 7 154904130.60207      -146.957 7        42.969    39474723.072 6 328127386.26206      -310.923 6        36.719  
I03  36507147.169 8 143258764.42808        22.984 8        50.312    36507141.319 7 303459400.12607        48.364 7        44.688  
I04         0.000 7         0.00007        -0.017 7        45.156           0.000 6         0.00006        -0.036 6        37.344  
I05         0.000 7         0.00007        -0.017 7        47.969           0.000 7         0.00007        -0.036 7        42.031  
I06  38349193.076 7 150487406.98307       -50.867 7        45.156    38349186.328 6 318771428.89906      -107.801 6        38.906  
I07         0.000 7         0.00007        -0.017 7        43.750           0.000 6         0.00006        -0.036 6        38.750  
I09  36058790.949 8 141499633.55708      -117.829 8        51.406    36058784.653 7 299732538.32207      -249.614 7        45.000  
I10  39395888.678 7 154594870.89407       -72.579 7        42.656    39395882.107 5 327472005.87305      -153.715 5        35.469  
> 2024 01 01  1  6 30.0000000  0  9      -211.013824224440
I01         0.000 8         0.00008        -0.156 8        51.094           0.000 4         0.00004        -0.331 4        25.156  
I02  39473599.951 7 154899695.52007      -149.125 7        42.812    39473592.752 6 328117991.76706      -315.766 6        36.719  
I03  36507322.522 8 143259452.46508        22.846 8        50.312    36507316.429 7 303460857.61807        48.441 7        44.531  
I04         0.000 7         0.00007        -0.156 7        45.000           0.000 6         0.00006        -0.331 6        37.500  
I05         0.000 7         0.00007        -0.156 7        47.812           0.000 7         0.00007        -0.331 7        42.031  
I06  38348804.054 7 150485879.34507       -51.136 7        45.156    38348796.841 6 318768192.98406      -108.279 6        39.062  
I07         0.000 7         0.00007        -0.156 7        43.906           0.000 6         0.00006        -0.331 6        38.906  
I09  36057890.006 8 141496098.52908      -117.972 8        51.250    36057883.869 7 299725050.23207      -250.020 7        45.000  
I10  39395333.112 7 154592691.99607       -72.872 7        42.500    39395326.906 5 327467390.59805      -154.300 5        35.469  
> 2024 01 01  1  7  0.0000000  0  9      -211.022134181841
I01         0.000 8         0.00008        -0.022 8        51.094           0.000 3         0.00003        -0.047 3        23.281  
I02  39472455.896 7 154895206.27907      -150.304 7        42.812    39472448.612 6 328108482.57106      -318.732 6        36.719  
I03  36507499.042 8 143260144.77008        23.100 8        50.312    36507492.922 7 303462324.14507        48.979 7        44.688  
I04         0.000 7         0.00007        -0.022 7        45.156           0.000 6         0.00006        -0.047 6        38.125  
I05         0.000 7         0.00007        -0.022 7        47.969           0.000 6         0.00006        -0.047 6        41.875  
I06  38348414.623 7 150484351.41307       -50.819 7        45.156    38348407.649 6 318764956.45006      -107.859 6        39.062  
I07         0.000 7         0.00007        -0.022 7        43.906           0.000 6         0.00006        -0.047 6        38.906  
I09  36056989.623 8 141492564.94608      -117.795 8        51.406    36056983.440 7 299717565.20007      -249.723 7        44.844  
I10  39394777.712 7 154590511.68407       -72.719 7        42.500    39394771.482 5 327462772.32805      -154.258 5        35.625  
> 2024 01 01  1  7 30.0000000  0  9      -211.284796912570
I01         0.000 8         0.00008        -0.061 8        51.094           0.000 4         0.00004        -0.129 4        25.781  
I02  39471298.331 7 154890665.51507      -151.894 7        42.812    39471292.499 6 328098864.19606      -322.391 6        36.562  
I03  36507676.471 8 143260841.33008        23.196 8        50.312    36507670.448 7 303463799.68607        49.044 7        44.688  
I04         0.000 7         0.00007        -0.061 7        45.156           0.000 6         0.00006        -0.129 6        38.750  
I05         0.000 8         0.00008        -0.061 8        48.281           0.000 6         0.00006        -0.129 6        41.562  
I06  38348025.154 7 150482823.19307       -51.057 7        45.156    38348017.950 6 318761719.30606      -107.993 6        38.750  
I07         0.000 7         0.00007        -0.061 7        43.750           0.000 6         0.00006        -0.129 6        38.906  
I09  36056089.462 8 141489032.80608      -117.763 8        51.250    36056083.279 7 299710083.22807      -249.454 7        45.000  
I10  39394221.998 7 154588329.99607       -73.022 7        42.812    39394215.342 5 327458151.15005      -154.084 5        35.312  
> 2024 01 01  1  8  0.0000000  0  9      -211.435881712892
I01         0.000 8         0.00008        -0.099 8        50.938           0.000 4         0.00004        -0.210 4        25.000  
I02  39470128.140 7 154886071.99807      -153.798 7        42.812    39470120.820 6 328089134.11706      -325.830 6        36.406  
I03  36507854.965 8 143261542.11008        23.377 8        50.312    36507848.952 7 303465284.17207        49.287 7        44.531  
I04         0.000 7         0.00007        -0.099 7        45.156           0.000 6         0.00006        -0.210 6        38.750  
I05         0.000 8         0.00008        -0.099 8        48.125           0.000 6         0.00006        -0.210 6        41.562  
I06  38347635.778 7 150481294.64207       -51.081 7        45.156    38347628.641 6 318758481.44606      -108.098 6        38.906  
I07         0.000 7         0.00007        -0.099 7        43.750           0.000 6         0.00006        -0.210 6        38.906  
I09  36055189.798 8 141485502.18708      -117.708 8        51.406    36055183.560 7 299702604.47407      -249.419 7        45.000  
I10  39393665.514 7 154586146.91007       -73.323 7        42.812    39393659.156 5 327453527.02605      -154.364 5        35.000  
> 2024 01 01  1  8 30.0000000  0  9      -212.023267374960
I01         0.000 8         0.00008        -0.030 8        50.938           0.000 4         0.00004        -0.063 4        24.531  
I02  39468944.004 7 154881425.38307      -155.617 7        42.812    39468936.915 6 328079291.49706      -330.228 6        36.562  
I03  36508034.756 8 143262247.18308        23.380 8        50.312    36508028.678 7 303466777.75707        49.772 7        44.531  
I04         0.000 7         0.00007        -0.030 7        45.156           0.000 6         0.00006        -0.063 6        38.750  
I05         0.000 7         0.00007        -0.030 7        47.969           0.000 6         0.00006        -0.063 6        41.875  
I06  38347246.139 7 150479765.75307       -50.836 7        45.156    38347238.684 6 318755242.89406      -108.154 6        38.750  
I07         0.000 7         0.00007        -0.030 7        43.750           0.000 6         0.00006        -0.063 6        38.906  
I09  36054290.465 8 141481973.09608      -117.693 8        51.250    36054284.292 7 299695128.95307      -249.152 7        44.844  
I10  39393108.961 7 154583962.48507       -72.678 7        42.656    39393102.402 5 327448900.05705      -154.230 5        35.312  
> 2024 01 01  1  9  0.0000000  0  9      -212.386535977431
I01         0.000 8         0.00008         0.025 8        50.938           0.000 3         0.00003         0.053 3        22.812  
I02  39467746.726 7 154876726.62407      -157.170 7        42.969    39467739.497 6 328069338.49506      -333.170 6        36.562  
I03  36508215.583 8 143262956.50408        23.772 8        50.312    36508209.552 7 303468280.33707        50.228 7        44.688  
I04         0.000 7         0.00007         0.025 7        45.469           0.000 6         0.00006         0.053 6        39.219  
I05         0.000 7         0.00007         0.025 7        47.969           0.000 6         0.00006         0.053 6        41.719  
I06  38346856.337 7 150478236.60607       -51.027 7        45.156    38346848.732 6 318752003.79306      -107.988 6        38.906  
I07         0.000 7         0.00007         0.025 7        43.750           0.000 6         0.00006         0.053 6        38.906  
I09  36053391.377 8 141478445.56508      -117.523 8        51.250    36053385.401 7 299687656.74207      -248.978 7        45.000  
I10  39392551.821 7 154581776.70007       -72.549 7        42.656    39392545.595 5 327444270.22005      -154.652 5        35.312  
> 2024 01 01  1  9 30.0000000  0  9      -211.223891849413
I01         0.000 8         0.00008        -0.044 8        50.781           0.000 4         0.00004        -0.093 4        25.469  
I02  39466536.696 7 154871976.65307      -158.928 7        43.281    39466529.171 6 328059276.98106      -336.982 6        36.719  
I03  36508397.390 8 143263670.06908        23.833 8        50.312    36508391.259 7 303469791.90407        50.412 7        44.531  
I04         0.000 7         0.00007        -0.044 7        45.312           0.000 6         0.00006        -0.093 6        39.375  
I05         0.000 7         0.00007        -0.044 7        47.969           0.000 6         0.00006        -0.093 6        41.875  
I06  38346466.504 7 150476707.15907       -51.165 7        45.156    38346459.318 6 318748764.05006      -108.193 6        38.906  
I07         0.000 7         0.00007        -0.044 7        43.750           0.000 6         0.00006        -0.093 6        38.906  
I09  36052492.907 8 141474919.63508      -117.559 8        51.094    36052486.881 7 299680187.91107      -248.932 7        44.844  
I10  39391994.749 7 154579589.59307       -72.971 7        42.656    39391988.034 5 327439637.56205      -154.947 5        35.312  
> 2024 01 01  1 10  0.0000000  0  9      -211.249757685207
I01         0.000 8         0.00008        -0.070 8        50.781           0.000 3         0.00003        -0.148 3        22.500  
I02  39465312.780 7 154867173.96807      -161.016 7        43.438    39465305.875 6 328049103.81406      -341.240 6        36.719  
I03  36508580.327 8 143264387.86008        23.981 8        50.312    36508574.275 7 303471312.44307        50.702 7        44.688  
I04         0.000 7         0.00007        -0.070 7        45.156           0.000 6         0.00006        -0.148 6        39.219  
I05         0.000 7         0.00007        -0.070 7        47.969           0.000 6         0.00006        -0.148 6        41.719  
I06  38346076.676 7 150475177.43607       -50.986 7        45.156    38346069.590 6 318745523.74606      -108.139 6        38.906  
I07         0.000 7         0.00007        -0.070 7        43.750           0.000 6         0.00006        -0.148 6        38.750  
I09  36051594.768 8 141471395.33608      -117.526 8        51.094    36051588.863 7 299672722.55307      -248.943 7        45.156  
I10  39391437.234 7 154577401.15207       -73.102 7        42.812    39391430.424 5 327435002.11605      -154.646 5        35.312  
> 2024 01 01  1 10 30.0000000  0  9      -211.161804942348
I01         0.000 8         0.00008        -0.052 8        50.625           0.000 3         0.00003        -0.109 3        23.750  
I02  39464076.111 7 154862319.68507      -162.721 7        42.969    39464068.238 6 328038821.35206      -344.434 6        36.562  
I03  36508764.281 8 143265109.89308        24.031 8        50.312    36508758.084 7 303472841.95407        50.896 7        44.531  
I04         0.000 7         0.00007        -0.052 7        45.312           0.000 6         0.00006        -0.109 6        39.375  
I05         0.000 8         0.00008        -0.052 8        48.125           0.000 6         0.00006        -0.109 6        41.875  
I06  38345686.734 7 150473647.43307       -50.894 7        45.312    38345679.402 6 318742282.84706      -108.160 6        38.906  
I07         0.000 7         0.00007        -0.052 7        43.750           0.000 6         0.00006        -0.109 6        38.750  
I09  36050697.019 8 141467872.70708      -117.448 8        51.094    36050691.138 7 299665260.72307      -248.907 7        45.156  
I10  39390879.102 7 154575211.41107       -73.022 7        42.656    39390872.924 5 327430363.89005      -154.603 5        35.781  
> 2024 01 01  1 11  0.0000000  0  9      -211.364205925833
I01         0.000 8         0.00008        -0.120 8        50.625           0.000 4         0.00004        -0.255 4        24.531  
I02  39462825.655 7 154857413.87607      -164.642 7        42.812    39462818.234 6 328028429.73506      -348.218 6        36.406  
I03  36508949.394 8 143265836.15208        24.196 8        50.312    36508943.183 7 303474380.41607        51.413 7        44.531  
I04         0.000 7         0.00007        -0.120 7        45.469           0.000 6         0.00006        -0.255 6        39.062  
I05         0.000 7         0.00007        -0.120 7        47.969           0.000 7         0.00007        -0.255 7        42.188  
I06  38345296.949 7 150472117.16407       -51.146 7        45.312    38345289.489 6 318739041.36906      -108.349 6        38.906  
I07         0.000 7         0.00007        -0.120 7        43.750           0.000 6         0.00006        -0.255 6        38.906  
I09  36049799.783 8 141464351.77008      -117.483 8        50.938    36049793.750 7 299657802.47407      -248.825 7        45.000  
I10  39390321.153 7 154573020.36607       -73.252 7        42.812    39390314.263 5 327425722.89105      -155.191 5        35.938  
> 2024 01 01  1 11 30.0000000  0  9      -211.470590984061
I01         0.000 8         0.00008        -0.163 8        50.781           0.000 3         0.00003        -0.345 3        23.750  
I02  39461561.868 7 154852455.13607      -166.524 7        42.500    39461553.894 5 328017926.01505      -352.458 5        35.938  
I03  36509135.641 8 143266566.62008        24.167 8        50.312    36509129.450 7 303475927.80107        51.494 7        44.531  
I04         0.000 7         0.00007        -0.163 7        45.312           0.000 6         0.00006        -0.345 6        39.062  
I05         0.000 7         0.00007        -0.163 7        47.812           0.000 7         0.00007        -0.345 7        42.188  
I06  38344907.048 7 150470586.64307       -51.265 7        45.312    38344899.752 6 318735799.36406      -108.286 6        38.906  
I07         0.000 7         0.00007        -0.163 7        43.594           0.000 6         0.00006        -0.345 6        38.750  
I09  36048903.020 8 141460832.59408      -117.344 8        50.938    36048897.117 7 299650347.96607      -248.684 7        45.156  
I10  39389762.547 7 154570828.02207       -73.365 7        42.656    39389755.390 5 327421079.13805      -155.141 5        35.781  
> 2024 01 01  1 12  0.0000000  0  9      -211.617926537032
I01         0.000 8         0.00008        -0.081 8        50.781           0.000 3         0.00003        -0.171 3        23.438  
I02  39460285.090 7 154847444.35107      -167.993 7        42.812    39460277.046 6 328007312.03706      -355.186 6        36.094  
I03  36509322.975 8 143267301.33708        24.489 8        50.312    36509316.571 7 303477484.18207        51.781 7        44.531  
I04         0.000 7         0.00007        -0.081 7        45.312           0.000 6         0.00006        -0.171 6        39.219  
I05         0.000 7         0.00007        -0.081 7        47.812           0.000 6         0.00006        -0.171 6        41.875  
I06  38344516.829 7 150469055.85607       -51.047 7        45.312    38344509.523 6 318732556.79506      -107.947 6        38.750  
I07         0.000 7         0.00007        -0.081 7        43.594           0.000 6         0.00006        -0.171 6        38.906  
I09  36048006.659 8 141457315.19908      -117.302 8        50.781    36048000.864 7 299642897.23307      -248.372 7        45.156  
I10  39389203.404 7 154568634.40007       -73.233 7        42.812    39389196.558 5 327416432.70905      -155.269 5        35.938  
> 2024 01 01  1 12 30.0000000  0  9      -211.712008732003
I01         0.000 8         0.00008        -0.052 8        50.781           0.000 3         0.00003        -0.111 3        23.594  
I02  39458994.985 7 154842382.06007      -169.447 7        42.812    39458986.983 5 327996588.96605      -358.843 5        35.781  
I03  36509511.167 8 143268040.27708        24.701 8        50.312    36509504.820 7 303479049.51807        52.299 7        44.531  
I04         0.000 7         0.00007        -0.052 7        45.312           0.000 6         0.00006        -0.111 6        39.375  
I05         0.000 7         0.00007        -0.052 7        47.812           0.000 7         0.00007        -0.111 7        42.031  
I06  38344126.766 7 150467524.82707       -51.030 7        45.312    38344119.081 6 318729313.71506      -108.116 6        38.750  
I07         0.000 7         0.00007        -0.052 7        43.594           0.000 6         0.00006        -0.111 6        38.906  
I09  36047110.731 8 141453799.65108      -117.177 8        50.625    36047104.991 7 299635450.40707      -248.172 7        45.156  
I10  39388644.552 7 154566439.51907       -73.423 7        42.812    39388637.720 6 327411783.61806      -155.134 6        36.094  
> 2024 01 01  1 13  0.0000000  0  9      -211.565830955816
I01         0.000 8         0.00008        -0.087 8        50.781           0.000 4         0.00004        -0.185 4        25.000  
I02  39457691.932 7 154837268.22107      -171.045 7        42.969    39457684.145 5 327985756.69205      -362.947 5        35.938  
I03  36509700.632 8 143268783.42908        24.870 8        50.312    36509694.411 7 303480623.77707        52.370 7        44.531  
I04         0.000 7         0.00007        -0.087 7        45.312           0.000 6         0.00006        -0.185 6        38.906  
I05         0.000 7         0.00007        -0.087 7        47.969           0.000 7         0.00007        -0.185 7        42.031  
I06  38343736.628 7 150465993.55007       -51.328 7        45.156    38343729.515 6 318726070.09006      -108.180 6        38.594  
I07         0.000 7         0.00007        -0.087 7        43.594           0.000 6         0.00006        -0.185 6        38.750  
I09  36046215.323 8 141450285.91408      -117.218 8        50.625    36046209.508 7 299628007.43107      -248.178 7        45.156  
I10  39388085.066 7 154564243.38907       -73.574 7        42.812    39388078.124 5 327407131.87705      -155.331 5        35.938  
> 2024 01 01  1 13 30.0000000  0  9      -211.868218388286
I01         0.000 8         0.00008        -0.071 8        50.781           0.000 4         0.00004        -0.151 4        24.531  
I02  39456375.906 7 154832102.92807      -173.067 7        42.812    39456367.759 5 327974815.43905      -366.649 5        35.938  
I03  36509891.032 8 143269530.77408        24.877 8        50.312    36509884.806 7 303482206.90907        52.697 7        44.531  
I04         0.000 7         0.00007        -0.071 7        45.625           0.000 6         0.00006        -0.151 6        38.750  
I05         0.000 7         0.00007        -0.071 7        47.812           0.000 7         0.00007        -0.151 7        42.031  
I06  38343346.192 7 150464462.01507       -51.058 7        45.000    38343338.705 6 318722825.96606      -108.027 6        38.594  
I07         0.000 7         0.00007        -0.071 7        43.438           0.000 6         0.00006        -0.151 6        38.750  
I09  36045320.409 8 141446774.08408      -117.166 8        50.625    36045314.584 7 299620568.48707      -248.053 7        45.156  
I10  39387525.036 7 154562046.01807       -73.285 7        42.812    39387518.096 6 327402477.52606      -155.410 6        36.094  
> 2024 01 01  1 14  0.0000000  0  9      -211.851858832844
I01         0.000 8         0.00008        -0.012 8        50.781           0.000 4         0.00004        -0.025 4        24.844  
I02  39455046.026 7 154826885.68907      -174.654 7        42.969    39455038.931 6 327963764.16706      -369.952 6        36.094  
I03  36510082.528 8 143270282.34708        25.153 8        50.312    36510076.329 7 303483799.00007        52.984 7        44.531  
I04         0.000 7         0.00007        -0.012 7        45.781           0.000 6         0.00006        -0.025 6        39.062  
I05         0.000 7         0.00007        -0.012 7        47.656           0.000 6         0.00006        -0.025 6        41.875  
I06  38342956.063 7 150462930.26607       -50.938 7        45.000    38342948.334 6 318719581.36206      -108.174 6        38.594  
I07         0.000 7         0.00007        -0.012 7        43.594           0.000 6         0.00006        -0.025 6        39.062  
I09  36044425.917 8 141443264.17808      -116.957 8        50.625    36044420.301 7 299613133.61107      -247.820 7        45.156  
I10  39386964.860 7 154559847.42107       -73.267 7        42.812    39386957.945 6 327397820.56506      -155.694 6        36.250  
> 2024 01 01  1 14 30.0000000  0  9      -211.969459667889
I01         0.000 8         0.00008        -0.086 8        50.938           0.000 3         0.00003        -0.182 3        22.656  
I02  39453703.797 7 154821616.74607      -176.427 7        42.969    39453696.003 5 327952603.36605      -373.701 5        35.781  
I03  36510275.181 8 143271038.10008        25.142 8        50.312    36510268.953 7 303485399.95707        53.267 7        44.688  
I04         0.000 7         0.00007        -0.086 7        45.938           0.000 6         0.00006        -0.182 6        39.219  
I05         0.000 7         0.00007        -0.086 7        47.969           0.000 7         0.00007        -0.182 7        42.031  
I06  38342565.612 7 150461398.25607       -51.090 7        45.000    38342557.889 6 318716336.21806      -108.382 6        38.438  
I07         0.000 7         0.00007        -0.086 7        43.438           0.000 6         0.00006        -0.182 6        38.906  
I09  36043532.054 8 141439756.23208      -116.949 8        50.781    36043526.273 7 299605702.89507      -247.923 7        45.156  
I10  39386404.290 7 154557647.61807       -73.638 7        42.812    39386396.895 5 327393161.05405      -155.424 5        35.938  
> 2024 01 01  1 15  0.0000000  0  9      -212.324156899855
I01         0.000 8         0.00008        -0.088 8        50.938           0.000 4         0.00004        -0.187 4        24.219  
I02  39452348.192 7 154816297.06407      -177.970 7        43.125    39452339.964 5 327941335.09005      -377.864 5        35.781  
I03  36510468.835 8 143271798.05908        25.286 8        50.312    36510462.744 7 303487009.81307        53.568 7        44.531  
I04         0.000 7         0.00007        -0.088 7        45.938           0.000 6         0.00006        -0.187 6        39.062  
I05         0.000 8         0.00008        -0.088 8        48.281           0.000 6         0.00006        -0.187 6        41.875  
I06  38342174.993 7 150459866.06907       -51.336 7        45.000    38342167.547 6 318713090.70506      -108.212 6        38.438  
I07         0.000 7         0.00007        -0.088 7        43.438           0.000 6         0.00006        -0.187 6        38.750  
I09  36042638.746 8 141436250.30908      -116.972 8        50.781    36042632.951 7 299598276.47407      -247.647 7        45.156  
I10  39385843.615 7 154555446.61707       -73.542 7        42.812    39385836.681 5 327388499.02405      -155.707 5        35.938  
> 2024 01 01  1 15 30.0000000  0  9      -212.052798620811
I01         0.000 8         0.00008        -0.090 8        50.781           0.000 3         0.00003        -0.190 3        22.344  
I02  39450979.779 7 154810925.50907      -179.903 7        43.125    39450971.645 5 327929956.92505      -381.210 5        35.625  
I03  36510663.535 8 143272562.21408        25.541 8        50.312    36510657.327 7 303488628.56707        53.726 7        44.688  
I04         0.000 7         0.00007        -0.090 7        45.938           0.000 6         0.00006        -0.190 6        39.219  
I05         0.000 8         0.00008        -0.090 8        48.438           0.000 6         0.00006        -0.190 6        41.875  
I06  38341784.666 7 150458333.65707       -51.302 7        45.156    38341777.029 6 318709844.69806      -108.543 6        38.594  
I07         0.000 7         0.00007        -0.090 7        43.438           0.000 6         0.00006        -0.190 6        38.594  
I09  36041745.837 8 141432746.42208      -116.862 8        50.781    36041740.061 7 299590854.36507      -247.660 7        45.156  
I10  39385282.681 7 154553244.43507       -73.572 7        42.969    39385275.621 6 327383834.47006      -155.782 6        36.094  
> 2024 01 01  1 16  0.0000000  0  9      -212.262766120185
I01         0.000 8         0.00008        -0.058 8        50.781           0.000 3         0.00003        -0.122 3        23.125  
I02  39449597.566 7 154805503.68607      -181.712 7        42.969    39449589.372 5 327918472.25905      -384.725 5        35.625  
I03  36510859.381 8 143273330.56908        25.697 8        50.312    36510853.209 7 303490256.21707        54.230 7        44.531  
I04         0.000 7         0.00007        -0.058 7        45.938           0.000 6         0.00006        -0.122 6        39.219  
I05         0.000 7         0.00007        -0.058 7        47.969           0.000 6         0.00006        -0.122 6        41.562  
I06  38341394.048 7 150456801.01307       -51.188 7        45.156    38341386.297 6 318706598.21706      -108.518 6        38.438  
I07         0.000 7         0.00007        -0.058 7        43.281           0.000 6         0.00006        -0.122 6        38.594  
I09  36040853.391 8 141429244.61708      -116.768 8        50.781    36040847.754 7 299583436.65007      -247.362 7        45.156  
I10  39384721.116 7 154551041.07607       -73.348 7        42.969    39384714.130 6 327379167.44206      -155.707 6        36.094  
> 2024 01 01  1 16 30.0000000  0  9      -212.648353754284
I01         0.000 8         0.00008        -0.055 8        50.781           0.000 3         0.00003        -0.116 3        22.969  
I02  39448202.899 7 154800030.18207      -183.486 7        42.969    39448194.752 5 327906878.15305      -388.420 5        35.469  
I03  36511056.356 8 143274103.09908        25.806 8        50.312    36511050.011 7 303491892.71607        54.721 7        44.531  
I04         0.000 7         0.00007        -0.055 7        46.094           0.000 6         0.00006        -0.116 6        39.375  
I05         0.000 7         0.00007        -0.055 7        47.969           0.000 6         0.00006        -0.116 6        41.406  
I06  38341003.264 7 150455268.16307       -51.104 7        45.156    38340995.609 6 318703351.29006      -108.362 6        38.594  
I07         0.000 7         0.00007        -0.055 7        43.281           0.000 6         0.00006        -0.116 6        38.594  
I09  36039961.570 8 141425744.97708      -116.742 8        50.625    36039956.090 7 299576023.53307      -247.041 7        45.156  
I10  39384159.566 7 154548836.55007       -73.304 7        42.969    39384152.409 6 327374497.95706      -156.028 6        36.094  
> 2024 01 01  1 17  0.0000000  0  9      -212.536215753769
I01         0.000 8         0.00008        -0.052 8        50.781           0.000 4         0.00004        -0.110 4        24.688  
I02  39446795.265 7 154794505.40807      -184.865 7        43.125    39446787.101 5 327895175.42005      -391.971 5        35.469  
I03  36511254.350 8 143274879.83208        25.883 8        50.312    36511248.251 7 303493538.12707        54.782 7        44.688  
I04         0.000 7         0.00007        -0.052 7        46.094           0.000 6         0.00006        -0.110 6        39.375  
I05         0.000 7         0.00007        -0.052 7        47.812           0.000 6         0.00006        -0.110 6        41.406  
I06  38340612.590 7 150453735.14007       -51.194 7        45.156    38340604.979 6 318700104.00506      -108.244 6        38.438  
I07         0.000 7         0.00007        -0.052 7        43.125           0.000 6         0.00006        -0.110 6        38.594  
I09  36039070.416 8 141422247.47308      -116.583 8        50.781    36039064.756 7 299568614.93907      -246.929 7        45.312  
I10  39383597.435 7 154546630.86707       -73.573 7        43.125    39383590.370 5 327369826.01905      -156.119 5        35.938  
> 2024 01 01  1 17 30.0000000  0  9      -212.526611271399
I01         0.000 8         0.00008        -0.066 8        50.625           0.000 4         0.00004        -0.140 4        25.156  
I02  39445374.834 7 154788929.93907      -186.738 7        43.281    39445366.243 5 327883365.31505      -395.515 5        35.469  
I03  36511453.347 8 143275660.73508        26.088 8        50.312    36511447.167 7 303495192.35907        55.128 7        44.688  
I04         0.000 7         0.00007        -0.066 7        45.938           0.000 6         0.00006        -0.140 6        39.219  
I05         0.000 7         0.00007        -0.066 7        47.812           0.000 6         0.00006        -0.140 6        41.719  
I06  38340221.956 7 150452201.95507       -51.260 7        45.156    38340214.212 6 318696856.36306      -108.693 6        38.594  
I07         0.000 7         0.00007        -0.066 7        43.125           0.000 6         0.00006        -0.140 6        38.594  
I09  36038179.710 8 141418752.18908      -116.556 8        50.625    36038174.225 7 299561211.05207      -246.857 7        45.469  
I10  39383035.238 7 154544424.05607       -73.535 7        43.125    39383027.588 5 327365151.66705      -156.200 5        35.781  
> 2024 01 01  1 18  0.0000000  0  9      -212.919938797130
I01         0.000 8         0.00008        -0.070 8        50.625           0.000 4         0.00004        -0.148 4        26.562  
I02  39443940.806 7 154783303.31207      -188.490 7        43.438    39443932.157 5 327871446.85105      -398.860 5        35.625  
I03  36511653.367 8 143276445.83608        26.163 8        50.312    36511647.082 7 303496855.49007        55.702 7        44.531  
I04         0.000 7         0.00007        -0.070 7        45.781           0.000 6         0.00006        -0.148 6        39.062  
I05         0.000 7         0.00007        -0.070 7        47.812           0.000 6         0.00006        -0.148 6        41.406  
I06  38339831.293 7 150450668.58807       -51.175 7        45.156    38339823.396 6 318693608.34506      -108.214 6        38.906  
I07         0.000 7         0.00007        -0.070 7        43.125           0.000 6         0.00006        -0.148 6        38.594  
I09  36037289.597 8 141415259.16808      -116.523 8        50.625    36037284.172 7 299553811.96707      -246.811 7        45.469  
I10  39382472.411 7 154542216.14007       -73.540 7        43.281    39382465.660 5 327360474.97805      -155.739 5        35.938  
> 2024 01 01  1 18 30.0000000  0  9      -212.539532493727
I01         0.000 8         0.00008        -0.104 8        50.469           0.000 4         0.00004        -0.220 4        24.219  
I02  39442494.172 7 154777625.87107      -190.276 7        43.438    39442485.267 5 327859420.74305      -402.660 5        35.625  
I03  36511854.545 8 143277235.08908        26.239 8        50.312    36511848.205 7 303498527.42607        55.631 7        44.531  
I04         0.000 7         0.00007        -0.104 7        45.469           0.000 6         0.00006        -0.220 6        39.062  
I05         0.000 7         0.00007        -0.104 7        47.812           0.000 6         0.00006        -0.220 6        41.875  
I06  38339440.423 7 150449135.01907       -51.319 7        45.000    38339432.850 6 318690359.90906      -108.325 6        38.906  
I07         0.000 7         0.00007        -0.104 7        43.125           0.000 6         0.00006        -0.220 6        38.906  
I09  36036400.060 8 141411768.42208      -116.431 8        50.625    36036394.704 7 299546417.69607      -246.606 7        45.469  
I10  39381909.562 7 154540007.09807       -73.637 7        43.281    39381902.458 6 327355795.92106      -156.280 6        36.094  
> 2024 01 01  1 19  0.0000000  0  9      -212.570574257293
I01         0.000 8         0.00008        -0.037 8        50.625           0.000 4         0.00004        -0.079 4        25.156  
I02  39441034.516 7 154771897.69807      -191.727 7        43.438    39441026.304 5 327847287.18305      -406.543 5        35.469  
I03  36512056.717 8 143278028.55408        26.474 8        50.312    36512050.465 7 303500208.27507        56.101 7        44.531  
I04         0.000 7         0.00007        -0.037 7        45.312           0.000 6         0.00006        -0.079 6        39.219  
I05         0.000 7         0.00007        -0.037 7        47.812           0.000 7         0.00007        -0.079 7        42.188  
I06  38339049.539 7 150447601.27907       -50.987 7        45.156    38339042.302 6 318687111.10906      -108.673 6        38.906  
I07         0.000 7         0.00007        -0.037 7        43.125           0.000 6         0.00006        -0.079 6        38.750  
I09  36035511.167 8 141408280.01908      -116.316 8        50.625    36035505.772 7 299539028.38607      -246.347 7        45.469  
I10  39381346.626 7 154537796.97507       -73.720 7        43.438    39381339.406 5 327351114.56105      -156.149 5        35.938  
> 2024 01 01  1 19 30.0000000  0  9      -212.446178038482
I01         0.000 8         0.00008        -0.089 8        50.781           0.000 3         0.00003        -0.188 3        23.594  
I02  39439561.985 7 154766118.61007      -193.604 7        43.438    39439552.990 5 327835045.79805      -409.618 5        35.312  
I03  36512260.005 8 143278826.14708        26.571 8        50.312    36512253.827 7 303501897.88307        56.428 7        44.531  
I04         0.000 7         0.00007        -0.089 7        45.469           0.000 6         0.00006        -0.188 6        39.375  
I05         0.000 7         0.00007        -0.089 7        47.656           0.000 7         0.00007        -0.188 7        42.344  
I06  38338658.666 7 150446067.37707       -51.209 7        45.156    38338651.381 6 318683861.95406      -108.333 6        38.906  
I07         0.000 7         0.00007        -0.089 7        43.125           0.000 6         0.00006        -0.188 6        38.750  
I09  36034622.812 8 141404794.00708      -116.153 8        50.625    36034617.336 7 299531644.15107      -246.177 7        45.625  
I10  39380783.458 7 154535585.74807       -73.903 7        43.594    39380776.282 6 327346430.88606      -156.257 6        36.094  
> 2024 01 01  1 20  0.0000000  0  9      -212.684669085971
I01         0.000 8         0.00008        -0.108 8        50.781           0.000 3         0.00003        -0.229 3        22.656  
I02  39438076.519 7 154760289.05207      -195.255 7        43.438    39438068.176 5 327822697.47405      -413.603 5        35.469  
I03  36512464.343 8 143279627.90008        26.632 8        50.312    36512458.016 7 303503596.30107        56.441 7        44.688  
I04         0.000 7         0.00007        -0.108 7        45.625           0.000 6         0.00006        -0.229 6        39.531  
I05         0.000 7         0.00007        -0.108 7        47.656           0.000 7         0.00007        -0.229 7        42.344  
I06  38338267.683 7 150444533.33007       -51.202 7        45.156    38338260.525 6 318680612.50606      -108.704 6        38.750  
I07         0.000 7         0.00007        -0.108 7        43.125           0.000 6         0.00006        -0.229 6        38.906  
I09  36033735.144 8 141401310.40908      -116.175 8        50.625    36033729.552 7 299524265.01307      -246.161 7        45.625  
I10  39380219.849 7 154533373.48607       -73.998 7        43.438    39380212.572 6 327341745.00706      -156.485 6        36.094  
> 2024 01 01  1 20 30.0000000  0  9      -212.610752451845
I01         0.000 8         0.00008        -0.113 8        50.938           0.000 3         0.00003        -0.239 3        22.344  
I02  39436577.922 7 154754408.03407      -197.059 7        43.594    39436568.947 5 327810240.16005      -417.404 5        35.469  
I03  36512669.824 8 143280433.81908        26.856 8        50.312    36512663.485 7 303505303.54007        56.873 7        44.688  
I04         0.000 7         0.00007        -0.113 7        45.625           0.000 6         0.00006        -0.239 6        39.375  
I05         0.000 7         0.00007        -0.113 7        47.812           0.000 7         0.00007        -0.239 7        42.188  
I06  38337876.933 7 150442999.12607       -51.271 7        45.000    38337869.472 6 318677362.72706      -108.501 6        38.906  
I07         0.000 7         0.00007        -0.113 7        43.125           0.000 6         0.00006        -0.239 6        38.750  
I09  36032848.030 8 141397829.28708      -116.182 8        50.625    36032842.569 7 299516891.14007      -245.890 7        45.469  
I10  39379656.213 7 154531160.14207       -73.893 7        43.594    39379648.082 6 327337056.84206      -156.581 6        36.406  
> 2024 01 01  1 21  0.0000000  0  9      -212.307470201518
I01         0.000 8         0.00008        -0.109 8        50.781           0.000 3         0.00003        -0.232 3        23.594  
I02  39435067.059 7 154748477.51507      -198.710 7        43.594    39435057.970 5 327797677.99605      -420.927 5        35.469  
I03  36512876.239 8 143281243.88108        27.011 8        50.312    36512870.003 7 303507019.55607        57.009 7        44.688  
I04         0.000 7         0.00007        -0.109 7        45.781           0.000 6         0.00006        -0.232 6        39.531  
I05         0.000 7         0.00007        -0.109 7        47.812           0.000 7         0.00007        -0.232 7        42.031  
I06  38337485.870 7 150441464.75507       -51.446 7        45.156    38337478.656 6 318674112.57206      -108.636 6        38.906  
I07         0.000 7         0.00007        -0.109 7        43.281           0.000 6         0.00006        -0.232 6        38.594  
I09  36031961.618 8 141394350.67608      -116.032 8        50.625    36031956.048 7 299509522.57307      -245.713 7        45.469  
I10  39379091.765 7 154528945.75707       -73.833 7        43.906    39379084.587 6 327332366.47206      -156.672 6        36.250  
> 2024 01 01  1 21 30.0000000  0  9      -212.392296773095
I01         0.000 8         0.00008        -0.160 8        50.781           0.000 3         0.00003        -0.340 3        23.281  
I02  39433542.912 7 154742496.06107      -200.621 7        43.594    39433534.274 5 327785007.94605      -424.648 5        35.625  
I03  36513083.747 8 143282058.08508        27.027 8        50.312    36513077.296 7 303508744.35807        57.374 7        44.688  
I04         0.000 7         0.00007        -0.160 7        45.938           0.000 6         0.00006        -0.340 6        39.688  
I05         0.000 7         0.00007        -0.160 7        47.812           0.000 6         0.00006        -0.340 6        41.875  
I06  38337094.857 7 150439930.26607       -51.301 7        45.312    38337087.236 6 318670862.20706      -108.577 6        38.906  
I07         0.000 7         0.00007        -0.160 7        43.125           0.000 6         0.00006        -0.340 6        38.750  
I09  36031075.940 8 141390874.60308      -115.968 8        50.625    36031070.109 7 299502159.39207      -245.710 7        45.625  
I10  39378527.621 7 154526730.35207       -74.147 7        43.906    39378519.799 6 327327673.93806      -156.403 6        36.406  
> 2024 01 01  1 22  0.0000000  0  9      -212.208825591618
I01         0.000 8         0.00008        -0.041 8        50.781           0.000 4         0.00004        -0.088 4        24.688  
I02  39432005.952 7 154736465.17707      -201.881 7        43.594    39431997.249 5 327772233.16905      -427.589 5        35.625  
I03  36513292.250 8 143282876.45708        27.313 8        50.312    36513285.935 7 303510478.00107        57.830 7        44.531  
I04         0.000 7         0.00007        -0.041 7        45.781           0.000 6         0.00006        -0.088 6        39.688  
I05         0.000 7         0.00007        -0.041 7        47.656           0.000 6         0.00006        -0.088 6        41.719  
I06  38336703.755 7 150438395.61107       -51.142 7        45.312    38336696.471 6 318667611.48006      -108.616 6        39.062  
I07         0.000 7         0.00007        -0.041 7        43.125           0.000 6         0.00006        -0.088 6        38.906  
I09  36030190.727 8 141387401.15308      -115.773 8        50.781    36030185.187 7 299494801.77407      -245.170 7        45.625  
I10  39377963.023 7 154524513.92307       -73.825 7        44.062    39377955.542 6 327322979.27306      -156.802 6        36.562  
> 2024 01 01  1 22 30.0000000  0  9      -212.334006412587
I01         0.000 8         0.00008        -0.122 8        50.781           0.000 4         0.00004        -0.259 4        25.781  
I02  39430456.665 7 154730384.61407      -203.788 7        43.438    39430447.692 5 327759353.17705      -431.644 5        35.469  
I03  36513501.925 8 143283698.95808        27.321 8        50.312    36513495.563 7 303512220.37107        58.002 7        44.688  
I04         0.000 7         0.00007        -0.122 7        45.625           0.000 6         0.00006        -0.259 6        39.531  
I05         0.000 7         0.00007        -0.122 7        47.656           0.000 6         0.00006        -0.259 6        41.406  
I06  38336312.723 7 150436860.83407       -51.251 7        45.312    38336305.413 6 318664360.50306      -108.739 6        39.219  
I07         0.000 7         0.00007        -0.122 7        43.281           0.000 6         0.00006        -0.259 6        38.594  
I09  36029306.398 8 141383930.33308      -115.814 8        50.781    36029300.669 7 299487449.72607      -245.246 7        45.625  
I10  39377397.969 7 154522296.50407       -74.066 7        43.906    39377390.574 6 327318282.46206      -157.040 6        36.562  
> 2024 01 01  1 23  0.0000000  0  9      -212.154448136891
I01         0.000 8         0.00008        -0.098 8        50.781           0.000 4         0.00004        -0.207 4        24.844  
I02  39428894.111 7 154724252.82207      -205.384 7        43.594    39428884.807 5 327746364.68705      -434.816 5        35.312  
I03  36513712.687 8 143284525.59608        27.521 8        50.312    36513706.332 7 303513971.51007        58.348 7        44.531  
I04         0.000 7         0.00007        -0.098 7        45.625           0.000 6         0.00006        -0.207 6        39.688  
I05         0.000 7         0.00007        -0.098 7        47.656           0.000 6         0.00006        -0.207 6        41.562  
I06  38335921.664 7 150435325.96507       -51.231 7        45.156    38335914.064 6 318661109.32306      -108.779 6        39.219  
I07         0.000 7         0.00007        -0.098 7        43.125           0.000 6         0.00006        -0.207 6        38.594  
I09  36028422.521 8 141380462.22308      -115.667 8        50.781    36028416.872 7 299480103.40607      -244.930 7        45.625  
I10  39376833.089 7 154520078.10507       -74.067 7        44.062    39376825.054 6 327313583.61006      -156.928 6        36.562  
> 2024 01 01  1 23 30.0000000  0  9      -212.232174384998
I01         0.000 8         0.00008        -0.020 8        50.781           0.000 3         0.00003        -0.042 3        23.594  
I02  39427319.098 7 154718071.30907      -206.864 7        43.594    39427309.867 5 327733270.85605      -437.849 5        35.625  
I03  36513924.460 8 143285356.37908        27.641 8        50.312    36513918.131 7 303515731.43607        58.778 7        44.531  
I04         0.000 7         0.00007        -0.020 7        45.625           0.000 6         0.00006        -0.042 6        39.531  
I05         0.000 7         0.00007        -0.020 7        47.812           0.000 6         0.00006        -0.042 6        41.406  
I06  38335530.468 7 150433790.96907       -51.039 7        45.312    38335523.225 6 318657857.86006      -108.489 6        39.062  
I07         0.000 7         0.00007        -0.020 7        43.125           0.000 6         0.00006        -0.042 6        38.594  
I09  36027539.550 8 141376996.82908      -115.499 8        50.781    36027534.047 7 299472762.85507      -244.568 7        45.781  
I10  39376267.370 7 154517858.71607       -73.760 7        44.062    39376259.870 6 327308882.62706      -156.944 6        36.562  
> 2024 01 01  1 24  0.0000000  0  9      -212.695711596394
I01         0.000 8         0.00008        -0.119 8        50.938           0.000 4         0.00004        -0.252 4        24.219  
I02  39425731.184 7 154711839.57807      -208.750 7        43.750    39425721.763 5 327720070.67905      -441.915 5        35.625  
I03  36514137.160 8 143286191.29108        27.747 8        50.312    36514130.903 7 303517500.11507        58.878 7        44.531  
I04         0.000 7         0.00007        -0.119 7        45.469           0.000 6         0.00006        -0.252 6        39.219  
I05         0.000 7         0.00007        -0.119 7        47.812           0.000 6         0.00006        -0.252 6        41.719  
I06  38335139.262 7 150432255.86007       -51.383 7        45.312    38335131.787 6 318654606.18006      -108.595 6        38.906  
I07         0.000 7         0.00007        -0.119 7        43.125           0.000 6         0.00006        -0.252 6        38.750  
I09  36026657.179 8 141373534.20508      -115.549 8        50.781    36026651.899 7 299465428.16807      -244.604 7        45.781  
I10  39375701.762 7 154515638.35807       -74.046 7        44.219    39375694.048 6 327304179.61606      -157.008 6        36.719  
> 2024 01 01  1 24 30.0000000  0  9      -210.673067573315
I01         0.000 8         0.00008        -0.090 8        51.094           0.000 3         0.00003        -0.190 3        22.500  
I02  39424130.548 7 154705557.85507      -210.540 7        43.750    39424121.171 5 327706764.60105      -445.104 5        35.781  
I03  36514351.130 8 143287030.31608        27.986 8        50.312    36514344.655 7 303519277.49707        59.241 7        44.531  
I04         0.000 7         0.00007        -0.090 7        45.469           0.000 6         0.00006        -0.190 6        39.531  
I05         0.000 7         0.00007        -0.090 7        47.812           0.000 6         0.00006        -0.190 6        41.719  
I06  38334748.019 7 150430720.64207       -51.145 7        45.156    38334740.787 6 318651354.28106      -108.879 6        38.750  
I07         0.000 7         0.00007        -0.090 7        43.125           0.000 6         0.00006        -0.190 6        38.906  
I09  36025775.497 8 141370074.46108      -115.313 8        50.938    36025769.985 7 299458099.58407      -244.381 7        45.781  
I10  39375135.831 7 154513417.05807       -74.140 7        44.375    39375128.260 6 327299474.57506      -157.231 6        36.875  
> 2024 01 01  1 25  0.0000000  0  9      -210.442020966424
I01         0.000 8         0.00008        -0.055 8        51.094           0.000 3         0.00003        -0.116 3        23.906  
I02  39422517.009 7 154699226.32007      -211.889 7        43.594    39422507.878 5 327693353.00305      -448.990 5        35.938  
I03  36514565.906 8 143287873.46008        28.177 8        50.156    36514559.511 7 303521063.61607        59.567 7        44.688  
I04         0.000 7         0.00007        -0.055 7        45.625           0.000 6         0.00006        -0.116 6        39.531  
I05         0.000 7         0.00007        -0.055 7        47.969           0.000 6         0.00006        -0.116 6        41.719  
I06  38334357.111 7 150429185.32507       -51.216 7        45.312    38334349.899 6 318648102.15006      -108.485 6        38.906  
I07         0.000 7         0.00007        -0.055 7        42.969           0.000 6         0.00006        -0.116 6        38.594  
I09  36024894.513 8 141366617.57208      -115.275 8        50.781    36024889.249 7 299450777.04907      -244.098 7        45.938  
I10  39374569.902 7 154511194.80807       -74.054 7        44.531    39374561.922 6 327294767.56706      -157.305 6        36.875  
> 2024 01 01  1 25 30.0000000  0  9      -210.234989710848
I01         0.000 8         0.00008        -0.096 8        51.250           0.000 3         0.00003        -0.204 3        21.719  
I02  39420891.185 7 154692846.40807      -213.452 7        43.438    39420882.150 6 327679838.93206      -452.116 6        36.406  
I03  36514781.769 8 143288720.74608        28.113 8        50.312    36514775.377 7 303522858.50607        59.952 7        44.688  
I04         0.000 7         0.00007        -0.096 7        45.781           0.000 6         0.00006        -0.204 6        39.844  
I05         0.000 8         0.00008        -0.096 8        48.281           0.000 6         0.00006        -0.204 6        41.719  
I06  38333965.784 7 150427649.89707       -51.267 7        45.156    38333958.173 6 318644849.79906      -108.664 6        38.750  
I07         0.000 7         0.00007        -0.096 7        43.125           0.000 6         0.00006        -0.204 6        38.750  
I09  36024014.456 8 141363163.59108      -115.197 8        50.781    36024009.089 7 299443460.68507      -243.937 7        45.781  
I10  39374003.256 7 154508971.65207       -74.322 7        44.219    39373995.479 6 327290058.61206      -157.343 6        36.875  
> 2024 01 01  1 26  0.0000000  0  9      -209.595754864811
I01         0.000 8         0.00008        -0.021 8        51.250           0.000 3         0.00003        -0.044 3        23.594  
I02  39419252.869 7 154686416.86407      -215.021 7        43.281    39419244.143 5 327666219.74205      -455.441 5        35.938  
I03  36514998.907 8 143289572.12308        28.466 8        50.312    36514992.395 7 303524662.06707        60.193 7        44.531  
I04         0.000 7         0.00007        -0.021 7        46.094           0.000 6         0.00006        -0.044 6        39.688  
I05         0.000 8         0.00008        -0.021 8        48.281           0.000 6         0.00006        -0.044 6        41.562  
I06  38333574.479 7 150426114.41807       -51.087 7        45.156    38333567.048 6 318641597.33006      -108.558 6        38.906  
I07         0.000 7         0.00007        -0.021 7        43.125           0.000 6         0.00006        -0.044 6        38.438  
I09  36023134.994 8 141359712.59508      -115.045 8        50.781    36023129.779 7 299436150.64307      -243.595 7        45.781  
I10  39373436.626 7 154506747.58107       -74.130 7        44.219    39373428.399 6 327285347.69606      -157.095 6        36.562  
> 2024 01 01  1 26 30.0000000  0  9      -209.517743280621
I01         0.000 8         0.00008        -0.174 8        51.094           0.000 4         0.00004        -0.368 4        24.375  
I02  39417601.609 7 154679937.69307      -217.189 7        43.281    39417593.121 6 327652495.42806      -460.208 6        36.250  
I03  36515216.902 8 143290427.60408        28.414 8        50.312    36515210.577 7 303526474.31507        60.213 7        44.688  
I04         0.000 7         0.00007        -0.174 7        46.094           0.000 6         0.00006        -0.368 6        39.844  
I05         0.000 8         0.00008        -0.174 8        48.125           0.000 7         0.00007        -0.368 7        42.031  
I06  38333183.367 7 150424578.83507       -51.488 7        45.312    38333176.427 6 318638344.64806      -108.928 6        39.219  
I07         0.000 7         0.00007        -0.174 7        42.969           0.000 6         0.00006        -0.368 6        38.594  
I09  36022256.360 8 141356264.60708      -115.060 8        50.625    36022251.172 7 299428846.97407      -243.701 7        45.781  
I10  39372869.839 7 154504522.60807       -74.464 7        44.219    39372861.914 6 327280634.89006      -157.730 6        36.875  
> 2024 01 01  1 27  0.0000000  0  9      -209.709319779359
I01         0.000 8         0.00008        -0.048 8        51.094           0.000 4         0.00004        -0.102 4        24.844  
I02  39415938.134 7 154673408.70207      -218.497 7        43.125    39415929.359 6 327638665.58406      -463.282 6        36.406  
I03  36515435.909 8 143291287.19908        28.659 8        50.312    36515429.352 7 303528295.28507        60.600 7        44.688  
I04         0.000 7         0.00007        -0.048 7        45.938           0.000 6         0.00006        -0.102 6        39.688  
I05         0.000 8         0.00008        -0.048 8        48.125           0.000 6         0.00006        -0.102 6        41.875  
I06  38332791.656 7 150423043.16907       -51.252 7        45.156    38332784.611 6 318635091.80806      -108.484 6        39.062  
I07         0.000 7         0.00007        -0.048 7        43.125           0.000 6         0.00006        -0.102 6        38.750  
I09  36021378.461 8 141352819.72308      -114.804 8        50.625    36021373.124 7 299421549.88507      -243.236 7        45.625  
I10  39372302.497 7 154502296.75107       -74.074 7        43.906    39372294.518 6 327275920.21906      -157.188 6        36.875  
> 2024 01 01  1 27 30.0000000  0  9      -209.598936819929
I01         0.000 8         0.00008        -0.036 8        51.094           0.000 3         0.00003        -0.077 3        22.188  
I02  39414261.885 7 154666830.39907      -220.242 7        43.438    39414253.597 6 327624731.28906      -466.399 6        36.875  
I03  36515656.058 8 143292150.90808        28.864 8        50.156    36515649.683 7 303530124.95607        61.094 7        44.844  
I04         0.000 7         0.00007        -0.036 7        46.094           0.000 6         0.00006        -0.077 6        39.531  
I05         0.000 8         0.00008        -0.036 8        48.281           0.000 6         0.00006        -0.077 6        41.875  
I06  38332400.565 7 150421507.48207       -51.206 7        45.312    38332393.262 6 318631838.89206      -108.319 6        39.219  
I07         0.000 7         0.00007        -0.036 7        43.125           0.000 6         0.00006        -0.077 6        38.594  
I09  36020501.410 8 141349377.94008      -114.686 8        50.625    36020496.340 7 299414259.35407      -243.067 7        45.781  
I10  39371735.123 7 154500070.01407       -74.010 7        44.219    39371727.080 6 327271203.67306      -157.281 6        36.875  
> 2024 01 01  1 28  0.0000000  0  9      -209.511121973439
I01         0.000 8         0.00008        -0.033 8        50.938           0.000 4         0.00004        -0.070 4        26.250  
I02  39412572.885 7 154660202.73607      -221.602 7        43.438    39412564.168 6 327610692.43506      -469.850 6        36.406  
I03  36515877.282 8 143293018.70108        28.905 8        50.312    36515870.860 7 303531963.29207        61.385 7        44.688  
I04         0.000 7         0.00007        -0.033 7        46.094           0.000 6         0.00006        -0.070 6        39.688  
I05         0.000 8         0.00008        -0.033 8        48.438           0.000 6         0.00006        -0.070 6        41.875  
I06  38332009.492 7 150419971.71907       -51.131 7        45.312    38332001.991 6 318628585.83706      -108.514 6        39.062  
I07         0.000 7         0.00007        -0.033 7        43.125           0.000 6         0.00006        -0.070 6        38.594  
I09  36019625.240 8 141345939.32708      -114.571 8        50.625    36019619.914 7 299406975.55007      -242.702 7        45.781  
I10  39371167.518 7 154497842.41707       -74.277 7        44.062    39371159.498 6 327266485.31406      -157.451 6        36.719  
> 2024 01 01  1 28 30.0000000  0  9      -209.528101294602
I01         0.000 8         0.00008        -0.092 8        50.938           0.000 4         0.00004        -0.195 4        25.000  
I02  39410871.634 7 154653525.85007      -223.634 7        43.438    39410863.372 6 327596549.29706      -473.623 6        36.562  
I03  36516099.614 8 143293890.58308        29.024 8        50.312    36516093.063 7 303533810.29407        61.517 7        44.688  
I04         0.000 7         0.00007        -0.092 7        46.094           0.000 6         0.00006        -0.195 6        39.688  
I05         0.000 8         0.00008        -0.092 8        48.438           0.000 6         0.00006        -0.195 6        41.250  
I06  38331617.944 7 150418435.91607       -51.151 7        45.312    38331610.378 6 318625332.69906      -108.594 6        39.219  
I07         0.000 7         0.00007        -0.092 7        42.969           0.000 6         0.00006        -0.195 6        38.594  
I09  36018749.865 8 141342503.96108      -114.561 8        50.781    36018744.509 7 299399698.61807      -242.582 7        45.625  
I10  39370600.102 7 154495613.96807       -74.363 7        44.219    39370591.592 6 327261765.13906      -157.410 6        36.719  
> 2024 01 01  1 29  0.0000000  0  9      -209.941402306443
I01         0.000 8         0.00008        -0.113 8        50.781           0.000 4         0.00004        -0.240 4        24.531  
I02  39409157.623 7 154646799.81007      -225.220 7        43.438    39409149.534 6 327582302.07306      -476.904 6        36.875  
I03  36516322.798 8 143294766.56308        29.232 8        50.312    36516316.121 7 303535665.95807        61.841 7        44.844  
I04         0.000 7         0.00007        -0.113 7        45.938           0.000 6         0.00006        -0.240 6        39.531  
I05         0.000 8         0.00008        -0.113 8        48.438           0.000 6         0.00006        -0.240 6        41.406  
I06  38331226.420 7 150416900.03207       -51.448 7        45.312    38331219.302 6 318622079.39006      -108.559 6        39.062  
I07         0.000 7         0.00007        -0.113 7        43.125           0.000 6         0.00006        -0.240 6        38.594  
I09  36017875.250 8 141339071.85608      -114.420 8        50.781    36017869.948 7 299392428.59307      -242.467 7        45.781  
I10  39370032.022 7 154493384.68707       -74.457 7        44.062    39370023.127 6 327257043.19906      -157.485 6        36.719  
> 2024 01 01  1 29 30.0000000  0  9      -209.486246712035
I01         0.000 8         0.00008        -0.100 8        50.781           0.000 4         0.00004        -0.212 4        24.844  
I02  39407431.490 7 154640025.82607      -226.425 7        43.281    39407422.971 6 327567953.28406      -479.943 6        36.875  
I03  36516547.099 8 143295646.62708        29.308 8        50.312    36516540.559 7 303537530.29207        62.007 7        44.688  
I04         0.000 7         0.00007        -0.100 7        45.938           0.000 6         0.00006        -0.212 6        39.219  
I05         0.000 8         0.00008        -0.100 8        48.594           0.000 6         0.00006        -0.212 6        41.094  
I06  38330835.201 7 150415364.15107       -51.379 7        45.469    38330827.652 6 318618826.09006      -108.579 6        38.906  
I07         0.000 7         0.00007        -0.100 7        42.969           0.000 6         0.00006        -0.212 6        38.438  
I09  36017001.521 8 141335643.05208      -114.369 8        50.781    36016996.196 7 299385165.56807      -242.149 7        45.781  
I10  39369463.748 7 154491154.58607       -74.727 7        44.062    39369454.996 6 327252319.53506      -157.409 6        36.562  
> 2024 01 01  1 30  0.0000000  0  9      -209.426991832456
I01         0.000 8         0.00008        -0.101 8        50.938           0.000 3         0.00003        -0.215 3        21.875  
I02  39405692.842 7 154633202.63407      -228.428 7        43.281    39405684.718 6 327553500.24506      -484.002 6        37.188  
I03  36516772.369 8 143296530.75608        29.474 8        50.312    36516765.907 7 303539403.23507        62.390 7        44.844  
I04         0.000 7         0.00007        -0.101 7        45.938           0.000 6         0.00006        -0.215 6        39.062  
I05         0.000 8         0.00008        -0.101 8        48.750           0.000 6         0.00006        -0.215 6        41.094  
I06  38330443.728 7 150413828.18707       -51.434 7        45.469    38330436.255 6 318615572.60606      -108.529 6        39.062  
I07         0.000 7         0.00007        -0.101 7        43.125           0.000 6         0.00006        -0.215 6        38.594  
I09  36016128.663 8 141332217.64708      -114.229 8        50.625    36016123.234 7 299377909.74007      -241.975 7        45.938  
I10  39368895.119 7 154488923.66707       -74.394 7        44.062    39368886.592 6 327247594.12306      -157.841 6        36.406  
> 2024 01 01  1 30 30.0000000  0  9      -209.089053828251
I01         0.000 8         0.00008        -0.134 8        50.781           0.000 4         0.00004        -0.283 4        25.156  
I02  39403941.749 7 154626330.28007      -230.190 7        43.281    39403933.429 6 327538943.08706      -487.421 6        37.188  
I03  36516998.878 8 143297418.96508        29.523 8        50.156    36516992.354 7 303541284.82007        62.579 7        44.688  
I04         0.000 7         0.00007        -0.134 7        45.625           0.000 6         0.00006        -0.283 6        38.906  
I05         0.000 8         0.00008        -0.134 8        48.750           0.000 6         0.00006        -0.283 6        41.562  
I06  38330052.694 7 150412292.22407       -51.498 7        45.469    38330044.318 6 318612319.14606      -108.578 6        38.906  
I07         0.000 7         0.00007        -0.134 7        42.969           0.000 6         0.00006        -0.283 6        38.438  
I09  36015256.626 8 141328795.67508      -114.154 8        50.625    36015251.182 7 299370661.19407      -241.758 7        45.781  
I10  39368326.813 7 154486691.95007       -74.414 7        44.062    39368317.835 6 327242867.04706      -158.092 6        36.562  
> 2024 01 01  1 31  0.0000000  0  9      -209.935151763196
I01         0.000 8         0.00008        -0.087 8        50.781           0.000 3         0.00003        -0.184 3        22.812  
I02  39402178.050 7 154619409.16907      -231.770 7        43.438    39402169.155 6 327524282.67306      -490.450 6        36.875  
I03  36517226.222 8 143298311.25108        29.816 8        50.312    36517219.709 7 303543175.03907        62.937 7        44.688  
I04         0.000 7         0.00007        -0.087 7        45.781           0.000 6         0.00006        -0.184 6        38.906  
I05         0.000 8         0.00008        -0.087 8        48.594           0.000 6         0.00006        -0.184 6        41.562  
I06  38329660.966 7 150410756.21807       -51.236 7        45.312    38329653.293 6 318609065.59506      -108.777 6        38.906  
I07         0.000 7         0.00007        -0.087 7        42.969           0.000 6         0.00006        -0.184 6        38.281  
I09  36014385.572 8 141325377.15508      -113.985 8        50.625    36014380.131 7 299363419.95207      -241.543 7        45.625  
I10  39367757.604 7 154484459.45307       -74.487 7        44.062    39367749.118 6 327238138.30306      -157.789 6        36.562  
> 2024 01 01  1 31 30.0000000  0  9      -209.708297697017
I01         0.000 8         0.00008        -0.059 8        50.781           0.000 4         0.00004        -0.126 4        25.000  
I02  39400402.426 7 154612439.56007      -233.144 7        43.750    39400393.498 6 327509519.48706      -494.116 6        36.719  
I03  36517454.687 8 143299207.61108        29.865 8        50.312    36517448.216 7 303545073.89707        63.330 7        44.844  
I04         0.000 7         0.00007        -0.059 7        46.094           0.000 6         0.00006        -0.126 6        38.438  
I05         0.000 8         0.00008        -0.059 8        48.594           0.000 6         0.00006        -0.126 6        41.562  
I06  38329269.698 7 150409220.19907       -51.349 7        45.312    38329262.187 6 318605812.01506      -108.458 6        38.906  
I07         0.000 7         0.00007        -0.059 7        42.969           0.000 6         0.00006        -0.126 6        38.125  
I09  36013515.389 8 141321962.17708      -113.784 8        50.625    36013509.704 7 299356186.21107      -241.052 7        45.625  
I10  39367188.851 7 154482226.17507       -74.363 7        44.062    39367179.984 6 327233407.90306      -157.692 6        36.562  
> 2024 01 01  1 32  0.0000000  0  9      -210.280210524566
I01         0.000 8         0.00008        -0.034 8        50.781           0.000 4         0.00004        -0.071 4        25.156  
I02  39398613.996 7 154605421.55307      -234.704 7        43.594    39398604.907 6 327494653.80406      -496.914 6        36.719  
I03  36517684.243 8 143300108.02608        30.062 8        50.312    36517677.556 7 303546981.33907        63.653 7        44.688  
I04         0.000 7         0.00007        -0.034 7        45.781           0.000 6         0.00006        -0.071 6        38.281  
I05         0.000 8         0.00008        -0.034 8        48.281           0.000 6         0.00006        -0.071 6        41.719  
I06  38328878.185 7 150407684.16607       -51.248 7        45.156    38328870.523 6 318602558.41306      -108.183 6        38.750  
I07         0.000 7         0.00007        -0.034 7        43.125           0.000 6         0.00006        -0.071 6        38.281  
I09  36012646.050 8 141318550.81808      -113.686 8        50.469    36012640.397 7 299348960.15007      -240.729 7        45.469  
I10  39366619.613 7 154479992.15607       -74.323 7        44.062    39366610.748 6 327228675.92806      -157.801 6        36.406  
> 2024 01 01  1 32 30.0000000  0  9      -210.703036694690
I01         0.000 8         0.00008         0.001 8        50.625           0.000 3         0.00003         0.003 3        23.281  
I02  39396813.425 7 154598355.87407      -236.029 7        43.281    39396804.298 6 327479687.14006      -500.380 6        36.719  
I03  36517914.736 8 143301012.48808        30.204 8        50.312    36517908.032 7 303548897.35407        64.119 7        44.688  
I04         0.000 7         0.00007         0.001 7        45.781           0.000 6         0.00006         0.003 6        38.750  
I05         0.000 8         0.00008         0.001 8        48.125           0.000 6         0.00006         0.003 6        41.406  
I06  38328486.929 7 150406148.10707       -51.074 7        45.156    38328479.309 6 318599304.75906      -108.420 6        39.062  
I07         0.000 7         0.00007         0.001 7        42.969           0.000 6         0.00006         0.003 6        37.812  
I09  36011777.677 8 141315143.08408      -113.545 8        50.625    36011771.854 7 299341741.75907      -240.513 7        45.312  
I10  39366050.190 7 154477757.37707       -74.487 7        44.219    39366040.916 6 327223942.36406      -157.951 6        36.406  
> 2024 01 01  1 33  0.0000000  0  9      -210.570111518585
I01         0.000 8         0.00008         0.039 8        50.625           0.000 4         0.00004         0.083 4        25.156  
I02  39395000.747 7 154591241.35907      -237.576 7        43.281    39394991.435 6 327464617.03706      -503.670 6        36.875  
I03  36518146.284 8 143301921.00608        30.423 8        50.312    36518139.759 7 303550821.98007        64.345 7        44.844  
I04         0.000 7         0.00007         0.039 7        45.781           0.000 6         0.00006         0.083 6        38.750  
I05         0.000 7         0.00007         0.039 7        47.969           0.000 6         0.00006         0.083 6        41.250  
I06  38328095.628 7 150404612.07607       -50.940 7        45.156    38328087.740 6 318596051.16106      -108.210 6        39.062  
I07         0.000 7         0.00007         0.039 7        43.125           0.000 6         0.00006         0.083 6        37.969  
I09  36010910.147 8 141311739.02408      -113.405 8        50.625    36010904.418 7 299334531.15507      -240.228 7        45.312  
I10  39365480.377 7 154475521.85607       -74.426 7        44.062    39365471.580 6 327219207.21106      -157.468 6        36.406  
> 2024 01 01  1 33 30.0000000  0  9      -210.565257251257
I01         0.000 8         0.00008        -0.148 8        50.781           0.000 3         0.00003        -0.314 3        21.406  
I02  39393175.672 7 154584079.02007      -239.620 7        43.438    39393166.126 6 327449445.62006      -507.734 6        36.562  
I03  36518378.808 8 143302833.58608        30.253 8        50.312    36518372.294 7 303552755.19607        64.311 7        44.844  
I04         0.000 7         0.00007        -0.148 7        45.938           0.000 6         0.00006        -0.314 6        38.750  
I05         0.000 7         0.00007        -0.148 7        47.812           0.000 6         0.00006        -0.314 6        41.250  
I06  38327704.053 7 150403076.02107       -51.461 7        45.000    38327696.680 6 318592797.52906      -108.887 6        39.219  
I07         0.000 7         0.00007        -0.148 7        42.969           0.000 6         0.00006        -0.314 6        38.125  
I09  36010043.692 8 141308338.71308      -113.454 8        50.625    36010038.019 7 299327328.50407      -240.299 7        45.312  
I10  39364910.778 7 154473285.62607       -74.883 7        44.219    39364901.223 6 327214470.55206      -158.131 6        36.094  
> 2024 01 01  1 34  0.0000000  0  9      -211.031278605380
I01         0.000 8         0.00008        -0.128 8        50.781           0.000 4         0.00004        -0.271 4        25.000  
I02  39391338.080 7 154576868.03407      -241.483 7        43.438    39391329.090 6 327434171.16306      -511.120 6        36.562  
I03  36518612.518 8 143303750.20208        30.498 8        50.312    36518605.851 7 303554696.96807        64.489 7        44.844  
I04         0.000 7         0.00007        -0.128 7        45.938           0.000 6         0.00006        -0.271 6        39.062  
I05         0.000 7         0.00007        -0.128 7        47.812           0.000 6         0.00006        -0.271 6        41.406  
I06  38327312.604 7 150401540.00407       -51.264 7        45.000    38327304.940 6 318589543.96906      -108.627 6        39.219  
I07         0.000 7         0.00007        -0.128 7        43.125           0.000 6         0.00006        -0.271 6        37.656  
I09  36009178.206 8 141304942.19908      -113.236 8        50.625    36009172.392 7 299320133.88107      -239.931 7        45.312  
I10  39364340.865 7 154471048.67507       -74.838 7        44.375    39364331.199 6 327209732.38306      -158.022 6        36.094  
> 2024 01 01  1 34 30.0000000  0  9      -211.176247846116
I01         0.000 8         0.00008        -0.040 8        50.781           0.000 4         0.00004        -0.084 4        24.531  
I02  39389488.267 7 154569608.91807      -242.779 7        43.281    39389479.188 6 327418794.73806      -514.366 6        36.406  
I03  36518847.196 8 143304670.85608        30.718 8        50.312    36518840.576 7 303556647.28907        65.072 7        44.688  
I04         0.000 7         0.00007        -0.040 7        46.094           0.000 6         0.00006        -0.084 6        39.219  
I05         0.000 7         0.00007        -0.040 7        47.656           0.000 6         0.00006        -0.084 6        41.250  
I06  38326921.202 7 150400003.99807       -51.102 7        45.156    38326913.623 6 318586290.43206      -108.430 6        39.219  
I07         0.000 7         0.00007        -0.040 7        43.125           0.000 6         0.00006        -0.084 6        37.969  
I09  36008313.657 8 141301549.55508      -113.084 8        50.625    36008307.636 7 299312947.45907      -239.445 7        45.156  
I10  39363770.892 7 154468811.04907       -74.549 7        44.531    39363760.814 5 327204992.77505      -158.127 5        35.938  
> 2024 01 01  1 35  0.0000000  0  9      -211.592769259833
I01         0.000 8         0.00008        -0.065 8        50.781           0.000 4         0.00004        -0.138 4        24.375  
I02  39387626.544 7 154562302.15007      -244.329 7        43.281    39387616.275 6 327403317.41506      -517.296 6        36.250  
I03  36519082.874 8 143305595.56908        30.757 8        50.312    36519076.175 7 303558606.21807        65.387 7        44.844  
I04         0.000 7         0.00007        -0.065 7        46.250           0.000 6         0.00006        -0.138 6        39.375  
I05         0.000 7         0.00007        -0.065 7        47.656           0.000 6         0.00006        -0.138 6        41.875  
I06  38326529.921 7 150398468.00807       -51.216 7        45.000    38326522.127 6 318583036.93406      -108.541 6        39.375  
I07         0.000 7         0.00007        -0.065 7        43.281           0.000 6         0.00006        -0.138 6        37.812  
I09  36007450.036 8 141298160.79008      -112.982 8        50.469    36007443.888 7 299305769.26207      -239.156 7        45.156  
I10  39363200.301 7 154466572.73207       -74.631 7        44.375    39363190.762 5 327200251.71605      -158.102 5        35.781  
> 2024 01 01  1 35 30.0000000  0  9      -211.738203490129
I01         0.000 8         0.00008        -0.118 8        50.938           0.000 3         0.00003        -0.250 3        22.188  
I02  39385752.249 7 154554948.00707      -246.118 7        43.125    39385742.966 6 327387739.72306      -521.067 6        36.094  
I03  36519319.631 8 143306524.28308        30.888 8        50.312    36519312.910 7 303560573.61607        65.423 7        44.688  
I04         0.000 7         0.00007        -0.118 7        46.406           0.000 6         0.00006        -0.250 6        39.375  
I05         0.000 7         0.00007        -0.118 7        47.656           0.000 7         0.00007        -0.250 7        42.031  
I06  38326138.723 7 150396932.03507       -51.166 7        45.000    38326130.927 6 318579783.47906      -108.805 6        39.219  
I07         0.000 7         0.00007        -0.118 7        43.281           0.000 6         0.00006        -0.250 6        37.969  
I09  36006587.245 8 141294776.00808      -113.008 8        50.469    36006581.469 7 299298599.51507      -239.190 7        45.000  
I10  39362630.032 7 154464333.74007       -74.875 7        44.531    39362619.383 5 327195509.22005      -158.230 5        35.312  
> 2024 01 01  1 36  0.0000000  0  9      -211.556103076003
I01         0.000 8         0.00008         0.009 8        50.938           0.000 4         0.00004         0.019 4        25.000  
I02  39383865.993 7 154547545.53007      -247.458 7        43.125    39383856.939 6 327372059.64106      -524.458 6        36.250  
I03  36519557.326 8 143307457.06308        31.201 8        50.312    36519550.713 7 303562549.62707        65.883 7        44.844  
I04         0.000 7         0.00007         0.009 7        46.406           0.000 6         0.00006         0.019 6        38.906  
I05         0.000 7         0.00007         0.009 7        47.500           0.000 7         0.00007         0.019 7        42.031  
I06  38325747.109 7 150395396.14907       -51.038 7        45.000    38325739.940 6 318576530.19706      -108.652 6        39.375  
I07         0.000 7         0.00007         0.009 7        42.969           0.000 6         0.00006         0.019 6        37.656  
I09  36005725.970 8 141291395.24808      -112.602 8        50.625    36005720.011 7 299291438.27507      -238.457 7        45.156  
I10  39362059.443 7 154462094.10307       -74.448 7        44.531    39362048.997 5 327190765.34605      -158.409 5        35.469  
> 2024 01 01  1 36 30.0000000  0  9      -211.478678690867
I01         0.000 8         0.00008        -0.020 8        51.094           0.000 3         0.00003        -0.043 3        22.500  
I02  39381967.867 7 154540095.70007      -249.081 7        43.125    39381958.551 5 327356279.25205      -527.696 5        35.938  
I03  36519796.065 8 143308393.86608        31.311 8        50.312    36519789.379 7 303564534.17807        66.129 7        44.844  
I04         0.000 7         0.00007        -0.020 7        46.562           0.000 6         0.00006        -0.043 6        38.906  
I05         0.000 7         0.00007        -0.020 7        47.656           0.000 6         0.00006        -0.043 6        41.875  
I06  38325355.737 7 150393860.28407       -51.237 7        45.000    38325348.419 6 318573276.97406      -108.473 6        39.219  
I07         0.000 7         0.00007        -0.020 7        43.125           0.000 6         0.00006        -0.043 6        37.656  
I09  36004865.445 8 141288018.57308      -112.445 8        50.469    36004859.687 7 299284285.69507      -238.217 7        45.000  
I10  39361488.326 7 154459853.82307       -74.521 7        44.688    39361477.983 5 327186020.13505      -158.086 5        35.469  
> 2024 01 01  1 37  0.0000000  0  9      -211.358005370828
I01         0.000 8         0.00008        -0.124 8        51.094           0.000 3         0.00003        -0.263 3        23.906  
I02  39380057.170 7 154532598.05407      -250.925 7        42.969    39380048.084 6 327340397.57606      -531.443 6        36.250  
I03  36520035.937 8 143309334.65108        31.249 8        50.312    36520029.101 7 303566527.15007        66.298 7        44.844  
I04         0.000 7         0.00007        -0.124 7        46.719           0.000 6         0.00006        -0.263 6        38.906  
I05         0.000 7         0.00007        -0.124 7        47.969           0.000 7         0.00007        -0.263 7        42.188  
I06  38324964.386 7 150392324.47307       -51.333 7        45.000    38324957.188 6 318570023.85306      -108.786 6        39.531  
I07         0.000 7         0.00007        -0.124 7        43.125           0.000 6         0.00006        -0.263 6        37.812  
I09  36004006.037 8 141284646.01608      -112.508 8        50.469    36004000.065 7 299277141.84207      -238.341 7        45.000  
I10  39360917.621 7 154457612.91507       -74.823 7        44.688    39360907.491 5 327181273.59105      -158.188 5        35.625  
> 2024 01 01  1 37 30.0000000  0  9      -210.963293776708
I01         0.000 8         0.00008        -0.072 8        50.938           0.000 3         0.00003        -0.154 3        23.750  
I02  39378134.721 7 154525052.92307      -252.316 7        43.125    39378125.202 5 327324415.30805      -534.941 5        35.938  
I03  36520276.684 8 143310279.46808        31.426 8        50.312    36520270.026 7 303568528.67607        66.752 7        44.844  
I04         0.000 7         0.00007        -0.072 7        46.719           0.000 6         0.00006        -0.154 6        38.906  
I05         0.000 7         0.00007        -0.072 7        47.656           0.000 6         0.00006        -0.154 6        41.875  
I06  38324573.283 7 150390788.72107       -51.245 7        45.156    38324566.009 6 318566770.87506      -108.680 6        39.531  
I07         0.000 7         0.00007        -0.072 7        43.125           0.000 6         0.00006        -0.154 6        37.656  
I09  36003147.752 8 141281277.70008      -112.349 8        50.625    36003141.789 7 299270006.95907      -237.804 7        45.156  
I10  39360346.420 7 154455371.38407       -74.661 7        44.844    39360336.232 5 327176525.71205      -158.473 5        35.312  
> 2024 01 01  1 38  0.0000000  0  9      -211.393310469827
I01         0.000 8         0.00008        -0.141 8        50.781           0.000 3         0.00003        -0.298 3        22.188  
I02  39376199.660 7 154517460.19507      -254.218 7        43.125    39376190.347 5 327308332.25605      -538.164 5        35.781  
I03  36520518.530 8 143311228.30508        31.566 8        50.312    36520511.885 7 303570538.70907        66.841 7        44.688  
I04         0.000 7         0.00007        -0.141 7        46.875           0.000 6         0.00006        -0.298 6        39.219  
I05         0.000 7         0.00007        -0.141 7        47.344           0.000 7         0.00007        -0.298 7        42.031  
I06  38324181.594 7 150389253.05407       -51.219 7        45.000    38324174.832 6 318563518.06606      -108.541 6        39.531  
I07         0.000 7         0.00007        -0.141 7        43.125           0.000 6         0.00006        -0.298 6        37.969  
I09  36002290.490 8 141277913.60308      -112.233 8        50.469    36002284.531 7 299262881.03407      -237.646 7        45.000  
I10  39359775.137 7 154453129.25107       -75.040 7        44.844    39359764.563 5 327171776.57705      -158.548 5        35.312  
> 2024 01 01  1 38 30.0000000  0  9      -211.233350368304
I01         0.000 8         0.00008        -0.097 8        50.938           0.000 4         0.00004        -0.205 4        25.312  
I02  39374253.018 7 154509820.91107      -255.586 7        42.969    39374244.194 5 327292150.55405      -541.179 5        35.938  
I03  36520761.356 8 143312181.16108        31.704 8        50.469    36520754.692 7 303572557.26407        67.171 7        44.844  
I04         0.000 7         0.00007        -0.097 7        46.875           0.000 6         0.00006        -0.205 6        39.688  
I05         0.000 7         0.00007        -0.097 7        47.344           0.000 6         0.00006        -0.205 6        41.719  
I06  38323790.549 7 150387717.42207       -51.202 7        45.156    38323783.429 6 318560265.34706      -108.736 6        39.688  
I07         0.000 7         0.00007        -0.097 7        43.281           0.000 6         0.00006        -0.205 6        37.656  
I09  36001434.322 8 141274553.81108      -112.007 8        50.469    36001428.479 7 299255764.22807      -237.356 7        45.156  
I10  39359203.778 7 154450886.52807       -74.925 7        44.844    39359193.331 5 327167026.19705      -158.544 5        35.469  
> 2024 01 01  1 39  0.0000000  0  9      -210.895934017272
I01         0.000 8         0.00008        -0.078 8        50.625           0.000 4         0.00004        -0.165 4        24.219  
I02  39372294.483 7 154502135.44407      -257.009 7        42.812    39372285.097 5 327275871.03905      -544.773 5        35.625  
I03  36521005.256 8 143313137.98508        31.806 8        50.312    36520998.566 7 303574584.20707        67.611 7        44.844  
I04         0.000 7         0.00007        -0.078 7        46.875           0.000 6         0.00006        -0.165 6        39.531  
I05         0.000 7         0.00007        -0.078 7        47.656           0.000 7         0.00007        -0.165 7        42.031  
I06  38323399.168 7 150386181.89207       -51.137 7        45.000    38323392.361 6 318557012.85206      -108.427 6        39.688  
I07         0.000 7         0.00007        -0.078 7        43.125           0.000 6         0.00006        -0.165 6        37.500  
I09  36000579.332 8 141271198.38908      -111.838 8        50.312    36000573.552 7 299248656.67107      -236.908 7        45.156  
I10  39358632.418 7 154448643.23907       -74.950 7        45.000    39358621.906 5 327162274.60105      -158.489 5        35.625  
> 2024 01 01  1 39 30.0000000  0  9      -210.559250018582
I01         0.000 8         0.00008         0.060 8        50.625           0.000 4         0.00004         0.127 4        25.781  
I02  39370324.207 7 154494401.99407      -258.296 7        42.656    39370314.524 5 327259489.86305      -546.809 5        35.469  
I03  36521250.161 8 143314098.83408        32.139 8        50.312    36521243.435 7 303576619.68207        68.121 7        44.844  
I04         0.000 7         0.00007         0.060 7        46.875           0.000 6         0.00006         0.127 6        39.688  
I05         0.000 7         0.00007         0.060 7        47.812           0.000 7         0.00007         0.127 7        42.031  
I06  38323008.320 7 150384646.43207       -50.978 7        45.000    38323000.931 6 318553760.49906      -108.367 6        39.844  
I07         0.000 7         0.00007         0.060 7        43.125           0.000 6         0.00006         0.127 6        37.656  
I09  35999725.377 8 141267847.39208      -111.478 8        50.312    35999719.622 7 299241558.49407      -236.315 7        45.000  
I10  39358060.662 7 154446399.36707       -74.438 7        44.844    39358050.046 5 327157521.78805      -158.124 5        35.781  
> 2024 01 01  1 40  0.0000000  0  9      -210.155961506887
I01         0.000 8         0.00008        -0.033 8        50.781           0.000 4         0.00004        -0.070 4        25.938  
I02  39368341.699 7 154486622.18807      -260.068 7        42.812    39368332.102 5 327243010.51105      -551.097 5        35.312  
I03  36521495.973 8 143315063.65808        32.230 8        50.312    36521489.343 7 303578663.59107        68.384 7        44.844  
I04         0.000 7         0.00007        -0.033 7        46.719           0.000 6         0.00006        -0.070 6        39.844  
I05         0.000 7         0.00007        -0.033 7        47.656           0.000 7         0.00007        -0.070 7        42.188  
I06  38322616.921 7 150383111.07407       -51.243 7        44.844    38322609.833 6 318550508.37106      -108.556 6        39.688  
I07         0.000 7         0.00007        -0.033 7        43.281           0.000 6         0.00006        -0.070 6        37.500  
I09  35998872.642 8 141264500.88808      -111.525 8        50.156    35998866.857 7 299234469.84407      -236.234 7        45.156  
I10  39357488.865 7 154444154.97907       -74.658 7        45.000    39357478.494 5 327152767.85305      -158.487 5        35.625  
> 2024 01 01  1 40 30.0000000  0  9      -210.315425105929
I01         0.000 8         0.00008        -0.061 8        50.938           0.000 4         0.00004        -0.128 4        25.625  
I02  39366347.497 7 154478794.94207      -261.739 7        43.281    39366337.089 5 327226430.67205      -554.513 5        35.312  
I03  36521742.854 8 143316032.48108        32.252 8        50.312    36521736.295 7 303580715.96207        68.341 7        44.844  
I04         0.000 7         0.00007        -0.061 7        46.719           0.000 6         0.00006        -0.128 6        40.469  
I05         0.000 7         0.00007        -0.061 7        47.656           0.000 6         0.00006        -0.128 6        41.719  
I06  38322225.662 7 150381575.81107       -51.102 7        45.000    38322218.689 6 318547256.44506      -108.516 6        39.688  
I07         0.000 7         0.00007        -0.061 7        43.125           0.000 6         0.00006        -0.128 6        37.656  
I09  35998021.083 8 141261158.91708      -111.354 8        50.469    35998015.246 7 299227390.81107      -235.945 7        45.000  
I10  39356916.724 7 154441910.03207       -74.884 7        44.688    39356906.391 5 327148012.74905      -158.720 5        35.156  
> 2024 01 01  1 41  0.0000000  0  9      -210.400190719388
I01         0.000 8         0.00008        -0.101 8        51.094           0.000 3         0.00003        -0.213 3        22.031  
I02  39364341.029 7 154470921.00207      -263.351 7        43.125    39364330.883 5 327209751.90705      -558.059 5        35.156  
I03  36521990.935 8 143317005.28908        32.425 8        50.312    36521984.115 7 303582776.78207        68.550 7        44.844  
I04         0.000 7         0.00007        -0.101 7        46.719           0.000 6         0.00006        -0.213 6        40.625  
I05         0.000 7         0.00007        -0.101 7        47.656           0.000 6         0.00006        -0.213 6        41.719  
I06  38321834.550 7 150380040.62807       -51.185 7        45.000    38321827.431 6 318544004.69806      -108.535 6        39.688  
I07         0.000 7         0.00007        -0.101 7        43.281           0.000 6         0.00006        -0.213 6        37.500  
I09  35997170.696 8 141257821.55908      -111.310 8        50.469    35997164.792 7 299220321.53707      -235.758 7        45.156  
I10  39356344.679 7 154439664.57307       -75.091 7        44.531    39356334.196 5 327143256.55105      -159.047 5        35.312  
> 2024 01 01  1 41 30.0000000  0  9      -210.911272484470
I01         0.000 8         0.00008        -0.032 8        50.938           0.000 3         0.00003        -0.068 3        23.906  
I02  39362322.512 7 154463000.40407      -264.765 7        42.812    39362312.030 5 327192974.29505      -561.105 5        35.000  
I03  36522239.861 8 143317982.08008        32.583 8        50.312    36522233.119 7 303584846.03207        68.954 7        44.844  
I04         0.000 7         0.00007        -0.032 7        46.719           0.000 6         0.00006        -0.068 6        40.781  
I05         0.000 7         0.00007        -0.032 7        47.969           0.000 6         0.00006        -0.068 6        41.875  
I06  38321443.363 7 150378505.53007       -51.234 7        45.000    38321436.565 6 318540753.13006      -108.462 6        39.844  
I07         0.000 7         0.00007        -0.032 7        43.281           0.000 6         0.00006        -0.068 6        37.656  
I09  35996321.402 8 141254488.85808      -111.023 8        50.469    35996315.532 7 299213262.11207      -235.186 7        45.156  
I10  39355772.307 7 154437418.60607       -74.660 7        44.844    39355761.867 5 327138499.29705      -158.744 5        35.312  
> 2024 01 01  1 42  0.0000000  0  9      -210.386882718197
I01         0.000 8         0.00008        -0.125 8        51.094           0.000 3         0.00003        -0.266 3        21.562  
I02  39360292.210 7 154455034.29107      -266.516 7        42.656    39360282.978 5 327176100.28705      -564.613 5        35.781  
I03  36522489.780 8 143318962.82808        32.600 8        50.312    36522483.043 7 303586923.67307        69.045 7        44.844  
I04         0.000 7         0.00007        -0.125 7        46.875           0.000 6         0.00006        -0.266 6        40.469  
I05         0.000 8         0.00008        -0.125 8        48.281           0.000 6         0.00006        -0.266 6        41.719  
I06  38321052.396 7 150376970.56907       -51.411 7        45.000    38321045.404 6 318537501.86206      -108.650 6        40.000  
I07         0.000 7         0.00007        -0.125 7        43.281           0.000 6         0.00006        -0.266 6        37.969  
I09  35995473.476 8 141251160.86708      -110.973 8        50.469    35995467.558 7 299206212.68707      -235.099 7        45.312  
I10  39355199.998 7 154435172.14207       -75.003 7        44.844    39355189.414 5 327133740.97405      -159.333 5        35.625  
> 2024 01 01  1 42 30.0000000  0  9      -209.604980247730
I01         0.000 8         0.00008        -0.039 8        51.094           0.000 3         0.00003        -0.083 3        23.438  
I02  39358250.461 7 154447021.05007      -267.800 7        42.812    39358241.742 5 327159126.45605      -567.211 5        35.625  
I03  36522740.740 8 143319947.56508        32.884 8        50.312    36522734.054 7 303589009.76407        69.480 7        44.844  
I04         0.000 7         0.00007        -0.039 7        46.875           0.000 6         0.00006        -0.083 6        40.469  
I05         0.000 8         0.00008        -0.039 8        48.438           0.000 6         0.00006        -0.083 6        41.562  
I06  38320661.278 7 150375435.71407       -51.093 7        45.000    38320654.158 6 318534250.82506      -108.519 6        39.688  
I07         0.000 7         0.00007        -0.039 7        43.281           0.000 6         0.00006        -0.083 6        37.656  
I09  35994626.605 8 141247837.67108      -110.704 8        50.469    35994620.717 7 299199173.43007      -234.613 7        45.156  
I10  39354627.605 7 154432925.19207       -74.993 7        44.688    39354616.880 5 327128981.62705      -158.339 5        35.781  
> 2024 01 01  1 43  0.0000000  0  9      -209.963232047773
I01         0.000 8         0.00008        -0.165 8        51.094           0.000 3         0.00003        -0.350 3        23.281  
I02  39356196.723 7 154438961.76007      -269.743 7        42.969    39356187.294 5 327142055.09005      -571.086 5        35.312  
I03  36522992.733 8 143320936.28208        32.864 8        50.312    36522985.890 7 303591104.27907        69.633 7        44.844  
I04         0.000 7         0.00007        -0.165 7        47.031           0.000 6         0.00006        -0.350 6        40.156  
I05         0.000 8         0.00008        -0.165 8        48.281           0.000 6         0.00006        -0.350 6        41.406  
I06  38320270.365 7 150373900.98207       -51.509 7        45.156    38320262.592 6 318531000.02806      -108.744 6        39.375  
I07         0.000 7         0.00007        -0.165 7        43.438           0.000 6         0.00006        -0.350 6        37.656  
I09  35993781.254 8 141244519.32008      -110.676 8        50.625    35993775.196 7 299192144.41907      -234.381 7        45.156  
I10  39354054.904 7 154430677.76407       -75.161 7        44.531    39354044.342 5 327124221.27605      -159.155 5        35.781  
> 2024 01 01  1 43 30.0000000  0  9      -210.319253856305
I01         0.000 8         0.00008        -0.074 8        51.094           0.000 3         0.00003        -0.158 3        20.469  
I02  39354131.768 7 154430856.05407      -271.107 7        43.125    39354121.125 5 327124885.39405      -574.505 5        34.688  
I03  36523245.840 8 143321928.94008        33.040 8        50.469    36523238.956 7 303593207.13707        70.005 7        44.844  
I04         0.000 7         0.00007        -0.074 7        46.719           0.000 6         0.00006        -0.158 6        40.156  
I05         0.000 7         0.00007        -0.074 7        47.969           0.000 6         0.00006        -0.158 6        41.250  
I06  38319879.383 7 150372366.37907       -51.147 7        45.156    38319871.496 6 318527749.52106      -108.474 6        39.688  
I07         0.000 7         0.00007        -0.074 7        43.438           0.000 6         0.00006        -0.158 6        37.656  
I09  35992936.892 8 141241205.90808      -110.444 8        50.625    35992930.732 7 299185125.87207      -233.874 7        45.000  
I10  39353482.093 7 154428429.90507       -74.906 7        44.531    39353471.701 5 327119459.98805      -158.679 5        35.469  
> 2024 01 01  1 44  0.0000000  0  9      -210.537390051688
I01         0.000 8         0.00008        -0.105 8        50.938           0.000 3         0.00003        -0.222 3        23.125  
I02  39352054.020 7 154422703.97307      -272.590 7        42.969    39352043.910 5 327107617.43105      -576.866 5        34.844  
I03  36523499.917 8 143322925.56508        33.189 8        50.312    36523492.966 7 303595318.41607        70.304 7        45.000  
I04         0.000 7         0.00007        -0.105 7        46.719           0.000 6         0.00006        -0.222 6        40.000  
I05         0.000 7         0.00007        -0.105 7        47.812           0.000 6         0.00006        -0.222 6        41.406  
I06  38319488.442 7 150370831.89907       -51.445 7        45.156    38319481.249 6 318524499.28506      -108.442 6        39.688  
I07         0.000 7         0.00007        -0.105 7        43.438           0.000 6         0.00006        -0.222 6        37.500  
I09  35992093.944 8 141237897.43908      -110.312 8        50.625    35992087.831 7 299178117.79707      -233.702 7        45.156  
I10  39352909.267 7 154426181.59107       -74.956 7        44.531    39352898.725 5 327114697.72605      -159.294 5        35.469  
> 2024 01 01  1 44 30.0000000  0  9      -210.594314973213
I01         0.000 8         0.00008         0.011 8        50.938           0.000 4         0.00004         0.023 4        25.469  
I02  39349964.949 7 154414505.91507      -273.704 7        42.812    39349954.926 5 327090252.10405      -579.817 5        35.000  
I03  36523754.761 8 143323926.16508        33.520 8        50.312    36523747.990 7 303597438.10207        70.857 7        45.000  
I04         0.000 7         0.00007         0.011 7        46.406           0.000 6         0.00006         0.023 6        39.688  
I05         0.000 7         0.00007         0.011 7        47.969           0.000 6         0.00006         0.023 6        41.562  
I06  38319097.656 7 150369297.59107       -51.106 7        45.000    38319089.367 6 318521249.40506      -108.373 6        39.375  
I07         0.000 7         0.00007         0.011 7        43.438           0.000 6         0.00006         0.023 6        37.500  
I09  35991252.063 8 141234593.99108      -110.033 8        50.781    35991245.889 7 299171120.35807      -233.200 7        45.156  
I10  39352336.668 7 154423932.83007       -74.873 7        44.531    39352325.463 5 327109934.54405      -158.272 5        35.469  
> 2024 01 01  1 45  0.0000000  0  9      -210.786010132515
I01         0.000 8         0.00008        -0.087 8        50.781           0.000 3         0.00003        -0.185 3        23.750  
I02  39347864.186 7 154406262.69407      -275.587 7        42.969    39347854.265 5 327072791.09705      -583.515 5        35.312  
I03  36524010.785 8 143324930.67508        33.417 8        50.469    36524003.999 7 303599566.08907        70.837 7        45.000  
I04         0.000 7         0.00007        -0.087 7        46.250           0.000 6         0.00006        -0.185 6        38.750  
I05         0.000 7         0.00007        -0.087 7        47.656           0.000 6         0.00006        -0.185 6        40.938  
I06  38318706.698 7 150367763.41007       -51.170 7        45.000    38318698.671 6 318517999.80506      -108.436 6        39.531  
I07         0.000 7         0.00007        -0.087 7        43.594           0.000 6         0.00006        -0.185 6        37.500  
I09  35990411.772 8 141231295.66808      -109.970 8        50.781    35990405.272 7 299164133.77307      -232.974 7        45.000  
I10  39351763.332 7 154421683.66607       -75.102 7        44.375    39351752.573 5 327105170.49805      -159.126 5        35.156  
> 2024 01 01  1 45 30.0000000  0  9      -210.338984871856
I01         0.000 8         0.00008        -0.071 8        50.781           0.000 3         0.00003        -0.151 3        22.812  
I02  39345752.300 7 154397973.75107      -277.117 7        42.969    39345742.542 5 327055233.23505      -586.938 5        35.469  
I03  36524267.871 8 143325939.15808        33.608 8        50.469    36524260.999 7 303601702.47007        71.284 7        45.000  
I04         0.000 7         0.00007        -0.071 7        46.094           0.000 6         0.00006        -0.151 6        38.438  
I05         0.000 7         0.00007        -0.071 7        47.344           0.000 6         0.00006        -0.151 6        41.562  
I06  38318315.617 7 150366229.36907       -51.227 7        45.000    38318307.653 6 318514750.51406      -108.530 6        39.531  
I07         0.000 7         0.00007        -0.071 7        43.438           0.000 6         0.00006        -0.151 6        37.344  
I09  35989572.655 8 141228002.49108      -109.723 8        50.781    35989566.237 7 299157158.09107      -232.400 7        45.156  
I10  39351190.182 7 154419434.09207       -75.021 7        44.531    39351179.498 5 327100405.58605      -159.530 5        35.156  
> 2024 01 01  1 46  0.0000000  0  9      -210.575855847009
I01         0.000 8         0.00008         0.017 8        50.938           0.000 4         0.00004         0.036 4        25.312  
I02  39343628.186 7 154389638.66607      -278.331 7        42.812    39343618.144 5 327037577.64105      -589.647 5        35.469  
I03  36524525.856 8 143326951.56008        33.799 8        50.469    36524519.034 7 303603847.16307        71.649 7        45.000  
I04         0.000 7         0.00007         0.017 7        45.938           0.000 6         0.00006         0.036 6        38.125  
I05         0.000 7         0.00007         0.017 7        47.344           0.000 6         0.00006         0.036 6        41.250  
I06  38317925.039 7 150364695.52707       -50.963 7        45.000    38317916.852 6 318511501.63706      -108.436 6        39.688  
I07         0.000 7         0.00007         0.017 7        43.750           0.000 6         0.00006         0.036 6        37.656  
I09  35988734.873 8 141224714.54908      -109.469 8        50.938    35988728.365 7 299150193.50607      -232.022 7        45.156  
I10  39350616.950 7 154417184.12507       -74.852 7        44.531    39350606.147 5 327095639.82705      -158.651 5        35.156  
> 2024 01 01  1 46 30.0000000  0  9      -210.383364583829
I01         0.000 8         0.00008        -0.105 8        51.094           0.000 3         0.00003        -0.222 3        21.562  
I02  39341492.578 7 154381258.23607      -280.255 7        42.969    39341483.265 6 327019826.00406      -593.622 6        36.094  
I03  36524784.859 8 143327967.92708        33.893 8        50.469    36524777.939 7 303606000.25007        71.777 7        44.844  
I04         0.000 7         0.00007        -0.105 7        45.781           0.000 6         0.00006        -0.222 6        39.219  
I05         0.000 7         0.00007        -0.105 7        47.031           0.000 6         0.00006        -0.222 6        41.719  
I06  38317534.143 7 150363161.82907       -51.320 7        45.469    38317526.313 6 318508253.07806      -108.496 6        39.375  
I07         0.000 7         0.00007        -0.105 7        42.656           0.000 6         0.00006        -0.222 6        36.562  
I09  35987898.369 8 141221431.89008      -109.449 8        51.094    35987891.868 7 299143240.10507      -231.862 7        45.156  
I10  39350043.970 7 154414933.77407       -75.120 7        43.594    39350033.160 5 327090873.24005      -159.251 5        35.469  
> 2024 01 01  1 47  0.0000000  0  9      -210.553695592790
I01         0.000 8         0.00008        -0.148 8        50.938           0.000 4         0.00004        -0.313 4        25.156  
I02  39339345.572 7 154372831.79207      -281.816 7        42.188    39339336.065 5 327001976.87305      -596.801 5        35.625  
I03  36525045.003 8 143328988.20808        33.874 8        50.625    36525038.095 7 303608161.62907        72.001 7        44.844  
I04         0.000 7         0.00007        -0.148 7        45.781           0.000 6         0.00006        -0.313 6        39.375  
I05         0.000 7         0.00007        -0.148 7        47.500           0.000 6         0.00006        -0.313 6        41.719  
I06  38317143.341 7 150361628.30007       -51.313 7        45.312    38317135.218 6 318505004.89106      -108.330 6        39.219  
I07         0.000 7         0.00007        -0.148 7        42.500           0.000 5         0.00005        -0.313 5        35.781  
I09  35987063.144 8 141218154.57608      -109.384 8        50.781    35987056.579 7 299136298.02607      -231.467 7        44.844  
I10  39349470.296 7 154412683.06907       -75.247 7        43.438    39349459.287 5 327086105.90605      -159.365 5        34.375  
> 2024 01 01  1 47 30.0000000  0  9      -210.108954854914
I01         0.000 8         0.00008        -0.009 8        50.938           0.000 3         0.00003        -0.019 3        21.406  
I02  39337186.650 7 154364360.05807      -283.045 7        42.656    39337177.423 5 326984031.82505      -599.779 5        35.781  
I03  36525306.113 8 143330012.43708        34.267 8        50.625    36525299.148 7 303610331.37107        72.569 7        45.000  
I04         0.000 7         0.00007        -0.009 7        46.250           0.000 6         0.00006        -0.019 6        39.375  
I05         0.000 7         0.00007        -0.009 7        47.812           0.000 6         0.00006        -0.019 6        41.875  
I06  38316752.936 7 150360094.99307       -51.051 7        45.156    38316744.641 6 318501757.15206      -108.344 6        39.219  
I07         0.000 7         0.00007        -0.009 7        42.812           0.000 6         0.00006        -0.019 6        36.719  
I09  35986229.676 8 141214882.69008      -109.075 8        51.094    35986223.024 7 299129367.43907      -230.838 7        45.000  
I10  39348896.655 7 154410431.98907       -74.798 7        44.062    39348886.126 5 327081337.83205      -158.686 5        35.312  
> 2024 01 01  1 48  0.0000000  0  9      -209.763337067240
I01         0.000 8         0.00008        -0.088 8        50.938           0.000 4         0.00004        -0.187 4        25.469  
I02  39335017.029 7 154355843.94207      -284.584 7        42.344    39335007.263 6 326965992.76906      -602.914 6        36.406  
I03  36525568.039 8 143331040.60208        34.243 8        50.781    36525561.151 7 303612509.45907        72.479 7        45.000  
I04         0.000 7         0.00007        -0.088 7        46.250           0.000 6         0.00006        -0.187 6        39.219  
I05         0.000 7         0.00007        -0.088 7        47.656           0.000 7         0.00007        -0.187 7        42.031  
I06  38316362.301 7 150358561.84707       -51.230 7        45.000    38316353.602 6 318498509.76706      -108.525 6        38.906  
I07         0.000 7         0.00007        -0.088 7        42.656           0.000 6         0.00006        -0.187 6        36.562  
I09  35985397.499 8 141211616.29508      -108.915 8        51.094    35985390.528 7 299122448.49607      -230.648 7        45.000  
I10  39348323.373 7 154408180.60107       -75.204 7        43.906    39348312.162 5 327076569.03605      -159.208 5        35.469  
> 2024 01 01  1 48 30.0000000  0  9      -210.024341408107
I01         0.000 8         0.00008        -0.131 8        51.094           0.000 4         0.00004        -0.277 4        24.531  
I02  39332835.447 7 154347282.55307      -286.448 7        42.969    39332825.550 5 326947857.79205      -606.355 5        35.938  
I03  36525831.186 8 143332072.65508        34.319 8        50.469    36525824.374 7 303614695.77407        72.841 7        44.844  
I04         0.000 7         0.00007        -0.131 7        46.250           0.000 6         0.00006        -0.277 6        38.750  
I05         0.000 7         0.00007        -0.131 7        47.969           0.000 6         0.00006        -0.277 6        40.938  
I06  38315971.731 7 150357028.89407       -51.288 7        45.000    38315963.117 6 318495262.78906      -108.451 6        39.062  
I07         0.000 7         0.00007        -0.131 7        43.594           0.000 6         0.00006        -0.277 6        36.562  
I09  35984566.529 8 141208355.42208      -108.805 8        51.094    35984559.720 7 299115541.25007      -230.284 7        45.156  
I10  39347749.354 7 154405928.88807       -75.082 7        44.531    39347738.495 5 327071799.53405      -159.444 5        35.156  
> 2024 01 01  1 49  0.0000000  0  9      -210.695711630407
I01         0.000 8         0.00008        -0.116 8        51.094           0.000 4         0.00004        -0.245 4        24.375  
I02  39330642.075 7 154338675.26207      -287.965 7        42.969    39330631.991 5 326929625.59405      -609.967 5        35.625  
I03  36526095.350 8 143333108.63908        34.566 8        50.469    36526088.311 7 303616890.41107        73.111 7        44.844  
I04         0.000 7         0.00007        -0.116 7        46.094           0.000 6         0.00006        -0.245 6        39.375  
I05         0.000 8         0.00008        -0.116 8        48.125           0.000 6         0.00006        -0.245 6        41.406  
I06  38315581.132 7 150355496.14907       -51.320 7        45.156    38315572.435 6 318492016.24606      -108.701 6        39.062  
I07         0.000 7         0.00007        -0.116 7        43.594           0.000 6         0.00006        -0.245 6        36.875  
I09  35983737.052 8 141205100.17408      -108.557 8        51.094    35983730.131 7 299108645.92507      -229.941 7        45.000  
I10  39347175.250 7 154403676.84507       -75.060 7        44.688    39347164.467 5 327067029.36605      -159.436 5        35.000  
> 2024 01 01  1 49 30.0000000  0  9      -210.589758000974
I01         0.000 8         0.00008        -0.026 8        51.094           0.000 4         0.00004        -0.056 4        25.625  
I02  39328437.623 7 154330024.07807      -288.889 7        42.969    39328427.233 5 326911300.43005      -612.385 5        35.938  
I03  36526360.380 8 143334148.50508        34.803 8        50.469    36526353.238 7 303619093.28407        73.455 7        45.000  
I04         0.000 7         0.00007        -0.026 7        46.094           0.000 6         0.00006        -0.056 6        39.531  
I05         0.000 8         0.00008        -0.026 8        48.281           0.000 6         0.00006        -0.056 6        41.562  
I06  38315190.883 7 150353963.58607       -50.956 7        45.312    38315182.213 6 318488770.11406      -108.163 6        39.062  
I07         0.000 7         0.00007        -0.026 7        43.594           0.000 6         0.00006        -0.056 6        36.562  
I09  35982909.115 8 141201850.61008      -108.290 8        51.094    35982902.048 7 299101762.64007      -229.419 7        45.156  
I10  39346601.388 7 154401424.48807       -75.289 7        44.688    39346590.339 5 327062258.54205      -158.973 5        34.844  
> 2024 01 01  1 50  0.0000000  0  9      -210.677510065175
I01         0.000 8         0.00008        -0.115 8        51.250           0.000 4         0.00004        -0.243 4        24.688  
I02  39326221.649 7 154321327.48607      -290.764 7        42.969    39326211.712 6 326892879.07606      -615.967 6        36.094  
I03  36526626.437 8 143335192.29908        34.644 8        50.469    36526619.250 7 303621304.48007        73.715 7        44.844  
I04         0.000 7         0.00007        -0.115 7        46.094           0.000 6         0.00006        -0.243 6        39.688  
I05         0.000 8         0.00008        -0.115 8        48.125           0.000 6         0.00006        -0.243 6        41.719  
I06  38314800.505 7 150352431.25407       -51.132 7        45.156    38314791.492 6 318485524.44306      -108.450 6        38.906  
I07         0.000 7         0.00007        -0.115 7        43.750           0.000 6         0.00006        -0.243 6        36.719  
I09  35982082.587 8 141198606.79508      -108.141 8        51.094    35982075.318 7 299094891.52407      -229.038 7        45.156  
I10  39346027.830 7 154399171.84807       -75.282 7        44.844    39346015.946 5 327057487.11905      -159.259 5        35.156  
> 2024 01 01  1 50 30.0000000  0  9      -210.408453790135
I01         0.000 8         0.00008        -0.055 8        51.250           0.000 4         0.00004        -0.117 4        25.156  
I02  39323994.299 7 154312586.17607      -292.132 7        42.969    39323984.010 5 326874363.01405      -619.038 5        35.781  
I03  36526893.576 8 143336239.96608        34.952 8        50.469    36526886.189 7 303623523.87307        74.034 7        44.844  
I04         0.000 7         0.00007        -0.055 7        46.250           0.000 6         0.00006        -0.117 6        39.844  
I05         0.000 7         0.00007        -0.055 7        47.812           0.000 6         0.00006        -0.117 6        41.875  
I06  38314410.263 7 150350899.14707       -51.041 7        45.312    38314401.304 6 318482279.27806      -108.450 6        39.062  
I07         0.000 7         0.00007        -0.055 7        43.594           0.000 6         0.00006        -0.117 6        36.719  
I09  35981257.520 8 141195368.80808      -107.952 8        51.094    35981250.285 7 299088032.74807      -228.484 7        45.156  
I10  39345454.041 7 154396918.93607       -75.072 7        45.000    39345442.086 5 327052715.09705      -159.409 5        35.156  
> 2024 01 01  1 51  0.0000000  0  9      -210.898250515232
I01         0.000 8         0.00008         0.006 8        51.250           0.000 3         0.00003         0.013 3        22.812  
I02  39321755.755 7 154303800.92707      -293.376 7        43.281    39321745.017 5 326855753.84805      -621.226 5        35.469  
I03  36527161.478 8 143337291.56708        35.126 8        50.469    36527154.313 7 303625751.59907        74.339 7        44.844  
I04         0.000 7         0.00007         0.006 7        46.406           0.000 6         0.00006         0.013 6        40.156  
I05         0.000 7         0.00007         0.006 7        47.812           0.000 6         0.00006         0.013 6        41.562  
I06  38314019.824 7 150349367.23907       -50.931 7        45.312    38314010.984 6 318479034.51206      -108.128 6        39.062  
I07         0.000 7         0.00007         0.006 7        43.750           0.000 6         0.00006         0.013 6        36.562  
I09  35980433.952 8 141192136.66108      -107.611 8        51.094    35980426.599 7 299081186.35907      -227.991 7        45.000  
I10  39344879.482 7 154394665.75807       -74.998 7        44.844    39344868.251 5 327047942.51505      -159.109 5        35.000  
> 2024 01 01  1 51 30.0000000  0  9      -211.050125554250
I01         0.000 8         0.00008        -0.164 8        51.250           0.000 3         0.00003        -0.347 3        23.594  
I02  39319505.395 7 154294971.07307      -295.225 7        43.125    39319495.433 5 326837050.21605      -625.281 5        35.781  
I03  36527430.536 8 143338347.03808        35.057 8        50.469    36527423.345 7 303627987.53407        74.384 7        44.844  
I04         0.000 7         0.00007        -0.164 7        46.719           0.000 6         0.00006        -0.347 6        40.625  
I05         0.000 7         0.00007        -0.164 7        47.969           0.000 6         0.00006        -0.347 6        41.562  
I06  38313629.908 7 150347835.57507       -51.343 7        45.469    38313620.353 6 318475790.27106      -108.313 6        38.906  
I07         0.000 7         0.00007        -0.164 7        43.750           0.000 6         0.00006        -0.347 6        37.031  
I09  35979611.840 8 141188910.47808      -107.605 8        51.094    35979604.796 7 299074352.58907      -227.883 7        45.156  
I10  39344305.406 7 154392412.31207       -75.521 7        44.688    39344293.872 5 327043169.38405      -159.299 5        35.000  
> 2024 01 01  1 52  0.0000000  0  9      -210.812117946789
I01         0.000 8         0.00008        -0.080 8        51.094           0.000 3         0.00003        -0.170 3        21.875  
I02  39317244.300 7 154286096.56507      -296.651 7        42.969    39317233.959 5 326818251.99705      -628.100 5        35.781  
I03  36527700.485 8 143339406.40208        35.292 8        50.469    36527693.296 7 303630231.70707        74.493 7        44.844  
I04         0.000 7         0.00007        -0.080 7        46.719           0.000 6         0.00006        -0.170 6        40.312  
I05         0.000 7         0.00007        -0.080 7        47.812           0.000 6         0.00006        -0.170 6        41.562  
I06  38313239.528 7 150346304.15007       -51.159 7        45.469    38313230.342 6 318472546.53606      -108.223 6        38.906  
I07         0.000 7         0.00007        -0.080 7        43.750           0.000 6         0.00006        -0.170 6        36.719  
I09  35978791.270 8 141185690.29408      -107.293 8        51.094    35978784.209 7 299067531.53507      -227.338 7        45.156  
I10  39343731.013 7 154390158.63807       -75.137 7        44.844    39343719.217 5 327038395.76105      -159.430 5        35.000  
> 2024 01 01  1 52 30.0000000  0  9      -210.513447180092
I01         0.000 8         0.00008        -0.122 8        51.094           0.000 4         0.00004        -0.258 4        24.844  
I02  39314971.547 7 154277178.01407      -297.940 7        43.125    39314961.556 5 326799360.50505      -631.663 5        35.938  
I03  36527971.503 8 143340469.59908        35.296 8        50.625    36527964.204 7 303632483.99707        74.948 7        44.844  
I04         0.000 7         0.00007        -0.122 7        46.719           0.000 6         0.00006        -0.258 6        40.156  
I05         0.000 7         0.00007        -0.122 7        47.812           0.000 6         0.00006        -0.258 6        41.406  
I06  38312849.290 7 150344772.98307       -51.250 7        45.469    38312840.256 6 318469303.35206      -108.318 6        38.906  
I07         0.000 7         0.00007        -0.122 7        43.750           0.000 6         0.00006        -0.258 6        36.562  
I09  35977972.345 8 141182476.21808      -107.206 8        51.094    35977965.232 7 299060723.41807      -227.069 7        45.156  
I10  39343157.005 7 154387904.73607       -75.401 7        44.688    39343145.599 5 327033621.67305      -159.830 5        35.000  
> 2024 01 01  1 53  0.0000000  0  9      -210.195606889512
I01         0.000 8         0.00008        -0.096 8        51.094           0.000 4         0.00004        -0.202 4        25.312  
I02  39312687.512 7 154268214.95007      -299.670 7        43.281    39312677.661 6 326780374.68506      -635.098 6        36.094  
I03  36528243.489 8 143341536.71808        35.546 8        50.469    36528236.063 7 303634744.60007        75.176 7        44.844  
I04         0.000 7         0.00007        -0.096 7        46.250           0.000 6         0.00006        -0.202 6        40.156  
I05         0.000 7         0.00007        -0.096 7        47.812           0.000 6         0.00006        -0.202 6        41.875  
I06  38312459.467 7 150343242.07107       -51.197 7        45.156    38312450.676 6 318466060.67806      -108.353 6        38.750  
I07         0.000 7         0.00007        -0.096 7        43.594           0.000 6         0.00006        -0.202 6        36.719  
I09  35977154.973 8 141179268.29508      -106.929 8        51.250    35977147.847 7 299053928.31807      -226.578 7        45.312  
I10  39342582.824 7 154385650.63007       -75.121 7        44.531    39342571.394 5 327028847.12205      -158.827 5        35.156  
> 2024 01 01  1 53 30.0000000  0  9      -210.390355307944
I01         0.000 8         0.00008        -0.072 8        51.094           0.000 4         0.00004        -0.153 4        25.000  
I02  39310392.570 7 154259208.28607      -300.942 7        42.656    39310382.202 5 326761296.53605      -637.747 5        35.312  
I03  36528516.413 8 143342607.72708        35.690 8        50.781    36528509.241 7 303637013.42807        75.635 7        45.000  
I04         0.000 7         0.00007        -0.072 7        46.250           0.000 6         0.00006        -0.153 6        40.156  
I05         0.000 7         0.00007        -0.072 7        47.500           0.000 7         0.00007        -0.153 7        42.344  
I06  38312069.294 7 150341711.40207       -51.090 7        45.312    38312060.385 6 318462818.59706      -108.225 6        39.062  
I07         0.000 7         0.00007        -0.072 7        42.656           0.000 6         0.00006        -0.153 6        37.188  
I09  35976338.877 8 141176066.59708      -106.704 8        50.781    35976332.175 7 299047146.41907      -225.946 7        45.469  
I10  39342008.257 7 154383396.30107       -75.217 7        43.594    39341996.770 5 327024072.12405      -159.336 5        35.625  
> 2024 01 01  1 54  0.0000000  0  9      -209.338236265613
I01         0.000 8         0.00008        -0.048 8        51.406           0.000 3         0.00003        -0.103 3        23.750  
I02  39308086.400 7 154250158.28807      -302.408 7        43.438    39308076.699 5 326742126.56605      -640.409 5        35.156  
I03  36528790.274 8 143343682.61008        35.829 8        50.312    36528783.310 7 303639290.48007        75.779 7        45.156  
I04         0.000 7         0.00007        -0.048 7        46.562           0.000 6         0.00006        -0.103 6        40.000  
I05         0.000 7         0.00007        -0.048 7        47.969           0.000 7         0.00007        -0.103 7        42.188  
I06  38311679.307 7 150340181.01407       -50.878 7        45.000    38311670.064 6 318459577.05806      -108.196 6        38.750  
I07         0.000 7         0.00007        -0.048 7        42.344           0.000 6         0.00006        -0.103 6        37.500  
I09  35975524.752 8 141172871.15708      -106.523 8        51.250    35975518.013 7 299040377.76807      -225.599 7        45.625  
I10  39341433.750 7 154381141.81507       -75.161 7        43.438    39341422.949 6 327019296.78006      -159.549 6        36.562  
> 2024 01 01  1 54 30.0000000  0  9      -210.371315787288
I01         0.000 8         0.00008        -0.087 8        50.938           0.000 4         0.00004        -0.184 4        24.531  
I02  39305769.044 7 154241064.03907      -304.012 7        43.281    39305758.822 6 326722862.91406      -644.242 6        36.250  
I03  36529065.499 8 143344761.29608        35.988 8        50.625    36529057.863 7 303641575.59507        76.079 7        44.844  
I04         0.000 7         0.00007        -0.087 7        46.562           0.000 6         0.00006        -0.184 6        39.844  
I05         0.000 8         0.00008        -0.087 8        48.125           0.000 6         0.00006        -0.184 6        41.406  
I06  38311289.790 7 150338650.88807       -51.058 7        45.312    38311280.265 6 318456336.04706      -108.067 6        38.906  
I07         0.000 7         0.00007        -0.087 7        43.594           0.000 6         0.00006        -0.184 6        36.875  
I09  35974712.008 8 141169682.08708      -106.229 8        51.094    35974705.514 7 299033622.62207      -225.095 7        45.625  
I10  39340859.379 7 154378887.15207       -75.333 7        44.375    39340848.311 5 327014521.06605      -159.304 5        35.625  
> 2024 01 01  1 55  0.0000000  0  9      -210.626152795922
I01         0.000 8         0.00008        -0.049 8        51.094           0.000 4         0.00004        -0.103 4        24.844  
I02  39303440.731 7 154231926.09707      -305.396 7        43.281    39303430.727 6 326703506.68206      -646.552 6        36.562  
I03  36529341.221 8 143345843.86008        36.138 8        50.469    36529333.824 7 303643868.92607        76.451 7        44.844  
I04         0.000 7         0.00007        -0.049 7        46.719           0.000 6         0.00006        -0.103 6        39.688  
I05         0.000 7         0.00007        -0.049 7        47.969           0.000 6         0.00006        -0.103 6        41.562  
I06  38310899.847 7 150337121.01107       -51.129 7        45.469    38310890.085 6 318453095.60206      -108.211 6        38.750  
I07         0.000 7         0.00007        -0.049 7        43.750           0.000 6         0.00006        -0.103 6        36.719  
I09  35973901.197 8 141166499.44708      -106.032 8        51.250    35973894.280 7 299026881.09107      -224.644 7        45.469  
I10  39340284.692 7 154376632.32907       -74.947 7        44.531    39340273.383 5 327009745.01905      -159.274 5        35.625  
> 2024 01 01  1 55 30.0000000  0  9      -210.320974715314
I01         0.000 8         0.00008        -0.098 8        51.250           0.000 3         0.00003        -0.208 3        23.438  
I02  39301100.932 7 154222744.34407      -306.795 7        43.125    39301090.853 6 326684057.65706      -649.971 6        36.406  
I03  36529618.284 8 143346930.28408        36.227 8        50.469    36529610.629 7 303646170.41507        76.695 7        44.688  
I04         0.000 7         0.00007        -0.098 7        46.875           0.000 6         0.00006        -0.208 6        39.531  
I05         0.000 7         0.00007        -0.098 7        47.969           0.000 6         0.00006        -0.208 6        41.562  
I06  38310510.248 7 150335591.41107       -51.139 7        45.469    38310500.426 6 318449855.75006      -108.553 6        38.906  
I07         0.000 7         0.00007        -0.098 7        43.750           0.000 6         0.00006        -0.208 6        36.562  
I09  35973091.877 8 141163323.28608      -105.866 8        51.250    35973085.150 7 299020153.28107      -224.326 7        45.469  
I10  39339710.327 7 154374377.37207       -75.387 7        44.375    39339698.836 5 327004968.64905      -159.437 5        35.938  
> 2024 01 01  1 56  0.0000000  0  9      -210.741022772882
I01         0.000 8         0.00008        -0.070 8        51.406           0.000 3         0.00003        -0.147 3        23.438  
I02  39298750.175 7 154213519.20607      -308.280 7        43.125    39298739.590 6 326664516.73006      -653.326 6        36.406  
I03  36529896.142 8 143348020.56608        36.259 8        50.469    36529888.573 7 303648480.09107        76.957 7        44.844  
I04         0.000 7         0.00007        -0.070 7        46.562           0.000 6         0.00006        -0.147 6        39.531  
I05         0.000 7         0.00007        -0.070 7        47.812           0.000 6         0.00006        -0.147 6        41.094  
I06  38310120.597 7 150334062.14207       -51.019 7        45.625    38310111.239 6 318446616.59606      -107.971 6        38.906  
I07         0.000 7         0.00007        -0.070 7        43.750           0.000 6         0.00006        -0.147 6        36.406  
I09  35972284.131 8 141160153.72508      -105.603 8        51.250    35972277.607 7 299013439.45507      -223.764 7        45.469  
I10  39339135.452 7 154372122.26307       -75.121 7        44.375    39339124.464 5 327000191.97805      -159.545 5        35.781  
> 2024 01 01  1 56 30.0000000  0  9      -210.624922415157
I01         0.000 8         0.00008        -0.045 8        51.406           0.000 3         0.00003        -0.096 3        20.000  
I02  39296388.390 7 154204250.61007      -309.679 7        43.281    39296378.315 6 326644883.76606      -656.245 6        36.562  
I03  36530174.995 8 143349114.67508        36.459 8        50.469    36530167.159 7 303650797.86807        77.186 7        44.688  
I04         0.000 7         0.00007        -0.045 7        46.406           0.000 6         0.00006        -0.096 6        39.688  
I05         0.000 7         0.00007        -0.045 7        47.812           0.000 6         0.00006        -0.096 6        41.094  
I06  38309730.999 7 150332533.13807       -51.032 7        45.625    38309721.261 6 318443377.99606      -108.235 6        38.906  
I07         0.000 7         0.00007        -0.045 7        43.750           0.000 6         0.00006        -0.096 6        36.250  
I09  35971478.134 8 141156990.81908      -105.416 8        51.250    35971471.510 7 299006739.71907      -223.129 7        45.625  
I10  39338560.947 7 154369867.04807       -74.939 7        44.375    39338550.086 5 326995415.09005      -159.064 5        35.781  
> 2024 01 01  1 57  0.0000000  0  9      -210.277866042734
I01         0.000 8         0.00008        -0.100 8        51.562           0.000 4         0.00004        -0.213 4        25.469  
I02  39294015.675 7 154194939.41107      -311.182 7        43.281    39294005.055 6 326625160.55006      -659.103 6        36.562  
I03  36530454.954 8 143350212.66708        36.484 8        50.625    36530447.298 7 303653123.86607        77.294 7        44.844  
I04         0.000 7         0.00007        -0.100 7        46.094           0.000 6         0.00006        -0.213 6        40.000  
I05         0.000 7         0.00007        -0.100 7        47.812           0.000 6         0.00006        -0.213 6        41.094  
I06  38309341.727 7 150331004.41607       -51.137 7        45.625    38309331.921 6 318440139.99606      -107.935 6        39.375  
I07         0.000 7         0.00007        -0.100 7        43.906           0.000 6         0.00006        -0.213 6        36.406  
I09  35970673.852 8 141153834.61008      -105.053 8        51.250    35970667.356 7 299000054.16607      -222.784 7        45.469  
I10  39337986.276 7 154367611.72107       -75.348 7        44.219    39337975.645 5 326990637.97205      -159.466 5        35.781  
> 2024 01 01  1 57 30.0000000  0  9      -210.382304497102
I01         0.000 8         0.00008        -0.131 8        51.406           0.000 3         0.00003        -0.277 3        22.969  
I02  39291632.098 7 154185584.61107      -312.733 7        43.438    39291621.168 6 326605344.96106      -662.172 6        36.562  
I03  36530735.769 8 143351314.45008        36.648 8        50.469    36530727.907 7 303655457.90607        77.494 7        44.688  
I04         0.000 7         0.00007        -0.131 7        46.250           0.000 6         0.00006        -0.277 6        40.312  
I05         0.000 7         0.00007        -0.131 7        47.500           0.000 6         0.00006        -0.277 6        41.719  
I06  38308952.300 7 150329475.99307       -51.070 7        45.469    38308942.021 6 318436902.63806      -108.374 6        39.062  
I07         0.000 7         0.00007        -0.131 7        43.906           0.000 6         0.00006        -0.277 6        36.250  
I09  35969871.315 8 141150685.16608      -104.960 8        51.250    35969864.906 7 298993382.96007      -222.457 7        45.625  
I10  39337411.619 7 154365356.28207       -75.495 7        44.375    39337400.886 5 326985860.62605      -159.355 5        35.938  
> 2024 01 01  1 58  0.0000000  0  9      -210.727583461224
I01         0.000 8         0.00008        -0.043 8        51.406           0.000 4         0.00004        -0.090 4        25.938  
I02  39289237.322 7 154176186.73607      -313.942 7        43.594    39289226.368 6 326585438.14506      -665.358 6        36.406  
I03  36531017.558 8 143352420.10208        36.906 8        50.469    36531009.691 7 303657800.12707        78.225 7        44.844  
I04         0.000 7         0.00007        -0.043 7        46.250           0.000 6         0.00006        -0.090 6        40.000  
I05         0.000 7         0.00007        -0.043 7        47.344           0.000 6         0.00006        -0.090 6        41.875  
I06  38308562.924 7 150327947.89507       -50.893 7        45.469    38308553.038 6 318433665.96506      -108.063 6        39.062  
I07         0.000 7         0.00007        -0.043 7        43.906           0.000 6         0.00006        -0.090 6        36.250  
I09  35969070.526 8 141147542.59808      -104.636 8        51.094    35969063.985 7 298986726.30707      -221.813 7        45.625  
I10  39336836.945 7 154363100.76707       -75.230 7        44.375    39336826.806 6 326981083.09506      -159.348 6        36.250  
> 2024 01 01  1 58 30.0000000  0  9      -210.358644232790
I01         0.000 8         0.00008         0.026 8        51.406           0.000 4         0.00004         0.056 4        24.531  
I02  39286831.971 7 154166746.29607      -315.258 7        43.594    39286821.401 6 326565441.16906      -667.864 6        36.719  
I03  36531300.301 8 143353529.54508        37.155 8        50.625    36531292.341 7 303660150.39407        78.485 7        44.688  
I04         0.000 7         0.00007         0.026 7        46.250           0.000 6         0.00006         0.056 6        40.156  
I05         0.000 7         0.00007         0.026 7        47.188           0.000 6         0.00006         0.056 6        41.719  
I06  38308173.492 7 150326420.11507       -50.780 7        45.312    38308163.628 6 318430429.96306      -107.486 6        38.906  
I07         0.000 7         0.00007         0.026 7        43.750           0.000 6         0.00006         0.056 6        36.406  
I09  35968271.537 8 141144406.93208      -104.317 8        50.938    35968265.036 7 298980084.28207      -221.064 7        45.625  
I10  39336262.214 7 154360845.19007       -74.963 7        44.531    39336251.373 6 326976305.46406      -158.993 6        36.250  
> 2024 01 01  1 59  0.0000000  0  9      -210.233678117209
I01         0.000 8         0.00008        -0.125 8        51.250           0.000 4         0.00004        -0.264 4        24.844  
I02  39284415.351 7 154157263.18607      -317.296 7        43.594    39284404.680 6 326545353.80906      -671.671 6        36.562  
I03  36531584.135 8 143354642.80708        37.043 8        50.625    36531576.170 7 303662508.75007        78.600 7        44.688  
I04         0.000 7         0.00007        -0.125 7        46.094           0.000 6         0.00006        -0.264 6        40.312  
I05         0.000 7         0.00007        -0.125 7        47.344           0.000 6         0.00006        -0.264 6        41.406  
I06  38307784.460 7 150324892.69707       -51.001 7        45.469    38307774.741 6 318427194.74706      -107.968 6        39.219  
I07         0.000 7         0.00007        -0.125 7        43.750           0.000 5         0.00005        -0.264 5        35.938  
I09  35967474.157 8 141141278.27208      -104.285 8        50.938    35967467.806 7 298973457.09607      -220.880 7        45.625  
I10  39335687.566 7 154358589.56307       -75.182 7        44.688    39335676.645 6 326971527.72506      -159.516 6        36.406  
