     3.03           OBSERVATION DATA     I:IRNSS            RINEX VERSION / TYPE
OBS GEN             Accord              02-JAN-24 00:00     PGM / RUN BY / DATE 
IRNSS                                                       MARKER NAME         
0                                                           MARKER NUMBER       
Human                                                       MARKER TYPE         
Unknown             Accord                                  OBSERVER / AGENCY   
01                  NGS-C60 CV22        1.0                 REC # / TYPE / VERS 
18730               L5S1                                    ANT # / TYPE        
  1243909.4450   5462556.0080   3038758.0532                APPROX POSITION XYZ 
        0.0000         0.0000         0.0000                ANTENNA: DELTA H/E/N
I    8 C5C L5C D5C S5C C9C L9C D9C S9C                      SYS / # / OBS TYPES 
DBHZ                                                        SIGNAL STRENGTH UNIT
SNR is mapped to RINEX snr flag value [1-9]                 COMMENT             
< 12dBHz -> 1; 12-17dBHz -> 2; 18-23dBHz -> 3               COMMENT             
24-29dBHz -> 4; 30-35dBHz -> 5; 36-41dBHz -> 6              COMMENT             
42-47dBHz -> 7; 48-53dBHz -> 8; >= 54dBHz -> 9              COMMENT             
                                                            COMMENT             
    30.000                                                  INTERVAL            
  2024     1     2     0     0    0.0000000     IRN         TIME OF FIRST OBS   
  2024     1     2    23    59   30.0000000     IRN         TIME OF LAST OBS    
                                                            SYS / PHASE SHIFT   
                                                            SYS / PHASE SHIFT   
                                                            END OF HEADER       
> 2024 01 02  0  0  0.0000000  0  9      -214.757841126212
I01         0.000 8         0.00008        -0.107 8        50.625           0.000 4         0.00004        -0.227 4        25.000  
I02  39505818.970 6 155026156.75106        81.640 6        41.406    39505813.760 5 328385855.10705       173.112 5        35.469  
I03  36493094.209 8 143203624.17808         4.215 8        50.312    36493088.775 7 303342593.77007         9.058 7        44.531  
I04         0.000 7         0.00007        -0.107 7        44.219           0.000 6         0.00006        -0.227 6        36.719  
I05         0.000 8         0.00008        -0.107 8        48.438           0.000 7         0.00007        -0.227 7        42.812  
I06  38394259.856 7 150664274.72107       -48.048 7        44.688    38394253.285 6 319145998.69606      -101.636 6        38.281  
I07         0.000 7         0.00007        -0.107 7        43.281           0.000 6         0.00006        -0.227 6        37.812  
I09  36171299.778 8 141941150.04708      -119.923 8        50.469    36171294.808 7 300667691.97607      -254.152 7        45.312  
I10  39457235.355 7 154835532.75307       -63.702 7        43.281    39457229.865 6 327982003.93706      -134.785 6        36.094  
> 2024 01 02  0  0 30.0000000  0  9      -215.794254342195
I01         0.000 8         0.00008        -0.139 8        50.469           0.000 3         0.00003        -0.295 3        23.906  
I02  39506437.442 6 155028583.56906        79.601 6        41.250    39506432.968 5 328390995.75705       169.134 5        35.312  
I03  36493128.189 8 143203757.63708         4.395 8        50.312    36493122.710 7 303342876.49707         9.345 7        44.531  
I04         0.000 7         0.00007        -0.139 7        44.219           0.000 6         0.00006        -0.295 6        37.656  
I05         0.000 8         0.00008        -0.139 8        48.281           0.000 7         0.00007        -0.295 7        42.656  
I06  38393892.785 7 150662834.10607       -48.309 7        44.844    38393885.916 6 319142947.09806      -101.913 6        38.281  
I07         0.000 7         0.00007        -0.139 7        43.281           0.000 6         0.00006        -0.295 6        37.969  
I09  36170383.623 8 141937555.41708      -119.810 8        50.469    36170378.779 7 300660077.61507      -254.018 7        45.156  
I10  39456749.315 7 154833624.61807       -63.857 7        43.125    39456743.580 6 327977962.03106      -135.365 6        36.250  
> 2024 01 02  0  1  0.0000000  0  9      -216.083640134741
I01         0.000 8         0.00008        -0.043 8        50.469           0.000 3         0.00003        -0.091 3        22.188  
I02  39507041.418 6 155030954.70806        78.092 6        41.094    39507037.084 5 328396018.45605       165.306 5        35.469  
I03  36493163.356 8 143203895.69208         4.622 8        50.156    36493157.858 7 303343168.94907         9.765 7        44.531  
I04         0.000 7         0.00007        -0.043 7        43.906           0.000 6         0.00006        -0.091 6        37.656  
I05         0.000 8         0.00008        -0.043 8        48.281           0.000 7         0.00007        -0.091 7        42.188  
I06  38393525.533 7 150661392.42007       -48.086 7        44.688    38393518.949 6 319139893.21606      -101.751 6        38.438  
I07         0.000 7         0.00007        -0.043 7        43.281           0.000 6         0.00006        -0.091 6        37.812  
I09  36169467.761 8 141933961.40408      -119.878 8        50.469    36169462.941 7 300652464.56807      -253.783 7        45.156  
I10  39456262.180 7 154831713.63207       -63.614 7        43.125    39456256.067 6 327973914.11706      -135.138 6        36.094  
> 2024 01 02  0  1 30.0000000  0  9      -216.113617566779
I01         0.000 8         0.00008        -0.117 8        50.469           0.000 4         0.00004        -0.248 4        24.219  
I02  39507631.052 6 155033268.89306        75.983 6        41.250    39507626.381 5 328400920.49505       161.495 5        35.156  
I03  36493199.949 8 143204038.44608         4.632 8        50.312    36493194.280 7 303343471.34607        10.041 7        44.531  
I04         0.000 7         0.00007        -0.117 7        44.062           0.000 6         0.00006        -0.248 6        37.969  
I05         0.000 8         0.00008        -0.117 8        48.125           0.000 7         0.00007        -0.248 7        42.344  
I06  38393157.539 7 150659949.62607       -48.298 7        44.688    38393151.187 6 319136837.01606      -102.218 6        38.594  
I07         0.000 7         0.00007        -0.117 7        43.281           0.000 6         0.00006        -0.248 6        37.656  
I09  36168552.062 8 141930368.05108      -119.857 8        50.469    36168546.901 7 300644852.90007      -254.084 7        45.000  
I10  39455774.353 7 154829799.78307       -63.911 7        42.969    39455768.768 5 327969860.10505      -135.505 5        35.938  
> 2024 01 02  0  2  0.0000000  0  9      -216.785762475105
I01         0.000 8         0.00008         0.020 8        50.469           0.000 3         0.00003         0.041 3        22.031  
I02  39508206.490 6 155035526.53006        74.353 6        41.250    39508201.185 5 328405702.76405       157.880 5        35.000  
I03  36493237.342 8 143204185.81408         5.007 8        50.312    36493231.807 7 303343783.50907        10.536 7        44.531  
I04         0.000 7         0.00007         0.020 7        43.906           0.000 6         0.00006         0.041 6        37.969  
I05         0.000 7         0.00007         0.020 7        47.969           0.000 7         0.00007         0.041 7        42.031  
I06  38392789.508 7 150658505.79607       -47.760 7        44.844    38392783.565 6 319133778.60406      -102.146 6        38.438  
I07         0.000 7         0.00007         0.020 7        43.281           0.000 6         0.00006         0.041 6        37.812  
I09  36167636.394 8 141926775.31108      -119.728 8        50.469    36167631.344 7 300637242.54307      -253.576 7        45.000  
I10  39455286.219 7 154827883.10007       -63.805 7        43.125    39455280.087 5 327965800.10305      -135.543 5        35.938  
> 2024 01 02  0  2 30.0000000  0  9      -217.172126037853
I01         0.000 8         0.00008        -0.081 8        50.625           0.000 4         0.00004        -0.172 4        24.531  
I02  39508767.209 6 155037727.04806        72.313 6        41.406    39508762.190 5 328410364.02405       153.338 5        35.156  
I03  36493276.030 8 143204337.82708         5.106 8        50.312    36493270.582 7 303344105.52307        10.777 7        44.531  
I04         0.000 7         0.00007        -0.081 7        44.062           0.000 6         0.00006        -0.172 6        38.125  
I05         0.000 8         0.00008        -0.081 8        48.281           0.000 7         0.00007        -0.172 7        42.188  
I06  38392421.595 7 150657060.94407       -48.194 7        44.688    38392414.835 6 319130718.02306      -102.228 6        38.281  
I07         0.000 7         0.00007        -0.081 7        43.281           0.000 6         0.00006        -0.172 6        37.812  
I09  36166720.976 8 141923183.13308      -119.802 8        50.469    36166716.091 7 300629633.35607      -253.756 7        44.688  
I10  39454796.976 7 154825963.57307       -64.213 7        43.125    39454790.887 5 327961734.09605      -136.172 5        35.781  
> 2024 01 02  0  3  0.0000000  0  9      -216.881029376987
I01         0.000 8         0.00008        -0.019 8        50.625           0.000 3         0.00003        -0.041 3        20.781  
I02  39509313.695 6 155039871.02906        70.650 6        41.250    39509308.367 5 328414905.53005       149.808 5        35.156  
I03  36493315.892 8 143204494.48708         5.359 8        50.312    36493310.524 7 303344437.37207        11.325 7        44.531  
I04         0.000 7         0.00007        -0.019 7        44.062           0.000 6         0.00006        -0.041 6        37.812  
I05         0.000 8         0.00008        -0.019 8        48.281           0.000 7         0.00007        -0.041 7        42.500  
I06  38392053.207 7 150655615.03907       -48.148 7        44.688    38392046.745 6 319127655.20706      -101.959 6        38.281  
I07         0.000 7         0.00007        -0.019 7        43.281           0.000 6         0.00006        -0.041 6        37.812  
I09  36165805.696 8 141919591.51108      -119.694 8        50.469    36165800.755 7 300622025.36307      -253.649 7        44.688  
I10  39454307.115 7 154824041.25007       -64.184 7        42.969    39454301.445 5 327957662.11505      -135.901 5        35.625  
> 2024 01 02  0  3 30.0000000  0  9      -217.178548654574
I01         0.000 8         0.00008        -0.143 8        50.625           0.000 4         0.00004        -0.302 4        24.219  
I02  39509845.653 6 155041959.12806        68.275 6        41.406    39509840.505 5 328419328.65605       144.767 5        35.312  
I03  36493357.059 8 143204655.76708         5.262 8        50.156    36493351.697 7 303344778.99507        11.314 7        44.531  
I04         0.000 7         0.00007        -0.143 7        44.219           0.000 6         0.00006        -0.302 6        37.188  
I05         0.000 8         0.00008        -0.143 8        48.125           0.000 7         0.00007        -0.302 7        42.500  
I06  38391684.298 7 150654168.06907       -48.364 7        44.688    38391677.708 6 319124590.15106      -102.575 6        38.438  
I07         0.000 7         0.00007        -0.143 7        43.281           0.000 6         0.00006        -0.302 6        37.812  
I09  36164890.603 8 141916000.45408      -119.851 8        50.469    36164885.420 7 300614418.56107      -253.765 7        44.531  
I10  39453816.444 7 154822116.11307       -64.417 7        42.969    39453811.066 5 327953584.19405      -135.979 5        35.625  
> 2024 01 02  0  4  0.0000000  0  9      -217.429908455874
I01         0.000 8         0.00008        -0.100 8        50.625           0.000 4         0.00004        -0.211 4        24.219  
I02  39510363.145 6 155043990.36406        66.418 6        41.250    39510358.018 5 328423631.35205       141.042 5        35.000  
I03  36493399.256 8 143204821.67408         5.504 8        50.312    36493394.098 7 303345130.43407        11.620 7        44.688  
I04         0.000 7         0.00007        -0.100 7        44.062           0.000 6         0.00006        -0.211 6        37.031  
I05         0.000 7         0.00007        -0.100 7        47.969           0.000 7         0.00007        -0.211 7        42.500  
I06  38391315.217 7 150652720.06307       -48.340 7        44.688    38391309.079 6 319121522.88806      -102.441 6        38.438  
I07         0.000 7         0.00007        -0.100 7        43.438           0.000 6         0.00006        -0.211 6        37.812  
I09  36163975.605 8 141912409.90708      -119.717 8        50.469    36163970.303 7 300606812.85307      -253.800 7        44.531  
I10  39453325.245 7 154820188.19007       -64.380 7        42.812    39453319.391 5 327949500.36305      -136.758 5        35.469  
> 2024 01 02  0  4 30.0000000  0  9      -217.116645223293
I01         0.000 8         0.00008        -0.058 8        50.625           0.000 3         0.00003        -0.123 3        23.906  
I02  39510866.346 6 155045963.99006        64.901 6        41.094    39510861.677 5 328427812.02605       137.782 5        35.312  
I03  36493442.632 8 143204992.23708         5.706 8        50.156    36493437.401 7 303345491.71807        12.208 7        44.688  
I04         0.000 7         0.00007        -0.058 7        43.906           0.000 6         0.00006        -0.123 6        37.188  
I05         0.000 8         0.00008        -0.058 8        48.125           0.000 7         0.00007        -0.123 7        42.656  
I06  38390946.039 7 150651271.04707       -48.238 7        44.688    38390939.693 6 319118453.48406      -102.645 6        38.281  
I07         0.000 7         0.00007        -0.058 7        43.594           0.000 6         0.00006        -0.123 6        37.812  
I09  36163060.808 8 141908819.89608      -119.703 8        50.469    36163055.459 7 300599208.27007      -253.475 7        44.531  
I10  39452833.334 7 154818257.48007       -64.612 7        42.812    39452826.927 5 327945410.64905      -136.526 5        35.781  
> 2024 01 02  0  5  0.0000000  0  9      -216.924268619431
I01         0.000 8         0.00008        -0.085 8        50.625           0.000 4         0.00004        -0.180 4        25.938  
I02  39511354.571 6 155047880.61206        63.048 6        41.406    39511350.028 5 328431871.95905       133.409 5        35.156  
I03  36493487.352 8 143205167.40808         5.732 8        50.156    36493482.063 7 303345862.78407        12.329 7        44.688  
I04         0.000 7         0.00007        -0.085 7        43.750           0.000 6         0.00006        -0.180 6        37.188  
I05         0.000 8         0.00008        -0.085 8        48.125           0.000 7         0.00007        -0.180 7        42.656  
I06  38390576.525 7 150649820.99707       -48.368 7        44.688    38390570.008 6 319115381.91806      -102.570 6        38.438  
I07         0.000 7         0.00007        -0.085 7        43.281           0.000 6         0.00006        -0.180 6        37.812  
I09  36162146.070 8 141905230.37308      -119.754 8        50.625    36162140.758 7 300591604.69807      -253.539 7        44.531  
I10  39452340.676 7 154816323.98407       -64.719 7        42.656    39452334.718 5 327941315.01605      -137.145 5        35.625  
> 2024 01 02  0  5 30.0000000  0  9      -216.877792473076
I01         0.000 8         0.00008        -0.120 8        50.625           0.000 3         0.00003        -0.253 3        22.188  
I02  39511828.941 6 155049740.70006        60.629 6        41.406    39511823.857 5 328435812.13005       129.619 5        35.312  
I03  36493533.045 8 143205347.19908         6.033 8        50.156    36493527.942 7 303346243.63407        12.664 7        44.531  
I04         0.000 7         0.00007        -0.120 7        43.750           0.000 6         0.00006        -0.253 6        37.031  
I05         0.000 8         0.00008        -0.120 8        48.125           0.000 7         0.00007        -0.253 7        42.656  
I06  38390206.580 7 150648369.93807       -48.442 7        44.688    38390200.238 6 319112308.17606      -102.762 6        38.438  
I07         0.000 7         0.00007        -0.120 7        43.438           0.000 6         0.00006        -0.253 6        37.969  
I09  36161231.579 8 141901641.36608      -119.755 8        50.625    36161226.120 7 300584002.23807      -253.692 7        44.688  
I10  39451847.029 7 154814387.72907       -64.719 7        42.656    39451841.078 5 327937213.56305      -136.861 5        35.938  
> 2024 01 02  0  6  0.0000000  0  9      -216.637366537178
I01         0.000 8         0.00008        -0.073 8        50.625           0.000 3         0.00003        -0.155 3        22.656  
I02  39512288.367 6 155051544.97706        59.188 6        41.250    39512283.834 5 328439634.03705       125.658 5        35.469  
I03  36493580.203 8 143205531.62408         6.048 8        50.156    36493574.871 7 303346634.30207        13.049 7        44.531  
I04         0.000 7         0.00007        -0.073 7        43.750           0.000 6         0.00006        -0.155 6        37.188  
I05         0.000 8         0.00008        -0.073 8        48.125           0.000 7         0.00007        -0.155 7        42.500  
I06  38389836.598 7 150646917.83307       -48.503 7        44.531    38389829.750 6 319109232.24906      -102.256 6        38.594  
I07         0.000 7         0.00007        -0.073 7        43.281           0.000 6         0.00006        -0.155 6        37.812  
I09  36160317.237 8 141898052.81208      -119.744 8        50.781    36160311.880 7 300576400.74207      -253.483 7        44.688  
I10  39451352.918 7 154812448.72907       -64.627 7        42.812    39451346.880 5 327933106.26905      -137.322 5        35.625  
> 2024 01 02  0  6 30.0000000  0  9      -216.985000187553
I01         0.000 8         0.00008        -0.051 8        50.781           0.000 4         0.00004        -0.109 4        24.375  
I02  39512733.275 6 155053292.32906        57.429 6        41.250    39512729.242 5 328443335.38005       121.271 5        35.312  
I03  36493628.308 8 143205720.68408         6.285 8        50.156    36493623.209 7 303347034.78807        13.394 7        44.531  
I04         0.000 7         0.00007        -0.051 7        43.750           0.000 6         0.00006        -0.109 6        37.500  
I05         0.000 8         0.00008        -0.051 8        48.125           0.000 7         0.00007        -0.109 7        42.344  
I06  38389466.375 7 150645464.71707       -48.464 7        44.688    38389459.424 6 319106154.17606      -102.636 6        38.594  
I07         0.000 7         0.00007        -0.051 7        43.281           0.000 6         0.00006        -0.109 6        37.812  
I09  36159402.998 8 141894464.71608      -119.604 8        50.781    36159397.672 7 300568800.21307      -253.413 7        44.688  
I10  39450857.960 7 154810506.95607       -64.912 7        42.656    39450852.134 5 327928993.14205      -137.197 5        35.781  
> 2024 01 02  0  7  0.0000000  0  9      -216.647173870311
I01         0.000 8         0.00008         0.004 8        50.781           0.000 4         0.00004         0.008 4        24.688  
I02  39513164.442 6 155054983.06406        55.589 6        41.406    39513160.650 5 328446916.80605       117.368 5        35.625  
I03  36493677.557 8 143205914.31808         6.645 8        50.156    36493672.478 7 303347444.97507        13.599 7        44.531  
I04         0.000 7         0.00007         0.004 7        43.906           0.000 6         0.00006         0.008 6        37.500  
I05         0.000 8         0.00008         0.004 8        48.438           0.000 7         0.00007         0.008 7        42.344  
I06  38389095.873 7 150644010.62307       -48.500 7        44.688    38389089.060 6 319103074.04106      -102.774 6        38.125  
I07         0.000 7         0.00007         0.004 7        43.281           0.000 6         0.00006         0.008 6        37.812  
I09  36158488.875 8 141890877.03808      -119.591 8        50.938    36158483.667 7 300561200.56607      -253.321 7        44.844  
I10  39450362.448 7 154808562.47607       -64.705 7        42.969    39450356.780 5 327924874.25605      -137.506 5        35.938  
> 2024 01 02  0  7 30.0000000  0  9      -216.048510061689
I01         0.000 8         0.00008         0.003 8        50.781           0.000 3         0.00003         0.006 3        22.031  
I02  39513581.117 6 155056617.17406        53.684 6        41.406    39513576.388 5 328450378.26305       113.017 5        35.625  
I03  36493728.218 8 143206112.56808         6.715 8        50.156    36493722.984 7 303347864.92107        14.273 7        44.531  
I04         0.000 7         0.00007         0.003 7        43.750           0.000 6         0.00006         0.006 6        37.500  
I05         0.000 8         0.00008         0.003 8        48.594           0.000 7         0.00007         0.006 7        42.656  
I06  38388725.014 7 150642555.51907       -48.435 7        44.688    38388718.465 6 319099991.74906      -102.958 6        38.438  
I07         0.000 7         0.00007         0.003 7        43.281           0.000 6         0.00006         0.006 6        37.969  
I09  36157574.767 8 141887289.79608      -119.547 8        50.938    36157569.390 7 300553601.83807      -253.241 7        44.844  
I10  39449866.362 7 154806615.26307       -64.835 7        42.656    39449860.433 5 327920749.56505      -137.391 5        35.781  
> 2024 01 02  0  8  0.0000000  0  9      -216.776563907993
I01         0.000 8         0.00008        -0.080 8        50.625           0.000 4         0.00004        -0.170 4        25.312  
I02  39513983.039 6 155058195.26206        51.307 6        41.406    39513978.521 5 328453721.08505       109.270 5        35.312  
I03  36493779.777 8 143206315.42408         6.940 8        50.156    36493774.608 7 303348294.64907        14.278 7        44.375  
I04         0.000 7         0.00007        -0.080 7        43.594           0.000 6         0.00006        -0.170 6        37.031  
I05         0.000 8         0.00008        -0.080 8        48.438           0.000 7         0.00007        -0.170 7        42.500  
I06  38388354.012 7 150641099.41807       -48.569 7        44.688    38388347.437 6 319096907.36606      -103.234 6        38.125  
I07         0.000 7         0.00007        -0.080 7        43.438           0.000 6         0.00006        -0.170 6        37.500  
I09  36156660.784 8 141883702.95108      -119.708 8        50.938    36156655.333 7 300546003.95707      -253.433 7        44.531  
I10  39449369.452 7 154804665.35007       -65.066 7        42.500    39449363.364 5 327916619.17305      -138.125 5        35.781  
> 2024 01 02  0  8 30.0000000  0  9      -216.305985939506
I01         0.000 8         0.00008        -0.049 8        50.625           0.000 3         0.00003        -0.104 3        21.094  
I02  39514370.397 6 155059715.43906        49.772 6        41.562    39514366.245 5 328456941.22905       105.027 5        35.781  
I03  36493832.824 8 143206522.91608         6.873 8        50.156    36493827.437 7 303348734.18607        14.754 7        44.531  
I04         0.000 7         0.00007        -0.049 7        43.281           0.000 6         0.00006        -0.104 6        37.656  
I05         0.000 8         0.00008        -0.049 8        48.438           0.000 7         0.00007        -0.104 7        42.344  
I06  38387982.911 7 150639642.38207       -48.727 7        44.844    38387976.053 6 319093820.98406      -102.938 6        37.969  
I07         0.000 7         0.00007        -0.049 7        43.438           0.000 6         0.00006        -0.104 6        37.969  
I09  36155746.959 8 141880116.51508      -119.544 8        50.781    36155741.557 7 300538406.94207      -253.295 7        45.156  
I10  39448871.778 7 154802712.73307       -65.005 7        42.500    39448865.741 5 327912483.05005      -138.310 5        35.781  
> 2024 01 02  0  9  0.0000000  0  9      -216.483658156908
I01         0.000 8         0.00008        -0.125 8        50.781           0.000 4         0.00004        -0.266 4        26.406  
I02  39514743.534 6 155061178.08606        47.873 6        41.406    39514738.760 5 328460039.50705       101.237 5        35.938  
I03  36493886.924 8 143206735.01908         7.085 8        50.156    36493881.839 7 303349183.48207        14.872 7        44.688  
I04         0.000 7         0.00007        -0.125 7        43.438           0.000 6         0.00006        -0.266 6        37.812  
I05         0.000 8         0.00008        -0.125 8        48.281           0.000 7         0.00007        -0.266 7        42.500  
I06  38387611.053 7 150638184.33707       -48.865 7        44.688    38387604.462 6 319090732.49006      -103.181 6        38.125  
I07         0.000 7         0.00007        -0.125 7        43.438           0.000 6         0.00006        -0.266 6        37.969  
I09  36154833.209 8 141876530.45608      -119.707 8        50.938    36154827.778 7 300530810.73307      -253.425 7        45.000  
I10  39448373.638 7 154800757.42607       -65.625 7        42.500    39448367.402 5 327908341.24105      -138.577 5        35.781  
> 2024 01 02  0  9 30.0000000  0  9      -216.123962299604
I01         0.000 8         0.00008         0.000 8        50.781           0.000 4         0.00004         0.000 4        24.375  
I02  39515101.903 6 155062585.12106        46.079 6        41.406    39515097.501 6 328463019.97206        96.977 6        36.562  
I03  36493942.114 8 143206951.70408         7.315 8        50.156    36493936.835 7 303349642.50307        15.623 7        44.688  
I04         0.000 7         0.00007         0.000 7        43.438           0.000 6         0.00006         0.000 6        38.125  
I05         0.000 8         0.00008         0.000 8        48.281           0.000 7         0.00007         0.000 7        42.500  
I06  38387239.640 7 150636725.32507       -48.671 7        44.688    38387233.240 6 319087641.92306      -102.961 6        38.438  
I07         0.000 7         0.00007         0.000 7        43.438           0.000 6         0.00006         0.000 6        37.969  
I09  36153919.446 8 141872944.77408      -119.600 8        51.094    36153914.025 7 300523215.33607      -253.252 7        45.000  
I10  39447874.477 7 154798799.44307       -64.952 7        42.344    39447868.536 5 327904193.74305      -138.118 5        35.938  
> 2024 01 02  0 10  0.0000000  0  9      -215.715735320441
I01         0.000 8         0.00008        -0.122 8        50.781           0.000 4         0.00004        -0.259 4        24.219  
I02  39515446.182 6 155063935.76906        43.992 6        41.719    39515441.381 6 328465881.01706        92.703 6        36.562  
I03  36493998.551 8 143207173.00708         7.476 8        50.156    36493993.298 7 303350111.30907        15.430 7        44.688  
I04         0.000 7         0.00007        -0.122 7        43.281           0.000 6         0.00006        -0.259 6        37.969  
I05         0.000 8         0.00008        -0.122 8        48.438           0.000 7         0.00007        -0.259 7        42.500  
I06  38386867.344 7 150635265.35207       -48.813 7        44.531    38386860.526 6 319084549.31906      -103.167 6        38.438  
I07         0.000 7         0.00007        -0.122 7        43.438           0.000 6         0.00006        -0.259 6        37.969  
I09  36153005.863 8 141869359.44608      -119.766 8        51.094    36153000.461 7 300515620.66907      -253.255 7        45.156  
I10  39447374.981 7 154796838.78807       -65.789 7        42.188    39447369.068 5 327900040.59305      -138.416 5        35.625  
> 2024 01 02  0 10 30.0000000  0  9      -216.009151998375
I01         0.000 8         0.00008         0.023 8        50.781           0.000 3         0.00003         0.049 3        23.438  
I02  39515775.577 6 155065229.23006        42.457 6        41.406    39515771.507 6 328468620.91406        89.763 6        36.250  
I03  36494056.038 8 143207398.89808         7.589 8        50.156    36494050.810 7 303350589.80107        16.097 7        44.688  
I04         0.000 7         0.00007         0.023 7        43.125           0.000 6         0.00006         0.049 6        38.281  
I05         0.000 8         0.00008         0.023 8        48.438           0.000 7         0.00007         0.049 7        42.500  
I06  38386494.778 7 150633804.40007       -48.566 7        44.688    38386488.381 6 319081454.65006      -102.980 6        38.281  
I07         0.000 7         0.00007         0.023 7        43.438           0.000 6         0.00006         0.049 6        37.812  
I09  36152092.394 8 141865774.44808      -119.435 8        51.094    36152086.946 7 300508026.72807      -253.130 7        45.000  
I10  39446874.638 7 154794875.48607       -65.335 7        42.344    39446868.266 5 327895881.84505      -138.422 5        35.781  
> 2024 01 02  0 11  0.0000000  0  9      -215.709416557187
I01         0.000 8         0.00008         0.034 8        50.938           0.000 4         0.00004         0.073 4        24.844  
I02  39516090.935 6 155066466.05206        40.983 6        41.406    39516086.810 6 328471240.83806        85.324 6        36.562  
I03  36494114.877 8 143207629.40708         7.733 8        50.156    36494109.504 7 303351078.10707        16.525 7        44.688  
I04         0.000 7         0.00007         0.034 7        43.125           0.000 6         0.00006         0.073 6        37.656  
I05         0.000 8         0.00008         0.034 8        48.281           0.000 7         0.00007         0.073 7        42.344  
I06  38386122.666 7 150632342.50007       -48.772 7        44.688    38386115.662 6 319078357.95106      -103.575 6        38.125  
I07         0.000 7         0.00007         0.034 7        43.438           0.000 6         0.00006         0.073 6        37.812  
I09  36151178.915 8 141862189.80308      -119.408 8        51.250    36151173.473 7 300500433.52407      -253.042 7        45.000  
I10  39446373.614 7 154792909.53207       -65.558 7        42.188    39446367.167 5 327891717.49105      -138.325 5        35.312  
> 2024 01 02  0 11 30.0000000  0  9      -215.698212461028
I01         0.000 8         0.00008        -0.107 8        50.938           0.000 4         0.00004        -0.228 4        24.844  
I02  39516391.817 6 155067646.37206        38.176 6        41.250    39516387.584 6 328473741.06006        80.837 6        36.562  
I03  36494174.722 8 143207864.48708         7.793 8        50.156    36494169.226 7 303351576.07907        16.468 7        44.688  
I04         0.000 7         0.00007        -0.107 7        43.281           0.000 6         0.00006        -0.228 6        37.344  
I05         0.000 8         0.00008        -0.107 8        48.281           0.000 7         0.00007        -0.228 7        42.031  
I06  38385749.858 7 150630879.64207       -48.938 7        44.688    38385743.241 6 319075259.24506      -103.517 6        38.125  
I07         0.000 7         0.00007        -0.107 7        43.281           0.000 6         0.00006        -0.228 6        38.125  
I09  36150265.593 8 141858605.47108      -119.583 8        51.250    36150260.057 7 300492840.97307      -253.260 7        45.156  
I10  39445872.050 7 154790940.95407       -65.733 7        42.344    39445865.646 5 327887547.58605      -139.184 5        35.312  
> 2024 01 02  0 12  0.0000000  0  9      -216.022791501583
I01         0.000 8         0.00008        -0.090 8        50.938           0.000 4         0.00004        -0.191 4        24.219  
I02  39516677.776 6 155068769.23706        36.492 6        41.406    39516673.564 6 328476119.58006        77.055 6        36.406  
I03  36494235.861 8 143208104.17608         7.996 8        50.156    36494230.667 7 303352083.80707        16.861 7        44.688  
I04         0.000 7         0.00007        -0.090 7        43.594           0.000 6         0.00006        -0.191 6        37.344  
I05         0.000 8         0.00008        -0.090 8        48.438           0.000 7         0.00007        -0.191 7        42.344  
I06  38385376.758 7 150629415.84607       -48.971 7        44.688    38385370.031 6 319072158.55706      -103.876 6        38.281  
I07         0.000 7         0.00007        -0.090 7        43.281           0.000 6         0.00006        -0.191 6        37.969  
I09  36149352.286 8 141855021.48508      -119.492 8        51.250    36149346.884 7 300485249.14807      -253.283 7        45.156  
I10  39445369.714 7 154788969.75907       -65.979 7        42.344    39445363.603 5 327883372.09705      -139.267 5        35.156  
> 2024 01 02  0 12 30.0000000  0  9      -215.305789356143
I01         0.000 8         0.00008        -0.088 8        50.938           0.000 4         0.00004        -0.187 4        25.625  
I02  39516949.717 6 155069836.02306        34.366 6        41.406    39516945.452 6 328478379.33106        73.243 6        36.406  
I03  36494298.019 8 143208348.46108         8.182 8        50.156    36494292.856 7 303352601.28107        17.202 7        44.688  
I04         0.000 7         0.00007        -0.088 7        43.750           0.000 6         0.00006        -0.187 6        37.500  
I05         0.000 8         0.00008        -0.088 8        48.438           0.000 7         0.00007        -0.187 7        42.031  
I06  38385003.710 7 150627951.12507       -48.887 7        44.688    38384996.637 6 319069055.89406      -103.619 6        37.969  
I07         0.000 7         0.00007        -0.088 7        43.281           0.000 6         0.00006        -0.187 6        37.969  
I09  36148439.098 8 141851437.77508      -119.579 8        51.250    36148433.570 7 300477657.90407      -253.232 7        45.156  
I10  39444866.743 7 154786995.94507       -65.858 7        42.344    39444860.184 5 327879191.08705      -139.382 5        35.156  
> 2024 01 02  0 13  0.0000000  0  9      -215.377216901903
I01         0.000 8         0.00008         0.022 8        50.781           0.000 3         0.00003         0.048 3        22.344  
I02  39517207.215 6 155070846.25306        33.357 6        41.406    39517202.795 6 328480519.27606        69.823 6        36.094  
I03  36494361.442 8 143208597.31908         8.415 8        50.156    36494356.256 7 303353128.43307        17.799 7        44.688  
I04         0.000 7         0.00007         0.022 7        43.906           0.000 6         0.00006         0.048 6        37.344  
I05         0.000 8         0.00008         0.022 8        48.594           0.000 6         0.00006         0.048 6        41.875  
I06  38384630.279 7 150626485.46407       -48.922 7        44.688    38384623.099 6 319065951.24706      -103.603 6        37.969  
I07         0.000 7         0.00007         0.022 7        43.281           0.000 6         0.00006         0.048 6        38.125  
I09  36147525.996 8 141847854.36708      -119.353 8        51.250    36147520.490 7 300470067.30307      -252.871 7        45.156  
I10  39444363.264 7 154785019.52007       -66.008 7        42.500    39444356.942 5 327875004.56705      -139.723 5        34.844  
> 2024 01 02  0 13 30.0000000  0  9      -215.196749866120
I01         0.000 8         0.00008        -0.158 8        50.781           0.000 4         0.00004        -0.336 4        25.625  
I02  39517450.308 6 155071799.80706        30.566 6        41.406    39517445.945 6 328482539.14806        65.268 6        36.094  
I03  36494426.022 8 143208850.79708         8.246 8        50.156    36494420.762 7 303353665.37607        17.640 7        44.688  
I04         0.000 7         0.00007        -0.158 7        44.219           0.000 6         0.00006        -0.336 6        37.188  
I05         0.000 8         0.00008        -0.158 8        48.594           0.000 7         0.00007        -0.336 7        42.344  
I06  38384256.552 7 150625018.84007       -49.252 7        44.844    38384249.571 6 319062844.58206      -103.908 6        38.438  
I07         0.000 7         0.00007        -0.158 7        43.438           0.000 6         0.00006        -0.336 6        38.281  
I09  36146612.914 8 141844271.23508      -119.615 8        51.406    36146607.327 7 300462477.28407      -253.172 7        45.000  
I10  39443859.106 7 154783040.52907       -66.108 7        42.500    39443852.099 5 327870812.56405      -139.968 5        34.688  
> 2024 01 02  0 14  0.0000000  0  9      -215.282315877963
I01         0.000 8         0.00008         0.002 8        50.625           0.000 3         0.00003         0.004 3        20.625  
I02  39517678.512 6 155072696.45106        29.219 6        41.406    39517674.686 6 328484438.50206        61.819 6        36.094  
I03  36494491.899 8 143209108.82808         8.717 8        50.156    36494486.495 7 303354211.96707        18.333 7        44.219  
I04         0.000 7         0.00007         0.002 7        44.062           0.000 6         0.00006         0.004 6        36.719  
I05         0.000 8         0.00008         0.002 8        48.750           0.000 6         0.00006         0.004 6        41.875  
I06  38383882.643 7 150623551.34407       -48.819 7        44.844    38383875.878 6 319059736.05006      -103.566 6        38.125  
I07         0.000 7         0.00007         0.002 7        43.281           0.000 6         0.00006         0.004 6        37.500  
I09  36145699.894 8 141840688.39208      -119.414 8        51.406    36145694.471 7 300454887.88607      -252.915 7        45.000  
I10  39443354.058 7 154781058.93607       -66.107 7        42.344    39443346.973 5 327866615.06105      -139.775 5        34.531  
> 2024 01 02  0 14 30.0000000  0  9      -215.793132641245
I01         0.000 8         0.00008        -0.065 8        50.781           0.000 4         0.00004        -0.137 4        24.375  
I02  39517892.542 6 155073536.22306        27.470 6        41.094    39517888.002 6 328486217.34706        57.493 6        36.094  
I03  36494558.800 8 143209371.45208         8.787 8        50.312    36494553.354 7 303354768.27307        18.470 7        44.531  
I04         0.000 7         0.00007        -0.065 7        44.062           0.000 6         0.00006        -0.137 6        37.031  
I05         0.000 8         0.00008        -0.065 8        48.750           0.000 7         0.00007        -0.137 7        42.031  
I06  38383508.359 7 150622082.93107       -49.200 7        44.688    38383501.762 6 319056625.58106      -104.134 6        38.438  
I07         0.000 7         0.00007        -0.065 7        43.281           0.000 6         0.00006        -0.137 6        37.812  
I09  36144786.941 8 141837105.79308      -119.523 8        51.250    36144781.353 7 300447299.00707      -253.123 7        45.156  
I10  39442848.577 7 154779074.79807       -66.442 7        42.656    39442841.343 5 327862412.17505      -140.693 5        34.844  
> 2024 01 02  0 15  0.0000000  0  9      -216.112857772348
I01         0.000 8         0.00008        -0.100 8        50.781           0.000 4         0.00004        -0.211 4        26.250  
I02  39518092.074 6 155074319.08106        24.950 6        41.406    39518087.146 6 328487875.66406        53.365 6        36.250  
I03  36494626.821 8 143209638.65608         8.948 8        50.156    36494621.722 7 303355334.29207        18.724 7        44.688  
I04         0.000 7         0.00007        -0.100 7        44.219           0.000 6         0.00006        -0.211 6        36.562  
I05         0.000 8         0.00008        -0.100 8        48.750           0.000 6         0.00006        -0.211 6        41.719  
I06  38383133.868 7 150620613.60607       -49.002 7        44.844    38383127.000 6 319053513.18106      -104.209 6        38.438  
I07         0.000 7         0.00007        -0.100 7        43.281           0.000 6         0.00006        -0.211 6        38.125  
I09  36143874.156 8 141833523.45508      -119.617 8        51.250    36143868.507 7 300439710.68307      -253.044 7        45.156  
I10  39442342.375 7 154777088.10107       -66.377 7        42.500    39442335.181 5 327858203.87305      -140.616 5        34.688  
> 2024 01 02  0 15 30.0000000  0  9      -215.492806402365
I01         0.000 8         0.00008        -0.019 8        50.781           0.000 4         0.00004        -0.039 4        25.781  
I02  39518277.805 6 155075045.87806        23.467 6        41.719    39518273.096 6 328489415.20406        49.729 6        36.094  
I03  36494696.034 8 143209910.42608         9.192 8        50.156    36494690.979 7 303355910.00007        19.289 7        44.688  
I04         0.000 7         0.00007        -0.019 7        44.219           0.000 6         0.00006        -0.039 6        36.875  
I05         0.000 8         0.00008        -0.019 8        48.750           0.000 6         0.00006        -0.039 6        41.719  
I06  38382759.336 7 150619143.40407       -48.966 7        44.844    38382752.486 6 319050398.91506      -103.750 6        38.750  
I07         0.000 7         0.00007        -0.019 7        43.125           0.000 6         0.00006        -0.039 6        38.438  
I09  36142961.208 8 141829941.38808      -119.407 8        51.250    36142955.586 7 300432122.92707      -252.970 7        45.156  
I10  39441835.416 7 154775098.86307       -66.412 7        42.500    39441828.596 5 327853990.18805      -140.368 5        35.000  
> 2024 01 02  0 16  0.0000000  0  9      -215.954026723133
I01         0.000 8         0.00008        -0.141 8        50.781           0.000 3         0.00003        -0.299 3        23.750  
I02  39518448.164 6 155075716.30806        21.186 6        41.406    39518444.018 6 328490835.37106        44.954 6        36.406  
I03  36494766.473 8 143210186.77708         9.150 8        50.156    36494761.160 7 303356495.38407        19.367 7        44.688  
I04         0.000 7         0.00007        -0.141 7        44.062           0.000 6         0.00006        -0.299 6        37.656  
I05         0.000 8         0.00008        -0.141 8        48.438           0.000 6         0.00006        -0.299 6        41.562  
I06  38382384.515 7 150617672.30707       -49.089 7        44.844    38382377.672 6 319047282.76306      -104.041 6        38.906  
I07         0.000 7         0.00007        -0.141 7        43.281           0.000 6         0.00006        -0.299 6        37.969  
I09  36142048.459 8 141826359.51608      -119.671 8        51.250    36142043.022 7 300424535.59307      -253.141 7        45.156  
I10  39441328.068 7 154773107.09407       -66.764 7        42.812    39441320.901 5 327849771.14405      -140.722 5        35.312  
> 2024 01 02  0 16 30.0000000  0  9      -215.676949122212
I01         0.000 8         0.00008        -0.105 8        50.781           0.000 4         0.00004        -0.223 4        24.844  
I02  39518604.389 6 155076329.80906        19.270 6        41.875    39518600.235 5 328492134.92105        41.228 5        35.781  
I03  36494838.192 8 143210467.70308         9.362 8        50.156    36494832.986 7 303357090.47107        19.786 7        44.531  
I04         0.000 7         0.00007        -0.105 7        44.062           0.000 6         0.00006        -0.223 6        37.656  
I05         0.000 8         0.00008        -0.105 8        48.594           0.000 6         0.00006        -0.223 6        41.562  
I06  38382009.401 7 150616200.30507       -49.052 7        44.688    38382002.737 6 319044164.68406      -103.951 6        38.750  
I07         0.000 7         0.00007        -0.105 7        43.125           0.000 6         0.00006        -0.223 6        37.969  
I09  36141135.788 8 141822777.90108      -119.586 8        51.250    36141130.304 7 300416948.79407      -253.072 7        45.156  
I10  39440820.219 7 154771112.80007       -66.663 7        42.812    39440812.509 5 327845546.76605      -140.894 5        35.312  
> 2024 01 02  0 17  0.0000000  0  9      -215.574380403040
I01         0.000 8         0.00008        -0.145 8        50.781           0.000 4         0.00004        -0.307 4        24.375  
I02  39518746.700 6 155076887.60006        17.482 6        41.875    39518742.299 5 328493316.51405        37.296 5        35.938  
I03  36494910.918 8 143210753.18508         9.443 8        50.156    36494905.593 7 303357695.21207        19.950 7        44.688  
I04         0.000 7         0.00007        -0.145 7        44.375           0.000 6         0.00006        -0.307 6        37.500  
I05         0.000 8         0.00008        -0.145 8        48.125           0.000 6         0.00006        -0.307 6        41.562  
I06  38381633.915 7 150614727.41707       -49.486 7        44.688    38381627.502 6 319041044.73206      -104.247 6        38.750  
I07         0.000 7         0.00007        -0.145 7        43.281           0.000 6         0.00006        -0.307 6        38.125  
I09  36140223.130 8 141819196.50408      -119.448 8        51.250    36140217.895 7 300409362.45407      -253.198 7        45.312  
I10  39440311.052 7 154769115.99007       -66.896 7        42.812    39440303.844 5 327841317.04505      -141.376 5        35.156  
> 2024 01 02  0 17 30.0000000  0  9      -215.761841413639
I01         0.000 8         0.00008        -0.028 8        50.781           0.000 4         0.00004        -0.060 4        24.844  
I02  39518874.271 6 155077387.86106        15.854 6        41.562    39518870.126 6 328494376.23106        33.242 6        36.094  
I03  36494984.830 8 143211043.25708         9.777 8        50.156    36494979.544 7 303358309.67207        20.678 7        44.688  
I04         0.000 7         0.00007        -0.028 7        44.531           0.000 6         0.00006        -0.060 6        37.969  
I05         0.000 7         0.00007        -0.028 7        47.969           0.000 6         0.00006        -0.060 6        41.562  
I06  38381258.502 7 150613253.66507       -49.114 7        44.688    38381251.699 6 319037922.96306      -104.009 6        38.594  
I07         0.000 7         0.00007        -0.028 7        43.281           0.000 6         0.00006        -0.060 6        38.125  
I09  36139310.566 8 141815615.33208      -119.410 8        51.250    36139305.050 7 300401776.60307      -252.902 7        45.156  
I10  39439801.265 7 154767116.68307       -66.681 7        42.500    39439794.635 5 327837082.05605      -141.439 5        35.469  
> 2024 01 02  0 18  0.0000000  0  9      -215.811347363370
I01         0.000 8         0.00008        -0.133 8        50.781           0.000 4         0.00004        -0.281 4        24.219  
I02  39518987.420 6 155077832.70506        13.643 6        41.406    39518983.344 6 328495318.54306        28.922 6        36.562  
I03  36495059.686 8 143211337.86508         9.781 8        50.156    36495054.682 7 303358933.74807        20.634 7        44.844  
I04         0.000 7         0.00007        -0.133 7        44.688           0.000 6         0.00006        -0.281 6        37.812  
I05         0.000 8         0.00008        -0.133 8        48.125           0.000 6         0.00006        -0.281 6        41.406  
I06  38380882.759 7 150611779.05507       -49.505 7        44.531    38380876.060 6 319034799.33606      -104.488 6        38.750  
I07         0.000 7         0.00007        -0.133 7        43.438           0.000 6         0.00006        -0.281 6        38.281  
I09  36138398.050 8 141812034.35808      -119.504 8        51.250    36138392.138 7 300394191.16607      -253.136 7        45.000  
I10  39439291.427 7 154765114.88407       -66.868 7        42.656    39439283.908 5 327832841.78105      -142.234 5        35.312  
> 2024 01 02  0 18 30.0000000  0  9      -215.772749318160
I01         0.000 8         0.00008        -0.026 8        50.781           0.000 3         0.00003        -0.056 3        23.125  
I02  39519086.333 6 155078220.38506        11.947 6        41.406    39519082.195 6 328496139.75706        25.757 6        36.094  
I03  36495136.113 8 143211637.06008        10.079 8        50.156    36495130.750 7 303359567.51707        21.034 7        44.844  
I04         0.000 7         0.00007        -0.026 7        44.219           0.000 6         0.00006        -0.056 6        37.969  
I05         0.000 8         0.00008        -0.026 8        48.125           0.000 6         0.00006        -0.056 6        41.719  
I06  38380506.625 7 150610303.54407       -49.139 7        44.688    38380500.231 6 319031673.85806      -104.294 6        38.906  
I07         0.000 7         0.00007        -0.026 7        43.281           0.000 6         0.00006        -0.056 6        38.438  
I09  36137485.704 8 141808453.57808      -119.401 8        51.250    36137479.856 7 300386606.13707      -252.950 7        44.844  
I10  39438780.642 7 154763110.60807       -66.710 7        42.656    39438773.953 5 327828596.25605      -141.282 5        35.469  
> 2024 01 02  0 19  0.0000000  0  9      -215.354865323492
I01         0.000 8         0.00008        -0.068 8        50.781           0.000 3         0.00003        -0.145 3        23.750  
I02  39519170.981 6 155078551.25206         9.926 6        41.719    39519166.704 6 328496840.64506        20.814 6        36.406  
I03  36495213.582 8 143211940.84208        10.161 8        50.156    36495208.280 7 303360211.01907        21.522 7        44.688  
I04         0.000 7         0.00007        -0.068 7        43.906           0.000 6         0.00006        -0.145 6        38.281  
I05         0.000 8         0.00008        -0.068 8        48.125           0.000 7         0.00007        -0.145 7        42.031  
I06  38380130.731 7 150608827.17807       -49.170 7        44.688    38380124.250 6 319028546.52906      -104.396 6        38.594  
I07         0.000 7         0.00007        -0.068 7        43.281           0.000 6         0.00006        -0.145 6        38.125  
I09  36136573.191 8 141804873.01308      -119.449 8        51.250    36136567.322 7 300379021.57207      -253.083 7        44.844  
I10  39438269.343 7 154761103.86207       -66.947 7        42.656    39438262.616 5 327824345.50605      -142.435 5        35.469  
> 2024 01 02  0 19 30.0000000  0  9      -216.022673869911
I01         0.000 8         0.00008        -0.097 8        50.781           0.000 3         0.00003        -0.206 3        20.469  
I02  39519240.627 6 155078825.72406         8.111 6        41.875    39519236.877 6 328497422.06406        17.075 6        36.719  
I03  36495292.116 8 143212249.16108        10.314 8        50.156    36495286.828 7 303360864.12807        21.716 7        44.688  
I04         0.000 7         0.00007        -0.097 7        43.906           0.000 6         0.00006        -0.206 6        38.438  
I05         0.000 8         0.00008        -0.097 8        48.281           0.000 7         0.00007        -0.206 7        42.188  
I06  38379753.871 7 150607349.95607       -49.357 7        44.688    38379747.405 6 319025417.41206      -104.782 6        38.750  
I07         0.000 7         0.00007        -0.097 7        43.125           0.000 6         0.00006        -0.206 6        37.969  
I09  36135660.813 8 141801292.64808      -119.491 8        51.406    36135654.635 7 300371437.44207      -252.952 7        44.844  
I10  39437757.359 7 154759094.67007       -67.174 7        42.969    39437750.223 5 327820089.57405      -142.312 5        35.625  
> 2024 01 02  0 20  0.0000000  0  9      -215.570683465151
I01         0.000 8         0.00008        -0.102 8        50.781           0.000 4         0.00004        -0.216 4        25.000  
I02  39519296.504 6 155079044.28606         6.430 6        41.875    39519291.837 6 328497885.05206        13.681 6        36.562  
I03  36495371.855 8 143212562.01508        10.440 8        50.156    36495366.459 7 303361526.84207        21.977 7        44.688  
I04         0.000 7         0.00007        -0.102 7        43.906           0.000 6         0.00006        -0.216 6        38.438  
I05         0.000 8         0.00008        -0.102 8        48.281           0.000 6         0.00006        -0.216 6        41.875  
I06  38379377.242 7 150605871.91207       -49.582 7        44.688    38379370.533 6 319022286.53206      -104.655 6        38.438  
I07         0.000 7         0.00007        -0.102 7        43.125           0.000 6         0.00006        -0.216 6        38.281  
I09  36134748.510 8 141797712.46008      -119.430 8        51.406    36134742.582 7 300363853.68807      -253.061 7        44.844  
I10  39437244.856 7 154757083.02807       -67.337 7        42.969    39437238.212 5 327815828.44705      -142.470 5        35.781  
> 2024 01 02  0 20 30.0000000  0  9      -215.770758650884
I01         0.000 8         0.00008        -0.073 8        50.781           0.000 4         0.00004        -0.155 4        24.688  
I02  39519337.741 6 155079206.42006         4.433 6        41.875    39519333.494 6 328498228.50806         9.648 6        37.031  
I03  36495452.764 8 143212879.39608        10.637 8        50.156    36495447.382 7 303362199.15007        22.519 7        44.844  
I04         0.000 7         0.00007        -0.073 7        43.750           0.000 6         0.00006        -0.155 6        38.438  
I05         0.000 8         0.00008        -0.073 8        48.281           0.000 7         0.00007        -0.155 7        42.031  
I06  38379000.515 7 150604393.01107       -49.288 7        44.531    38378993.642 6 319019153.84906      -104.655 6        38.594  
I07         0.000 7         0.00007        -0.073 7        43.125           0.000 6         0.00006        -0.155 6        38.438  
I09  36133836.131 8 141794132.47508      -119.519 8        51.406    36133830.231 7 300356270.35607      -252.960 7        45.156  
I10  39436731.475 7 154755068.96007       -67.284 7        42.656    39436724.575 5 327811562.19805      -142.400 5        35.781  
> 2024 01 02  0 21  0.0000000  0  9      -215.826470394519
I01         0.000 8         0.00008        -0.060 8        50.781           0.000 4         0.00004        -0.127 4        25.156  
I02  39519364.339 6 155079311.64106         2.519 6        41.875    39519360.602 6 328498451.43906         5.360 6        36.875  
I03  36495534.744 8 143213201.35608        10.773 8        50.156    36495529.575 7 303362881.14907        22.762 7        44.844  
I04         0.000 7         0.00007        -0.060 7        43.906           0.000 6         0.00006        -0.127 6        37.812  
I05         0.000 8         0.00008        -0.060 8        48.281           0.000 7         0.00007        -0.127 7        42.031  
I06  38378623.233 7 150602913.26707       -49.436 7        44.531    38378616.530 6 319016019.36506      -104.521 6        38.438  
I07         0.000 7         0.00007        -0.060 7        43.125           0.000 6         0.00006        -0.127 6        38.438  
I09  36132923.916 8 141790552.68308      -119.297 8        51.406    36132918.126 7 300348687.42207      -252.918 7        45.000  
I10  39436217.298 7 154753052.46207       -67.276 7        42.812    39436211.533 5 327807290.80605      -142.470 5        35.469  
> 2024 01 02  0 21 30.0000000  0  9      -215.269059420777
I01         0.000 8         0.00008        -0.103 8        50.781           0.000 3         0.00003        -0.217 3        23.594  
I02  39519377.192 6 155079361.40206         0.538 6        41.719    39519373.422 6 328498556.86506         1.384 6        36.562  
I03  36495617.878 8 143213527.85508        10.889 8        50.312    36495612.854 7 303363572.77507        23.171 7        44.688  
I04         0.000 7         0.00007        -0.103 7        43.750           0.000 6         0.00006        -0.217 6        37.656  
I05         0.000 8         0.00008        -0.103 8        48.438           0.000 7         0.00007        -0.217 7        42.031  
I06  38378246.154 7 150601432.68007       -49.463 7        44.531    38378239.394 6 319012883.10506      -104.739 6        38.281  
I07         0.000 7         0.00007        -0.103 7        43.125           0.000 6         0.00006        -0.217 6        38.438  
I09  36132011.637 8 141786973.08108      -119.403 8        51.406    36132006.016 7 300341104.88807      -252.995 7        45.000  
I10  39435703.405 7 154751033.57807       -67.532 7        42.812    39435696.629 5 327803014.33705      -142.837 5        35.781  
> 2024 01 02  0 22  0.0000000  0  9      -216.042264558522
I01         0.000 8         0.00008        -0.073 8        50.781           0.000 3         0.00003        -0.154 3        21.875  
I02  39519375.476 6 155079354.55206        -1.348 6        41.875    39519371.596 6 328498542.38506        -2.972 6        36.719  
I03  36495702.393 8 143213858.87808        11.093 8        50.156    36495697.150 7 303364273.97707        23.492 7        44.844  
I04         0.000 7         0.00007        -0.073 7        43.906           0.000 6         0.00006        -0.154 6        37.031  
I05         0.000 8         0.00008        -0.073 8        48.438           0.000 7         0.00007        -0.154 7        42.031  
I06  38377868.140 7 150599951.30207       -49.427 7        44.531    38377861.993 6 319009745.17806      -104.744 6        38.281  
I07         0.000 7         0.00007        -0.073 7        43.125           0.000 6         0.00006        -0.154 6        38.438  
I09  36131099.505 8 141783393.67208      -119.296 8        51.250    36131093.796 7 300333522.76607      -252.862 7        45.000  
I10  39435188.094 7 154749012.28907       -67.521 7        42.812    39435181.940 5 327798732.77705      -142.784 5        35.938  
> 2024 01 02  0 22 30.0000000  0  9      -215.549012536022
I01         0.000 8         0.00008        -0.078 8        50.781           0.000 4         0.00004        -0.166 4        26.250  
I02  39519359.477 6 155079291.88206        -3.073 6        41.875    39519355.568 6 328498409.66006        -6.695 6        36.875  
I03  36495787.936 8 143214194.47508        11.185 8        50.156    36495782.557 7 303364984.87407        23.924 7        44.844  
I04         0.000 7         0.00007        -0.078 7        43.906           0.000 6         0.00006        -0.166 6        36.875  
I05         0.000 8         0.00008        -0.078 8        48.594           0.000 7         0.00007        -0.166 7        42.188  
I06  38377490.780 7 150598469.12507       -49.596 7        44.531    38377483.974 6 319006605.55406      -104.766 6        38.125  
I07         0.000 7         0.00007        -0.078 7        43.125           0.000 6         0.00006        -0.166 6        38.438  
I09  36130187.425 8 141779814.44208      -119.301 8        51.250    36130181.667 7 300325941.02907      -252.840 7        45.000  
I10  39434672.461 7 154746988.62707       -67.596 7        42.656    39434666.025 5 327794446.19105      -143.149 5        35.938  
> 2024 01 02  0 23  0.0000000  0  9      -215.824719483913
I01         0.000 8         0.00008        -0.061 8        50.781           0.000 3         0.00003        -0.129 3        21.406  
I02  39519329.092 7 155079171.85507        -4.958 7        42.031    39519324.894 6 328498155.42606       -10.521 6        36.719  
I03  36495874.441 8 143214534.57808        11.278 8        50.312    36495869.372 7 303365705.33007        24.088 7        44.531  
I04         0.000 7         0.00007        -0.061 7        44.062           0.000 6         0.00006        -0.129 6        36.719  
I05         0.000 8         0.00008        -0.061 8        48.594           0.000 7         0.00007        -0.129 7        42.031  
I06  38377112.778 7 150596986.09807       -49.391 7        44.531    38377106.066 6 319003464.12706      -104.756 6        37.812  
I07         0.000 7         0.00007        -0.061 7        43.125           0.000 6         0.00006        -0.129 6        38.281  
I09  36129275.229 8 141776235.39208      -119.407 8        51.250    36129269.675 7 300318359.68307      -252.809 7        44.844  
I10  39434156.226 7 154744962.59207       -67.555 7        42.656    39434149.693 5 327790154.54405      -143.370 5        35.938  
> 2024 01 02  0 23 30.0000000  0  9      -215.474835274129
I01         0.000 8         0.00008        -0.092 8        50.781           0.000 3         0.00003        -0.194 3        23.281  
I02  39519284.096 7 155078995.75207        -6.665 7        42.031    39519280.058 6 328497782.44506       -14.154 6        36.719  
I03  36495962.402 8 143214879.20908        11.393 8        50.156    36495957.232 7 303366435.34907        24.365 7        44.688  
I04         0.000 7         0.00007        -0.092 7        43.906           0.000 6         0.00006        -0.194 6        36.719  
I05         0.000 8         0.00008        -0.092 8        48.438           0.000 7         0.00007        -0.194 7        42.500  
I06  38376734.686 7 150595502.31207       -49.521 7        44.688    38376727.953 6 319000321.10606      -105.110 6        38.125  
I07         0.000 7         0.00007        -0.092 7        43.125           0.000 6         0.00006        -0.194 6        38.438  
I09  36128363.281 8 141772656.49608      -119.439 8        51.250    36128357.835 7 300310778.67407      -253.018 7        45.156  
I10  39433639.389 7 154742934.19307       -67.931 7        42.656    39433633.829 5 327785857.93705      -143.491 5        35.938  
> 2024 01 02  0 24  0.0000000  0  9      -215.750796298678
I01         0.000 8         0.00008        -0.088 8        50.781           0.000 3         0.00003        -0.187 3        22.031  
I02  39519224.805 7 155078763.09807        -8.951 7        42.031    39519220.562 6 328497289.63606       -18.698 6        36.562  
I03  36496051.418 8 143215228.40408        11.640 8        50.156    36496046.307 7 303367175.06407        24.748 7        44.844  
I04         0.000 7         0.00007        -0.088 7        44.062           0.000 6         0.00006        -0.187 6        36.875  
I05         0.000 8         0.00008        -0.088 8        48.438           0.000 7         0.00007        -0.187 7        42.656  
I06  38376356.352 7 150594017.72507       -49.528 7        44.531    38376349.710 6 318997176.35206      -105.237 6        38.125  
I07         0.000 7         0.00007        -0.088 7        43.125           0.000 6         0.00006        -0.187 6        38.594  
I09  36127451.424 8 141769077.77308      -119.364 8        51.250    36127445.950 7 300303198.02907      -252.862 7        45.312  
I10  39433121.864 7 154740903.47007       -67.750 7        42.656    39433115.564 6 327781556.34906      -143.407 6        36.094  
> 2024 01 02  0 24 30.0000000  0  9      -215.850862131397
I01         0.000 8         0.00008        -0.131 8        50.781           0.000 4         0.00004        -0.277 4        25.000  
I02  39519151.817 7 155078475.94007       -10.991 7        42.188    39519147.250 6 328496681.39906       -22.922 6        36.250  
I03  36496141.577 8 143215582.10408        11.630 8        50.156    36496136.136 7 303367924.29607        24.942 7        44.688  
I04         0.000 7         0.00007        -0.131 7        44.219           0.000 6         0.00006        -0.277 6        36.875  
I05         0.000 8         0.00008        -0.131 8        48.438           0.000 7         0.00007        -0.277 7        42.656  
I06  38375977.729 7 150592532.34107       -49.580 7        44.531    38375971.246 6 318994029.92606      -105.350 6        38.125  
I07         0.000 7         0.00007        -0.131 7        43.125           0.000 6         0.00006        -0.277 6        38.594  
I09  36126539.429 8 141765499.19708      -119.374 8        51.406    36126533.975 7 300295617.69107      -252.954 7        45.156  
I10  39432603.594 7 154738870.39107       -67.885 7        42.812    39432597.526 5 327777249.80905      -144.101 5        35.938  
> 2024 01 02  0 25  0.0000000  0  9      -215.743964322148
I01         0.000 8         0.00008        -0.028 8        50.781           0.000 3         0.00003        -0.059 3        21.875  
I02  39519064.713 7 155078132.62207       -12.273 7        42.031    39519059.648 6 328495954.18606       -26.214 6        36.094  
I03  36496232.767 8 143215940.33608        11.918 8        50.156    36496227.629 7 303368683.14207        25.504 7        44.531  
I04         0.000 7         0.00007        -0.028 7        44.062           0.000 6         0.00006        -0.059 6        36.875  
I05         0.000 8         0.00008        -0.028 8        48.594           0.000 7         0.00007        -0.059 7        42.656  
I06  38375599.047 7 150591046.15107       -49.667 7        44.531    38375592.431 6 318990881.79706      -105.036 6        38.125  
I07         0.000 7         0.00007        -0.028 7        42.969           0.000 6         0.00006        -0.059 6        38.438  
I09  36125627.482 8 141761920.82908      -119.240 8        51.406    36125621.994 7 300288037.79207      -252.683 7        45.000  
I10  39432085.014 7 154736834.97407       -67.726 7        42.812    39432078.763 5 327772938.31005      -144.016 5        35.781  
> 2024 01 02  0 25 30.0000000  0  9      -215.331974168314
I01         0.000 8         0.00008        -0.187 8        50.781           0.000 3         0.00003        -0.395 3        22.500  
I02  39518962.719 7 155077731.82307       -15.041 7        42.188    39518957.412 5 328495105.24105       -30.916 5        35.781  
I03  36496325.203 8 143216303.07908        12.003 8        50.156    36496319.870 7 303369451.54507        25.350 7        44.531  
I04         0.000 7         0.00007        -0.187 7        44.375           0.000 6         0.00006        -0.395 6        37.188  
I05         0.000 8         0.00008        -0.187 8        48.594           0.000 7         0.00007        -0.395 7        42.656  
I06  38375220.048 7 150589559.16307       -49.785 7        44.531    38375213.514 6 318987731.97406      -105.488 6        37.969  
I07         0.000 7         0.00007        -0.187 7        43.125           0.000 6         0.00006        -0.395 6        38.281  
I09  36124715.850 8 141758342.63108      -119.470 8        51.406    36124710.061 7 300280458.24507      -253.135 7        44.844  
I10  39431565.627 7 154734797.25607       -68.093 7        42.812    39431558.970 5 327768621.91605      -144.065 5        35.469  
> 2024 01 02  0 26  0.0000000  0  9      -215.345234333487
I01         0.000 8         0.00008        -0.085 8        50.938           0.000 3         0.00003        -0.180 3        23.125  
I02  39518846.251 7 155077274.97907       -16.298 7        42.344    39518841.065 6 328494137.58206       -34.210 6        36.094  
I03  36496418.836 8 143216670.35308        12.213 8        50.156    36496413.448 7 303370229.54207        25.787 7        44.688  
I04         0.000 7         0.00007        -0.085 7        44.219           0.000 6         0.00006        -0.180 6        37.500  
I05         0.000 8         0.00008        -0.085 8        48.281           0.000 7         0.00007        -0.180 7        42.969  
I06  38374841.014 7 150588071.40707       -49.628 7        44.531    38374834.366 6 318984580.52706      -105.316 6        38.438  
I07         0.000 7         0.00007        -0.085 7        43.125           0.000 6         0.00006        -0.180 6        38.594  
I09  36123804.014 8 141754764.60508      -119.327 8        51.562    36123798.307 7 300272879.05007      -252.690 7        45.000  
I10  39431046.070 7 154732757.22007       -68.145 7        42.656    39431039.641 5 327764300.63805      -144.611 5        35.625  
> 2024 01 02  0 26 30.0000000  0  9      -215.287504540135
I01         0.000 8         0.00008        -0.078 8        50.781           0.000 4         0.00004        -0.165 4        25.156  
I02  39518716.037 7 155076763.91907       -18.117 7        42.344    39518710.484 5 328493055.05605       -38.837 5        35.469  
I03  36496513.492 8 143217042.15308        12.357 8        50.156    36496508.360 7 303371017.11307        26.339 7        44.531  
I04         0.000 7         0.00007        -0.078 7        44.062           0.000 6         0.00006        -0.165 6        37.500  
I05         0.000 8         0.00008        -0.078 8        48.281           0.000 7         0.00007        -0.165 7        42.500  
I06  38374461.756 7 150586582.90107       -49.701 7        44.531    38374454.987 6 318981427.50206      -105.176 6        38.438  
I07         0.000 7         0.00007        -0.078 7        43.125           0.000 6         0.00006        -0.165 6        38.281  
I09  36122892.377 8 141751186.75608      -119.375 8        51.406    36122886.548 7 300265300.22207      -252.803 7        44.844  
I10  39430525.436 7 154730714.88907       -68.093 7        42.656    39430519.337 5 327759974.50305      -144.242 5        35.625  
> 2024 01 02  0 27  0.0000000  0  9      -215.225132182664
I01         0.000 8         0.00008        -0.015 8        50.781           0.000 3         0.00003        -0.031 3        23.438  
I02  39518570.906 7 155076194.78107       -19.634 7        42.188    39518565.464 5 328491849.49105       -42.284 5        35.781  
I03  36496609.469 8 143217418.47108        12.604 8        50.156    36496604.140 7 303371814.26207        26.729 7        44.688  
I04         0.000 7         0.00007        -0.015 7        43.750           0.000 6         0.00006        -0.031 6        37.656  
I05         0.000 8         0.00008        -0.015 8        48.281           0.000 7         0.00007        -0.031 7        42.344  
I06  38374082.364 7 150585093.60907       -49.732 7        44.688    38374075.062 6 318978272.81006      -105.256 6        38.438  
I07         0.000 7         0.00007        -0.015 7        43.125           0.000 6         0.00006        -0.031 6        38.594  
I09  36121980.635 8 141747609.08708      -119.190 8        51.406    36121974.789 7 300257721.79307      -252.719 7        45.000  
I10  39430004.599 7 154728670.28007       -68.160 7        42.812    39429998.455 5 327755643.54805      -144.339 5        35.625  
> 2024 01 02  0 27 30.0000000  0  9      -215.128793548192
I01         0.000 8         0.00008        -0.057 8        50.781           0.000 4         0.00004        -0.120 4        25.938  
I02  39518411.944 7 155075570.54707       -21.782 7        42.188    39518406.146 5 328490527.24405       -46.160 5        35.469  
I03  36496706.528 8 143217799.28508        12.760 8        50.156    36496701.160 7 303372620.94407        27.016 7        44.688  
I04         0.000 7         0.00007        -0.057 7        43.594           0.000 6         0.00006        -0.120 6        37.812  
I05         0.000 8         0.00008        -0.057 8        48.125           0.000 7         0.00007        -0.120 7        42.031  
I06  38373702.640 7 150583603.58107       -49.778 7        44.688    38373695.798 6 318975116.55406      -105.529 6        38.594  
I07         0.000 7         0.00007        -0.057 7        42.969           0.000 6         0.00006        -0.120 6        38.594  
I09  36121068.816 8 141744031.60808      -119.316 8        51.250    36121063.209 7 300250143.77907      -252.714 7        45.156  
I10  39429482.909 7 154726623.38307       -68.229 7        42.656    39429476.606 5 327751307.75805      -144.557 5        35.625  
> 2024 01 02  0 28  0.0000000  0  9      -214.815447919760
I01         0.000 8         0.00008        -0.122 8        50.781           0.000 3         0.00003        -0.258 3        23.750  
I02  39518238.857 7 155074889.86307       -23.942 7        42.188    39518232.846 5 328489085.41405       -50.304 5        35.312  
I03  36496804.773 8 143218184.62408        12.869 8        50.156    36496799.440 7 303373437.20207        27.091 7        44.688  
I04         0.000 7         0.00007        -0.122 7        43.594           0.000 6         0.00006        -0.258 6        38.281  
I05         0.000 7         0.00007        -0.122 7        47.969           0.000 7         0.00007        -0.258 7        42.031  
I06  38373322.550 7 150582112.78207       -49.922 7        44.844    38373316.431 6 318971958.68006      -105.572 6        38.594  
I07         0.000 7         0.00007        -0.122 7        43.125           0.000 6         0.00006        -0.258 6        38.750  
I09  36120157.339 8 141740454.29608      -119.372 8        51.250    36120151.470 7 300242566.10007      -252.757 7        45.156  
I10  39428960.830 7 154724574.24407       -68.439 7        42.812    39428954.400 5 327746967.23005      -144.795 5        35.469  
> 2024 01 02  0 28 30.0000000  0  9      -215.042999341046
I01         0.000 8         0.00008        -0.030 8        50.625           0.000 3         0.00003        -0.064 3        20.938  
I02  39518050.836 7 155074152.84107       -25.325 7        42.031    39518044.882 5 328487524.24405       -54.408 5        35.312  
I03  36496904.121 8 143218574.45208        13.076 8        50.156    36496898.659 7 303374262.97907        27.505 7        44.688  
I04         0.000 7         0.00007        -0.030 7        43.750           0.000 6         0.00006        -0.064 6        38.281  
I05         0.000 8         0.00008        -0.030 8        48.125           0.000 7         0.00007        -0.064 7        42.500  
I06  38372942.609 7 150580621.23607       -49.660 7        44.844    38372936.234 6 318968799.22406      -105.445 6        38.594  
I07         0.000 7         0.00007        -0.030 7        42.969           0.000 6         0.00006        -0.064 6        38.906  
I09  36119245.719 8 141736877.17708      -119.246 8        51.250    36119240.033 7 300234988.83107      -252.537 7        45.000  
I10  39428438.187 7 154722522.85307       -68.545 7        42.812    39428432.459 5 327742621.91305      -145.115 5        35.469  
> 2024 01 02  0 29  0.0000000  0  9      -215.171815545327
I01         0.000 8         0.00008        -0.095 8        50.625           0.000 3         0.00003        -0.201 3        23.906  
I02  39517848.810 7 155073359.93807       -27.466 7        42.031    39517842.510 5 328485844.72305       -58.699 5        35.000  
I03  36497004.639 8 143218968.78808        13.048 8        50.156    36496998.903 7 303375098.29307        27.697 7        44.688  
I04         0.000 7         0.00007        -0.095 7        43.750           0.000 6         0.00006        -0.201 6        38.125  
I05         0.000 8         0.00008        -0.095 8        48.125           0.000 7         0.00007        -0.201 7        42.656  
I06  38372562.299 7 150579128.95207       -49.926 7        44.844    38372555.926 6 318965638.17606      -105.848 6        38.750  
I07         0.000 7         0.00007        -0.095 7        42.969           0.000 6         0.00006        -0.201 6        38.750  
I09  36118334.198 8 141733300.24608      -119.336 8        51.250    36118328.404 7 300227411.96807      -252.677 7        44.844  
I10  39427915.105 7 154720469.21107       -68.475 7        42.812    39427908.284 5 327738271.85605      -145.512 5        35.625  
> 2024 01 02  0 29 30.0000000  0  9      -215.423952627250
I01         0.000 8         0.00008        -0.109 8        50.625           0.000 3         0.00003        -0.231 3        22.812  
I02  39517632.191 7 155072510.63907       -29.485 7        42.031    39517625.904 5 328484045.70405       -62.463 5        35.156  
I03  36497106.270 8 143219367.62008        13.330 8        50.156    36497100.795 7 303375943.15107        28.163 7        44.688  
I04         0.000 7         0.00007        -0.109 7        43.281           0.000 6         0.00006        -0.231 6        38.125  
I05         0.000 8         0.00008        -0.109 8        48.281           0.000 7         0.00007        -0.231 7        42.812  
I06  38372181.795 7 150577635.93607       -49.910 7        44.844    38372175.630 6 318962475.60506      -105.642 6        39.062  
I07         0.000 7         0.00007        -0.109 7        42.969           0.000 6         0.00006        -0.231 6        38.750  
I09  36117422.733 8 141729723.51508      -119.354 8        51.250    36117417.025 7 300219835.54007      -252.779 7        45.000  
I10  39427391.345 7 154718413.34507       -68.681 7        42.812    39427384.829 5 327733917.11305      -145.482 5        35.625  
> 2024 01 02  0 30  0.0000000  0  9      -215.449251339808
I01         0.000 8         0.00008        -0.100 8        50.625           0.000 4         0.00004        -0.212 4        24.062  
I02  39517401.583 6 155071605.08506       -31.135 6        41.875    39517394.926 5 328482127.57505       -65.795 5        34.844  
I03  36497209.065 8 143219770.96508        13.467 8        50.156    36497203.649 7 303376797.56307        28.429 7        44.531  
I04         0.000 7         0.00007        -0.100 7        43.125           0.000 6         0.00006        -0.212 6        38.281  
I05         0.000 8         0.00008        -0.100 8        48.125           0.000 7         0.00007        -0.212 7        42.656  
I06  38371801.168 7 150576142.19607       -50.016 7        44.844    38371795.116 6 318959311.46906      -105.845 6        38.750  
I07         0.000 7         0.00007        -0.100 7        42.969           0.000 6         0.00006        -0.212 6        38.750  
I09  36116511.198 8 141726146.99708      -119.377 8        51.094    36116505.523 7 300212259.54107      -252.685 7        44.844  
I10  39426866.846 7 154716355.27307       -68.755 7        42.969    39426860.227 5 327729557.66705      -145.342 5        35.625  
> 2024 01 02  0 30 30.0000000  0  9      -215.284748426979
I01         0.000 8         0.00008        -0.010 8        50.625           0.000 4         0.00004        -0.021 4        24.688  
I02  39517156.555 6 155070644.66906       -32.377 6        41.875    39517150.515 5 328480093.22105       -68.889 5        34.688  
I03  36497312.947 8 143220178.79708        13.632 8        50.156    36497307.463 7 303377661.46607        28.883 7        44.688  
I04         0.000 7         0.00007        -0.010 7        43.125           0.000 6         0.00006        -0.021 6        38.750  
I05         0.000 7         0.00007        -0.010 7        47.969           0.000 7         0.00007        -0.021 7        42.969  
I06  38371420.711 7 150574647.74507       -49.866 7        44.844    38371414.207 6 318956145.85606      -105.754 6        39.062  
I07         0.000 7         0.00007        -0.010 7        42.969           0.000 6         0.00006        -0.021 6        38.750  
I09  36115600.045 8 141722570.71108      -119.168 8        51.094    36115594.145 7 300204684.02507      -252.429 7        45.000  
I10  39426341.744 7 154714294.99007       -68.936 7        42.812    39426334.586 5 327725193.56905      -145.792 5        35.938  
> 2024 01 02  0 31  0.0000000  0  9      -215.243368904189
I01         0.000 8         0.00008        -0.105 8        50.469           0.000 4         0.00004        -0.223 4        25.469  
I02  39516897.644 6 155069627.51306       -34.901 6        41.875    39516890.815 5 328477938.68705       -73.612 5        34.844  
I03  36497418.025 8 143220591.14108        13.683 8        50.156    36497412.582 7 303378534.94307        29.000 7        44.688  
I04         0.000 7         0.00007        -0.105 7        42.969           0.000 6         0.00006        -0.223 6        38.594  
I05         0.000 7         0.00007        -0.105 7        47.812           0.000 7         0.00007        -0.223 7        42.969  
I06  38371039.589 7 150573152.56107       -50.170 7        44.844    38371033.350 6 318952978.68106      -106.034 6        39.219  
I07         0.000 7         0.00007        -0.105 7        42.969           0.000 6         0.00006        -0.223 6        38.594  
I09  36114688.611 8 141718994.62308      -119.364 8        51.094    36114682.995 7 300197108.93407      -252.728 7        45.000  
I10  39425816.117 7 154712232.51607       -68.716 7        42.812    39425810.189 6 327720824.83306      -145.752 6        36.094  
> 2024 01 02  0 31 30.0000000  0  9      -214.856371931719
I01         0.000 8         0.00008        -0.096 8        50.469           0.000 4         0.00004        -0.204 4        24.688  
I02  39516624.207 6 155068554.66506       -36.974 6        41.875    39516617.870 5 328475666.16405       -77.684 5        34.844  
I03  36497524.260 8 143221007.94108        13.906 8        50.156    36497518.815 7 303379417.85307        29.341 7        44.688  
I04         0.000 7         0.00007        -0.096 7        43.125           0.000 6         0.00006        -0.204 6        38.750  
I05         0.000 7         0.00007        -0.096 7        47.812           0.000 7         0.00007        -0.204 7        42.969  
I06  38370658.489 7 150571656.67507       -49.933 7        44.688    38370652.355 6 318949810.03906      -105.977 6        39.375  
I07         0.000 7         0.00007        -0.096 7        43.125           0.000 6         0.00006        -0.204 6        38.594  
I09  36113777.337 8 141715418.74908      -119.232 8        51.094    36113771.770 7 300189534.29807      -252.593 7        45.000  
I10  39425290.413 7 154710167.88907       -68.946 7        42.969    39425283.931 6 327716451.50706      -146.127 6        36.250  
> 2024 01 02  0 32  0.0000000  0  9      -214.887492840434
I01         0.000 8         0.00008        -0.078 8        50.469           0.000 4         0.00004        -0.166 4        24.531  
I02  39516336.650 7 155067426.49107       -38.455 7        42.031    39516330.773 5 328473276.42205       -81.493 5        35.156  
I03  36497631.608 8 143221429.24308        14.061 8        50.156    36497626.187 7 303380310.30007        29.875 7        44.688  
I04         0.000 7         0.00007        -0.078 7        42.969           0.000 6         0.00006        -0.166 6        38.594  
I05         0.000 7         0.00007        -0.078 7        47.812           0.000 7         0.00007        -0.166 7        42.969  
I06  38370276.760 7 150570160.09007       -50.050 7        44.688    38370270.841 6 318946639.89306      -105.750 6        39.219  
I07         0.000 7         0.00007        -0.078 7        42.969           0.000 6         0.00006        -0.166 6        38.594  
I09  36112866.190 8 141711843.07408      -119.320 8        51.094    36112860.628 7 300181960.09207      -252.543 7        45.000  
I10  39424763.274 7 154708101.09307       -69.031 7        42.969    39424756.732 6 327712073.60206      -146.290 6        36.250  
> 2024 01 02  0 32 30.0000000  0  9      -214.354750305909
I01         0.000 8         0.00008        -0.024 8        50.469           0.000 3         0.00003        -0.051 3        22.812  
I02  39516035.204 6 155066243.43906       -40.270 6        41.875    39516029.420 5 328470770.46705       -85.462 5        35.312  
I03  36497740.111 8 143221855.02008        14.333 8        50.156    36497734.573 7 303381212.23407        30.204 7        44.688  
I04         0.000 7         0.00007        -0.024 7        42.969           0.000 6         0.00006        -0.051 6        38.594  
I05         0.000 7         0.00007        -0.024 7        47.812           0.000 7         0.00007        -0.051 7        42.500  
I06  38369895.384 7 150568662.81607       -49.907 7        44.688    38369889.580 6 318943468.29306      -105.934 6        39.219  
I07         0.000 7         0.00007        -0.024 7        42.969           0.000 6         0.00006        -0.051 6        38.750  
I09  36111955.037 8 141708267.63708      -119.227 8        51.094    36111949.394 7 300174386.39307      -252.527 7        45.000  
I10  39424236.351 7 154706032.15007       -68.978 7        43.125    39424229.904 6 327707691.12806      -146.124 6        36.250  
> 2024 01 02  0 33  0.0000000  0  9      -214.215008755650
I01         0.000 8         0.00008        -0.122 8        50.469           0.000 4         0.00004        -0.259 4        24.375  
I02  39515719.053 6 155065004.02006       -42.628 6        41.875    39515713.452 5 328468145.13405       -89.064 5        35.000  
I03  36497849.871 8 143222285.27908        14.318 8        50.156    36497844.354 7 303382123.65907        30.328 7        44.375  
I04         0.000 7         0.00007        -0.122 7        42.969           0.000 6         0.00006        -0.259 6        38.125  
I05         0.000 7         0.00007        -0.122 7        47.812           0.000 7         0.00007        -0.259 7        42.031  
I06  38369513.875 7 150567164.86307       -50.176 7        44.844    38369507.924 6 318940295.25306      -106.159 6        39.062  
I07         0.000 7         0.00007        -0.122 7        42.969           0.000 6         0.00006        -0.259 6        38.281  
I09  36111043.853 8 141704692.41108      -119.299 8        51.250    36111038.357 7 300166813.13807      -252.563 7        44.688  
I10  39423708.578 7 154703961.07007       -69.040 7        43.281    39423702.595 6 327703304.14506      -146.474 6        36.250  
> 2024 01 02  0 33 30.0000000  0  9      -214.438894210185
I01         0.000 8         0.00008        -0.132 8        50.469           0.000 4         0.00004        -0.279 4        24.844  
I02  39515388.992 6 155063708.54106       -44.339 6        41.719    39515383.683 5 328465401.03105       -93.650 5        35.156  
I03  36497960.601 8 143222720.01808        14.418 8        50.312    36497954.969 7 303383044.57307        30.471 7        44.531  
I04         0.000 7         0.00007        -0.132 7        42.969           0.000 6         0.00006        -0.279 6        37.969  
I05         0.000 7         0.00007        -0.132 7        47.969           0.000 6         0.00006        -0.279 6        41.875  
I06  38369131.752 7 150565666.19807       -50.045 7        44.844    38369125.837 6 318937120.69706      -105.909 6        38.906  
I07         0.000 7         0.00007        -0.132 7        42.969           0.000 6         0.00006        -0.279 6        38.594  
I09  36110133.022 8 141701117.44208      -119.266 8        51.094    36110127.285 7 300159240.42907      -252.628 7        44.844  
I10  39423180.184 7 154701887.83607       -69.477 7        43.125    39423174.275 6 327698912.60806      -147.147 6        36.250  
> 2024 01 02  0 34  0.0000000  0  9      -214.001651251260
I01         0.000 8         0.00008        -0.179 8        50.469           0.000 3         0.00003        -0.380 3        20.781  
I02  39515044.868 6 155062357.31406       -46.306 6        41.562    39515039.429 5 328462538.85005       -97.713 5        35.625  
I03  36498072.475 8 143223159.21808        14.463 8        50.156    36498066.923 7 303383974.94407        30.853 7        44.688  
I04         0.000 7         0.00007        -0.179 7        42.969           0.000 6         0.00006        -0.380 6        38.125  
I05         0.000 8         0.00008        -0.179 8        48.281           0.000 7         0.00007        -0.380 7        42.188  
I06  38368750.003 7 150564166.88007       -50.204 7        44.844    38368744.058 6 318933944.77506      -106.525 6        39.219  
I07         0.000 7         0.00007        -0.179 7        42.969           0.000 6         0.00006        -0.380 6        38.906  
I09  36109222.114 8 141697542.72708      -119.372 8        51.094    36109216.392 7 300151668.25607      -252.707 7        45.156  
I10  39422651.637 7 154699812.50807       -69.556 7        43.281    39422645.183 6 327694516.63506      -147.056 6        36.562  
> 2024 01 02  0 34 30.0000000  0  9      -214.367075272946
I01         0.000 8         0.00008        -0.094 8        50.625           0.000 4         0.00004        -0.200 4        25.312  
I02  39514686.286 6 155060950.31606       -48.047 6        41.562    39514681.065 5 328459558.51105      -101.865 5        35.469  
I03  36498185.602 8 143223602.89908        14.666 8        50.156    36498180.168 7 303384914.81107        31.247 7        44.688  
I04         0.000 7         0.00007        -0.094 7        42.969           0.000 6         0.00006        -0.200 6        37.344  
I05         0.000 7         0.00007        -0.094 7        47.969           0.000 6         0.00006        -0.200 6        41.875  
I06  38368367.370 7 150562666.88807       -50.073 7        44.844    38368361.800 6 318930767.39506      -106.160 6        39.219  
I07         0.000 7         0.00007        -0.094 7        42.969           0.000 6         0.00006        -0.200 6        38.594  
I09  36108311.159 8 141693968.25608      -119.166 8        51.250    36108305.287 7 300144096.60507      -252.660 7        44.844  
I10  39422122.296 7 154697735.08407       -69.291 7        43.438    39422116.172 6 327690116.20206      -147.026 6        36.406  
> 2024 01 02  0 35  0.0000000  0  9      -214.290419191725
I01         0.000 8         0.00008        -0.085 8        50.625           0.000 3         0.00003        -0.179 3        20.000  
I02  39514313.871 6 155059489.21706       -50.036 6        41.562    39514307.774 5 328456463.58105      -105.457 5        35.469  
I03  36498299.889 8 143224051.04508        14.946 8        50.312    36498294.261 7 303385864.12307        31.613 7        44.688  
I04         0.000 7         0.00007        -0.085 7        43.438           0.000 6         0.00006        -0.179 6        37.656  
I05         0.000 8         0.00008        -0.085 8        48.125           0.000 7         0.00007        -0.179 7        42.188  
I06  38367985.201 7 150561166.21107       -49.961 7        44.844    38367979.301 6 318927588.59506      -106.089 6        39.219  
I07         0.000 7         0.00007        -0.085 7        42.969           0.000 6         0.00006        -0.179 6        38.594  
I09  36107400.370 8 141690394.07008      -119.246 8        51.250    36107394.595 7 300136525.55207      -252.505 7        45.000  
I10  39421592.073 7 154695655.57307       -69.300 7        43.281    39421586.052 6 327685711.33306      -146.929 6        36.562  
> 2024 01 02  0 35 30.0000000  0  9      -213.748525936047
I01         0.000 8         0.00008         0.005 8        50.781           0.000 4         0.00004         0.010 4        24.531  
I02  39513927.474 6 155057971.96906       -51.159 6        41.719    39513922.326 5 328453249.71105      -109.082 5        35.938  
I03  36498415.214 8 143224503.64808        15.156 8        50.156    36498409.535 7 303386822.88007        32.246 7        44.688  
I04         0.000 7         0.00007         0.005 7        43.594           0.000 6         0.00006         0.010 6        38.281  
I05         0.000 7         0.00007         0.005 7        47.969           0.000 7         0.00007         0.010 7        42.188  
I06  38367602.659 7 150559664.86207       -50.135 7        44.844    38367596.405 6 318924408.37206      -106.186 6        39.219  
I07         0.000 7         0.00007         0.005 7        42.969           0.000 6         0.00006         0.010 6        38.594  
I09  36106489.557 8 141686820.15408      -119.109 8        51.250    36106483.938 7 300128955.07407      -252.316 7        45.000  
I10  39421061.843 7 154693573.97807       -69.242 7        43.281    39421056.009 6 327681302.05806      -147.377 6        37.031  
> 2024 01 02  0 36  0.0000000  0  9      -214.035120225532
I01         0.000 8         0.00008        -0.154 8        50.625           0.000 3         0.00003        -0.327 3        23.594  
I02  39513526.505 6 155056399.05906       -53.598 6        41.719    39513521.324 5 328449917.98805      -113.350 5        35.625  
I03  36498531.642 8 143224960.70908        15.129 8        50.156    36498526.002 7 303387791.07107        32.039 7        44.688  
I04         0.000 7         0.00007        -0.154 7        43.281           0.000 6         0.00006        -0.327 6        37.969  
I05         0.000 7         0.00007        -0.154 7        47.812           0.000 7         0.00007        -0.327 7        42.031  
I06  38367219.764 7 150558162.87207       -50.411 7        44.688    38367213.680 6 318921226.77206      -106.190 6        39.062  
I07         0.000 7         0.00007        -0.154 7        42.969           0.000 6         0.00006        -0.327 6        38.594  
I09  36105579.099 8 141683246.52108      -119.309 8        51.250    36105573.432 7 300121385.21107      -252.755 7        45.156  
I10  39420530.706 7 154691490.31307       -69.671 7        43.281    39420524.619 6 327676888.39406      -147.516 6        37.031  
> 2024 01 02  0 36 30.0000000  0  9      -213.832971419976
I01         0.000 8         0.00008         0.073 8        50.781           0.000 4         0.00004         0.154 4        24.844  
I02  39513111.590 6 155054770.81706       -54.575 6        41.875    39513106.392 5 328446469.01305      -116.148 5        35.625  
I03  36498649.364 8 143225422.25308        15.611 8        50.156    36498643.478 7 303388768.76907        32.901 7        44.688  
I04         0.000 7         0.00007         0.073 7        43.281           0.000 6         0.00006         0.154 6        37.969  
I05         0.000 7         0.00007         0.073 7        47.812           0.000 7         0.00007         0.154 7        42.188  
I06  38366837.032 7 150556660.23907       -49.984 7        44.844    38366830.704 6 318918043.83706      -106.081 6        38.906  
I07         0.000 7         0.00007         0.073 7        42.969           0.000 6         0.00006         0.154 6        38.750  
I09  36104668.395 8 141679673.12108      -119.058 8        51.250    36104662.778 7 300113815.83607      -252.110 7        45.000  
I10  39419999.199 7 154689404.59107       -69.361 7        43.281    39419993.652 6 327672470.39506      -147.093 6        37.031  
> 2024 01 02  0 37  0.0000000  0  9      -213.524392891348
I01         0.000 8         0.00008        -0.070 8        50.781           0.000 3         0.00003        -0.147 3        22.656  
I02  39512682.332 7 155053086.19907       -57.272 7        42.188    39512677.183 5 328442900.61705      -121.063 5        35.469  
I03  36498768.122 8 143225888.24008        15.461 8        50.156    36498762.348 7 303389755.86907        32.901 7        44.375  
I04         0.000 7         0.00007        -0.070 7        43.594           0.000 6         0.00006        -0.147 6        38.125  
I05         0.000 7         0.00007        -0.070 7        47.969           0.000 7         0.00007        -0.147 7        42.344  
I06  38366453.811 7 150555156.95807       -50.179 7        45.000    38366447.607 6 318914859.50106      -106.326 6        38.750  
I07         0.000 7         0.00007        -0.070 7        42.969           0.000 6         0.00006        -0.147 6        38.125  
I09  36103757.865 8 141676100.06008      -119.152 8        51.250    36103752.364 7 300106247.17907      -252.378 7        44.844  
I10  39419467.449 7 154687316.82007       -69.425 7        43.125    39419461.711 6 327668048.04906      -147.554 6        36.875  
> 2024 01 02  0 37 30.0000000  0  9      -213.028997001057
I01         0.000 8         0.00008        -0.017 8        50.781           0.000 3         0.00003        -0.036 3        20.156  
I02  39512239.842 7 155051347.11407       -58.701 7        42.188    39512234.114 5 328439216.84705      -124.427 5        35.781  
I03  36498887.981 8 143226358.69108        15.765 8        50.312    36498882.318 7 303390752.42407        33.262 7        44.688  
I04         0.000 7         0.00007        -0.017 7        44.062           0.000 6         0.00006        -0.036 6        38.906  
I05         0.000 8         0.00008        -0.017 8        48.125           0.000 7         0.00007        -0.036 7        42.500  
I06  38366070.590 7 150553653.03607       -50.199 7        44.844    38366064.472 6 318911673.83606      -106.359 6        39.062  
I07         0.000 7         0.00007        -0.017 7        43.125           0.000 6         0.00006        -0.036 6        38.594  
I09  36102847.454 8 141672527.31508      -119.093 8        51.250    36102841.930 7 300098679.19307      -252.275 7        45.156  
I10  39418935.153 7 154685227.00507       -69.586 7        43.125    39418929.082 6 327663621.39006      -147.607 6        37.031  
> 2024 01 02  0 38  0.0000000  0  9      -213.232430455213
I01         0.000 8         0.00008        -0.187 8        50.781           0.000 4         0.00004        -0.397 4        25.000  
I02  39511782.239 7 155049552.91507       -61.160 7        42.344    39511777.139 5 328435416.33805      -129.053 5        35.312  
I03  36499009.004 8 143226833.57008        15.662 8        50.312    36499003.362 7 303391758.35607        33.289 7        44.375  
I04         0.000 7         0.00007        -0.187 7        44.375           0.000 6         0.00006        -0.397 6        38.750  
I05         0.000 8         0.00008        -0.187 8        48.125           0.000 7         0.00007        -0.397 7        42.500  
I06  38365687.332 7 150552148.48607       -50.500 7        44.844    38365681.184 6 318908486.82506      -106.591 6        38.906  
I07         0.000 7         0.00007        -0.187 7        42.969           0.000 6         0.00006        -0.397 6        38.281  
I09  36101937.026 8 141668954.91708      -119.344 8        51.250    36101931.406 7 300091111.95507      -252.566 7        44.844  
I10  39418401.923 7 154683135.16707       -69.949 7        43.125    39418395.953 6 327659190.44006      -148.257 6        36.719  
> 2024 01 02  0 38 30.0000000  0  9      -213.481466432047
I01         0.000 8         0.00008        -0.073 8        50.781           0.000 4         0.00004        -0.154 4        24.062  
I02  39511310.968 7 155047703.33307       -62.778 7        42.344    39511305.381 5 328431498.52705      -133.049 5        35.312  
I03  36499131.148 8 143227312.90308        16.037 8        50.156    36499125.436 7 303392773.72007        33.754 7        44.531  
I04         0.000 7         0.00007        -0.073 7        44.531           0.000 6         0.00006        -0.154 6        38.906  
I05         0.000 8         0.00008        -0.073 8        48.125           0.000 7         0.00007        -0.154 7        42.188  
I06  38365303.681 7 150550643.31507       -50.223 7        45.000    38365297.590 6 318905298.49206      -106.755 6        39.062  
I07         0.000 7         0.00007        -0.073 7        42.969           0.000 6         0.00006        -0.154 6        38.438  
I09  36101026.951 8 141665382.85408      -119.092 8        51.250    36101021.256 7 300083545.41507      -252.283 7        45.000  
I10  39417868.257 7 154681041.30807       -69.860 7        43.125    39417862.661 6 327654755.19406      -148.118 6        36.719  
> 2024 01 02  0 39  0.0000000  0  9      -213.342303069340
I01         0.000 8         0.00008        -0.063 8        50.781           0.000 4         0.00004        -0.132 4        25.625  
I02  39510825.614 7 155045798.52107       -64.309 7        42.500    39510819.953 5 328427463.71405      -136.246 5        35.312  
I03  36499254.385 8 143227796.67308        16.115 8        50.156    36499248.837 7 303393798.49507        34.234 7        44.688  
I04         0.000 7         0.00007        -0.063 7        44.531           0.000 6         0.00006        -0.132 6        38.750  
I05         0.000 8         0.00008        -0.063 8        48.281           0.000 6         0.00006        -0.132 6        41.875  
I06  38364920.098 7 150549137.52607       -50.318 7        45.000    38364914.168 6 318902108.85106      -106.720 6        39.062  
I07         0.000 7         0.00007        -0.063 7        42.969           0.000 6         0.00006        -0.132 6        38.594  
I09  36100116.694 8 141661811.13108      -119.138 8        51.250    36100111.054 7 300075979.58907      -252.337 7        45.000  
I10  39417334.081 7 154678945.46307       -69.931 7        43.125    39417328.371 6 327650315.77006      -148.560 6        37.031  
> 2024 01 02  0 39 30.0000000  0  9      -213.422032003372
I01         0.000 8         0.00008        -0.110 8        50.625           0.000 3         0.00003        -0.234 3        22.188  
I02  39510326.412 7 155043839.02007       -66.435 7        42.656    39510320.601 5 328423313.04805      -140.702 5        35.000  
I03  36499378.891 8 143228284.87208        16.298 8        50.156    36499373.164 7 303394832.63807        34.359 7        44.531  
I04         0.000 7         0.00007        -0.110 7        44.688           0.000 6         0.00006        -0.234 6        38.438  
I05         0.000 8         0.00008        -0.110 8        48.438           0.000 6         0.00006        -0.234 6        41.719  
I06  38364536.125 7 150547631.13207       -50.336 7        44.844    38364529.490 6 318898917.93706      -106.512 6        38.906  
I07         0.000 7         0.00007        -0.110 7        43.125           0.000 6         0.00006        -0.234 6        38.438  
I09  36099206.533 8 141658239.75608      -119.264 8        51.250    36099200.976 7 300068414.48707      -252.430 7        44.688  
I10  39416799.560 7 154676847.64007       -70.086 7        43.281    39416793.500 6 327645872.14806      -148.607 6        36.875  
> 2024 01 02  0 40  0.0000000  0  9      -214.232574788760
I01         0.000 8         0.00008        -0.030 8        50.625           0.000 3         0.00003        -0.063 3        23.750  
I02  39509813.062 7 155041823.73607       -67.982 7        42.812    39509807.370 5 328419044.23205      -144.289 5        35.469  
I03  36499504.332 8 143228777.52008        16.480 8        50.156    36499498.543 7 303395876.21707        34.808 7        44.688  
I04         0.000 7         0.00007        -0.030 7        44.688           0.000 6         0.00006        -0.063 6        38.281  
I05         0.000 8         0.00008        -0.030 8        48.125           0.000 6         0.00006        -0.063 6        41.875  
I06  38364152.309 7 150546124.14007       -50.284 7        44.844    38364146.083 6 318895725.75906      -106.377 6        39.219  
I07         0.000 7         0.00007        -0.030 7        43.125           0.000 6         0.00006        -0.063 6        38.594  
I09  36098296.568 8 141654668.77908      -119.102 8        51.250    36098290.815 7 300060850.23107      -252.092 7        44.688  
I10  39416264.394 7 154674747.83707       -69.897 7        43.281    39416258.933 6 327641424.33506      -148.549 6        37.031  
> 2024 01 02  0 40 30.0000000  0  9      -214.427755828905
I01         0.000 8         0.00008        -0.057 8        50.781           0.000 3         0.00003        -0.121 3        20.625  
I02  39509285.567 7 155039753.48107       -69.804 7        42.812    39509280.227 5 328414658.98505      -148.055 5        35.469  
I03  36499631.155 8 143229274.58308        16.599 8        50.312    36499625.338 7 303396929.15607        35.165 7        44.844  
I04         0.000 7         0.00007        -0.057 7        45.000           0.000 6         0.00006        -0.121 6        37.969  
I05         0.000 7         0.00007        -0.057 7        47.812           0.000 7         0.00007        -0.121 7        42.031  
I06  38363767.535 7 150544616.54207       -50.416 7        44.531    38363761.208 6 318892532.29106      -106.636 6        38.750  
I07         0.000 7         0.00007        -0.057 7        43.125           0.000 6         0.00006        -0.121 6        38.281  
I09  36097386.802 8 141651098.17308      -118.988 8        51.250    36097381.175 7 300053286.76007      -252.188 7        44.844  
I10  39415728.881 7 154672646.07907       -70.208 7        43.125    39415723.471 6 327636972.34806      -148.771 6        37.188  
> 2024 01 02  0 41  0.0000000  0  9      -214.478946869982
I01         0.000 8         0.00008        -0.093 8        50.781           0.000 4         0.00004        -0.197 4        24.062  
I02  39508743.390 7 155037627.94007       -72.111 7        42.656    39508738.604 5 328410156.62005      -152.449 5        35.938  
I03  36499758.907 8 143229776.10508        16.677 8        50.312    36499753.233 7 303397991.53207        35.262 7        44.688  
I04         0.000 7         0.00007        -0.093 7        45.156           0.000 6         0.00006        -0.197 6        38.281  
I05         0.000 7         0.00007        -0.093 7        47.656           0.000 7         0.00007        -0.197 7        42.188  
I06  38363383.501 7 150543108.34007       -50.230 7        44.844    38363377.041 6 318889337.54006      -106.610 6        38.906  
I07         0.000 7         0.00007        -0.093 7        43.125           0.000 6         0.00006        -0.197 6        38.438  
I09  36096476.901 8 141647527.98108      -119.047 8        51.250    36096471.203 7 300045724.16207      -252.219 7        44.844  
I10  39415192.694 7 154670542.37507       -70.226 7        42.969    39415187.703 6 327632516.27506      -148.744 6        37.188  
> 2024 01 02  0 41 30.0000000  0  9      -213.374455568949
I01         0.000 8         0.00008        -0.074 8        50.781           0.000 4         0.00004        -0.156 4        24.219  
I02  39508188.079 7 155035447.16707       -73.672 7        42.812    39508182.976 5 328405537.25205      -155.861 5        35.781  
I03  36499887.798 8 143230282.04008        16.797 8        50.156    36499882.291 7 303399063.25207        35.615 7        44.688  
I04         0.000 7         0.00007        -0.074 7        45.156           0.000 6         0.00006        -0.156 6        37.969  
I05         0.000 7         0.00007        -0.074 7        47.969           0.000 7         0.00007        -0.156 7        42.344  
I06  38362999.342 7 150541599.55407       -50.400 7        44.844    38362992.816 6 318886141.56406      -106.794 6        38.906  
I07         0.000 7         0.00007        -0.074 7        42.969           0.000 6         0.00006        -0.156 6        38.438  
I09  36095567.270 8 141643958.20708      -119.032 8        51.094    36095561.584 7 300038162.46007      -252.245 7        45.000  
I10  39414656.406 7 154668436.72907       -70.192 7        43.125    39414650.810 6 327628056.08206      -148.724 6        36.875  
> 2024 01 02  0 42  0.0000000  0  9      -213.871596758160
I01         0.000 8         0.00008        -0.077 8        50.938           0.000 4         0.00004        -0.163 4        24.219  
I02  39507618.084 7 155033211.91007       -75.759 7        42.656    39507613.131 5 328400802.50805      -160.264 5        35.781  
I03  36500017.863 8 143230792.41108        17.003 8        50.312    36500012.039 7 303400144.37807        35.977 7        44.688  
I04         0.000 7         0.00007        -0.077 7        44.844           0.000 6         0.00006        -0.163 6        38.125  
I05         0.000 8         0.00008        -0.077 8        48.438           0.000 7         0.00007        -0.163 7        42.500  
I06  38362614.792 7 150540090.19607       -50.301 7        45.000    38362607.463 6 318882944.36606      -106.655 6        38.906  
I07         0.000 7         0.00007        -0.077 7        43.125           0.000 6         0.00006        -0.163 6        38.438  
I09  36094657.655 8 141640388.84308      -119.070 8        51.094    36094652.124 7 300030601.63407      -252.353 7        45.156  
I10  39414119.153 7 154666329.15607       -70.156 7        42.969    39414113.974 6 327623591.80106      -149.168 6        37.188  
> 2024 01 02  0 42 30.0000000  0  9      -213.196964192970
I01         0.000 8         0.00008        -0.111 8        50.781           0.000 4         0.00004        -0.235 4        24.375  
I02  39507034.646 7 155030921.42807       -77.642 7        42.812    39507029.706 5 328395950.75305      -164.151 5        35.625  
I03  36500148.984 8 143231307.17808        17.137 8        50.156    36500143.228 7 303401234.81307        36.448 7        44.688  
I04         0.000 7         0.00007        -0.111 7        44.844           0.000 6         0.00006        -0.235 6        38.281  
I05         0.000 8         0.00008        -0.111 8        48.594           0.000 7         0.00007        -0.235 7        42.969  
I06  38362229.999 7 150538580.26007       -50.401 7        45.000    38362223.151 6 318879745.95406      -106.649 6        39.062  
I07         0.000 7         0.00007        -0.111 7        43.125           0.000 6         0.00006        -0.235 6        38.281  
I09  36093748.147 8 141636819.92208      -118.994 8        51.094    36093742.764 7 300023041.76407      -252.219 7        45.156  
I10  39413581.738 7 154664219.67207       -70.471 7        43.125    39413576.542 6 327619123.49206      -149.142 6        37.188  
> 2024 01 02  0 43  0.0000000  0  9      -213.211367506767
I01         0.000 8         0.00008         0.004 8        50.781           0.000 3         0.00003         0.009 3        23.906  
I02  39506437.160 7 155028576.18507       -79.036 7        42.812    39506432.285 6 328390983.01806      -167.447 6        36.094  
I03  36500281.314 8 143231826.36508        17.392 8        50.156    36500275.650 7 303402334.61707        36.856 7        44.688  
I04         0.000 7         0.00007         0.004 7        44.688           0.000 6         0.00006         0.009 6        38.438  
I05         0.000 8         0.00008         0.004 8        48.594           0.000 7         0.00007         0.009 7        42.812  
I06  38361845.012 7 150537069.74607       -50.131 7        45.000    38361837.971 6 318876546.30906      -106.526 6        38.750  
I07         0.000 7         0.00007         0.004 7        43.281           0.000 6         0.00006         0.009 6        38.594  
I09  36092838.852 8 141633251.47408      -118.855 8        50.938    36092833.584 7 300015482.89807      -251.986 7        45.156  
I10  39413043.529 7 154662108.28707       -70.338 7        42.969    39413038.819 6 327614651.15906      -149.245 6        37.188  
> 2024 01 02  0 43 30.0000000  0  9      -213.557963452542
I01         0.000 8         0.00008        -0.066 8        50.781           0.000 3         0.00003        -0.140 3        23.750  
I02  39505825.233 7 155026175.64807       -80.868 7        42.812    39505819.970 5 328385898.14605      -171.751 5        35.625  
I03  36500414.820 8 143232349.98008        17.492 8        50.312    36500409.031 7 303403443.81307        37.278 7        44.375  
I04         0.000 7         0.00007        -0.066 7        44.688           0.000 6         0.00006        -0.140 6        38.125  
I05         0.000 8         0.00008        -0.066 8        48.438           0.000 7         0.00007        -0.140 7        42.344  
I06  38361459.897 7 150535558.67707       -50.553 7        45.000    38361453.213 6 318873345.50106      -106.863 6        38.750  
I07         0.000 7         0.00007        -0.066 7        43.125           0.000 6         0.00006        -0.140 6        38.281  
I09  36091929.532 8 141629683.49608      -119.026 8        50.938    36091924.506 7 300007925.02707      -252.051 7        45.156  
I10  39412505.019 7 154659995.00607       -70.461 7        42.812    39412499.770 6 327610174.81706      -149.373 6        37.188  
> 2024 01 02  0 44  0.0000000  0  9      -213.051779307423
I01         0.000 8         0.00008        -0.113 8        50.625           0.000 3         0.00003        -0.240 3        23.906  
I02  39505199.635 7 155023720.32807       -82.975 7        42.812    39505194.577 5 328380697.22405      -175.679 5        35.781  
I03  36500549.452 8 143232878.00108        17.575 8        50.156    36500543.693 7 303404562.32707        37.064 7        44.062  
I04         0.000 7         0.00007        -0.113 7        44.844           0.000 6         0.00006        -0.240 6        37.969  
I05         0.000 8         0.00008        -0.113 8        48.594           0.000 7         0.00007        -0.240 7        42.188  
I06  38361074.807 7 150534047.05207       -50.475 7        45.000    38361068.429 6 318870143.49406      -106.960 6        38.438  
I07         0.000 7         0.00007        -0.113 7        43.281           0.000 6         0.00006        -0.240 6        38.125  
I09  36091020.465 8 141626116.03408      -119.021 8        50.781    36091015.543 7 300000368.23807      -252.167 7        44.844  
I10  39411966.192 7 154657879.84707       -70.736 7        42.812    39411961.266 6 327605694.50906      -149.654 6        36.875  
> 2024 01 02  0 44 30.0000000  0  9      -213.467139057432
I01         0.000 8         0.00008        -0.172 8        50.781           0.000 4         0.00004        -0.365 4        25.781  
I02  39504559.992 7 155021210.46507       -84.807 7        42.812    39504555.680 5 328375380.78405      -179.433 5        35.781  
I03  36500685.123 8 143233410.42508        17.573 8        50.312    36500679.292 7 303405690.17607        37.424 7        44.219  
I04         0.000 7         0.00007        -0.172 7        44.375           0.000 6         0.00006        -0.365 6        38.906  
I05         0.000 8         0.00008        -0.172 8        48.594           0.000 7         0.00007        -0.365 7        42.656  
I06  38360689.048 7 150532534.89407       -50.818 7        44.844    38360682.129 6 318866940.35606      -107.310 6        37.969  
I07         0.000 7         0.00007        -0.172 7        43.281           0.000 6         0.00006        -0.365 6        38.438  
I09  36090111.610 8 141622549.04508      -119.057 8        50.938    36090106.750 7 299992812.46007      -252.180 7        45.312  
I10  39411426.335 7 154655762.82707       -70.854 7        42.500    39411420.816 6 327601210.23206      -149.970 6        36.562  
> 2024 01 02  0 45  0.0000000  0  9      -213.248886433236
I01         0.000 8         0.00008        -0.017 8        50.625           0.000 3         0.00003        -0.037 3        20.312  
I02  39503906.684 7 155018646.62807       -86.161 7        42.344    39503901.982 6 328369950.04506      -182.491 6        36.406  
I03  36500821.873 8 143233947.25408        18.010 8        50.312    36500816.178 7 303406827.35207        38.039 7        44.844  
I04         0.000 7         0.00007        -0.017 7        44.688           0.000 6         0.00006        -0.037 6        39.062  
I05         0.000 8         0.00008        -0.017 8        48.438           0.000 7         0.00007        -0.037 7        42.812  
I06  38360303.552 7 150531022.15507       -50.388 7        44.688    38360296.622 6 318863736.02406      -106.899 6        38.594  
I07         0.000 7         0.00007        -0.017 7        43.125           0.000 6         0.00006        -0.037 6        38.594  
I09  36089202.668 8 141618982.61908      -118.882 8        50.781    36089197.832 7 299985257.86407      -251.848 7        45.312  
I10  39410886.538 7 154653643.93707       -70.731 7        42.812    39410881.350 6 327596722.03306      -149.619 6        37.188  
> 2024 01 02  0 45 30.0000000  0  9      -212.729491042530
I01         0.000 8         0.00008        -0.064 8        50.781           0.000 4         0.00004        -0.136 4        24.062  
I02  39503239.659 7 155016027.52807       -88.100 7        42.656    39503234.921 6 328364402.22206      -187.216 6        36.406  
I03  36500959.896 8 143234488.47408        18.055 8        50.312    36500953.982 7 303407973.83507        38.179 7        44.531  
I04         0.000 7         0.00007        -0.064 7        44.844           0.000 6         0.00006        -0.136 6        39.219  
I05         0.000 7         0.00007        -0.064 7        47.969           0.000 7         0.00007        -0.136 7        42.344  
I06  38359918.282 7 150529508.89107       -50.499 7        45.156    38359911.501 6 318860530.55906      -107.012 6        39.062  
I07         0.000 7         0.00007        -0.064 7        43.125           0.000 6         0.00006        -0.136 6        38.438  
I09  36088293.961 8 141615416.70508      -118.941 8        50.938    36088288.771 7 299977704.36207      -251.960 7        45.156  
I10  39410346.483 7 154651523.21607       -70.867 7        42.969    39410341.052 6 327592229.93106      -150.166 6        37.031  
> 2024 01 02  0 46  0.0000000  0  9      -213.144623506835
I01         0.000 8         0.00008        -0.199 8        50.625           0.000 3         0.00003        -0.421 3        23.906  
I02  39502558.106 7 155013354.41707       -90.284 7        42.500    39502553.675 6 328358739.96906      -191.680 6        36.562  
I03  36501098.893 8 143235034.09508        18.111 8        50.312    36501093.077 7 303409129.63307        38.217 7        44.531  
I04         0.000 7         0.00007        -0.199 7        44.844           0.000 6         0.00006        -0.421 6        38.594  
I05         0.000 7         0.00007        -0.199 7        47.812           0.000 7         0.00007        -0.421 7        42.500  
I06  38359532.351 7 150527995.07407       -50.671 7        45.000    38359525.722 6 318857323.92506      -107.062 6        38.750  
I07         0.000 7         0.00007        -0.199 7        43.125           0.000 6         0.00006        -0.421 6        38.594  
I09  36087385.392 8 141611851.37808      -119.085 8        50.938    36087380.272 7 299970152.08607      -252.239 7        45.156  
I10  39409805.521 7 154649400.66807       -71.501 7        42.812    39409799.746 6 327587733.98406      -150.275 6        36.719  
> 2024 01 02  0 46 30.0000000  0  9      -212.971863810931
I01         0.000 8         0.00008        -0.048 8        50.469           0.000 4         0.00004        -0.103 4        24.844  
I02  39501862.706 7 155010626.71907       -91.831 7        42.500    39501858.681 6 328352962.07406      -194.643 6        36.562  
I03  36501239.071 8 143235584.11208        18.237 8        50.156    36501232.973 7 303410294.74307        38.732 7        44.531  
I04         0.000 7         0.00007        -0.048 7        44.844           0.000 6         0.00006        -0.103 6        38.438  
I05         0.000 7         0.00007        -0.048 7        47.812           0.000 7         0.00007        -0.103 7        42.656  
I06  38359146.737 7 150526480.74107       -50.422 7        45.000    38359140.068 6 318854116.21506      -106.913 6        39.062  
I07         0.000 7         0.00007        -0.048 7        43.281           0.000 6         0.00006        -0.103 6        38.438  
I09  36086476.918 8 141608286.61308      -118.834 8        50.938    36086471.859 7 299962601.02407      -251.734 7        45.000  
I10  39409264.593 7 154647276.29807       -70.805 7        42.969    39409258.821 6 327583234.15406      -150.321 6        37.031  
> 2024 01 02  0 47  0.0000000  0  9      -212.464623008725
I01         0.000 8         0.00008        -0.100 8        50.469           0.000 4         0.00004        -0.213 4        24.531  
I02  39501153.903 7 155007844.16907       -93.648 7        42.344    39501149.763 6 328347068.05306      -198.495 6        36.406  
I03  36501380.143 8 143236138.54508        18.479 8        50.156    36501374.492 7 303411469.20407        39.054 7        44.688  
I04         0.000 7         0.00007        -0.100 7        44.688           0.000 6         0.00006        -0.213 6        38.281  
I05         0.000 7         0.00007        -0.100 7        47.812           0.000 7         0.00007        -0.213 7        42.656  
I06  38358760.961 7 150524965.91407       -50.521 7        45.156    38358754.394 6 318850907.43406      -107.366 6        39.062  
I07         0.000 7         0.00007        -0.100 7        43.125           0.000 6         0.00006        -0.213 6        38.438  
I09  36085568.710 8 141604722.47808      -118.926 8        50.938    36085563.283 7 299955051.28307      -251.802 7        45.156  
I10  39408722.686 7 154645150.11507       -71.286 7        43.125    39408717.044 6 327578730.52406      -150.485 6        37.188  
> 2024 01 02  0 47 30.0000000  0  9      -212.840894379423
I01         0.000 8         0.00008        -0.155 8        50.469           0.000 4         0.00004        -0.328 4        24.531  
I02  39500430.528 7 155005006.48807       -95.357 7        42.344    39500426.763 6 328341057.22906      -202.480 6        36.719  
I03  36501522.633 8 143236697.37508        18.554 8        50.156    36501516.817 7 303412652.97907        39.432 7        44.531  
I04         0.000 7         0.00007        -0.155 7        44.688           0.000 6         0.00006        -0.328 6        37.656  
I05         0.000 7         0.00007        -0.155 7        47.812           0.000 7         0.00007        -0.328 7        42.500  
I06  38358374.363 7 150523450.51807       -50.732 7        45.156    38358368.260 6 318847697.46306      -107.190 6        39.062  
I07         0.000 7         0.00007        -0.155 7        43.281           0.000 6         0.00006        -0.328 6        38.438  
I09  36084660.686 8 141601158.95908      -118.949 8        50.938    36084655.244 7 299947502.82707      -251.946 7        45.000  
I10  39408180.473 7 154643022.15207       -71.687 7        42.969    39408174.934 6 327574223.09806      -150.465 6        37.031  
> 2024 01 02  0 48  0.0000000  0  9      -212.803520148957
I01         0.000 8         0.00008        -0.066 8        50.469           0.000 4         0.00004        -0.140 4        25.000  
I02  39499693.741 7 155002115.08107       -97.427 7        42.812    39499689.570 6 328334932.61206      -206.074 6        36.562  
I03  36501666.092 8 143237260.58808        18.804 8        50.312    36501660.381 7 303413846.03807        39.824 7        44.375  
I04         0.000 7         0.00007        -0.066 7        44.531           0.000 6         0.00006        -0.140 6        37.500  
I05         0.000 7         0.00007        -0.066 7        47.500           0.000 7         0.00007        -0.140 7        42.188  
I06  38357988.155 7 150521934.69907       -50.455 7        45.000    38357982.050 6 318844486.59306      -107.195 6        38.750  
I07         0.000 7         0.00007        -0.066 7        43.125           0.000 6         0.00006        -0.140 6        38.594  
I09  36083752.775 8 141597596.04608      -118.870 8        50.938    36083746.999 7 299939955.67107      -251.681 7        44.844  
I10  39407637.708 7 154640892.40107       -71.053 7        42.969    39407632.275 6 327569711.91406      -150.591 6        36.719  
> 2024 01 02  0 48 30.0000000  0  9      -212.601504025724
I01         0.000 8         0.00008        -0.131 8        50.469           0.000 3         0.00003        -0.278 3        22.969  
I02  39498943.597 7 154999169.38007       -99.252 7        42.656    39498939.679 6 328328692.96806      -210.309 6        36.562  
I03  36501810.834 8 143237828.15008        18.802 8        50.156    36501805.099 7 303415048.31707        40.019 7        44.531  
I04         0.000 7         0.00007        -0.131 7        44.844           0.000 6         0.00006        -0.278 6        37.812  
I05         0.000 7         0.00007        -0.131 7        47.656           0.000 7         0.00007        -0.278 7        42.188  
I06  38357601.763 7 150520418.31207       -50.783 7        45.312    38357595.358 6 318841274.52706      -107.206 6        38.750  
I07         0.000 7         0.00007        -0.131 7        43.281           0.000 6         0.00006        -0.278 6        38.438  
I09  36082844.928 8 141594033.80208      -118.891 8        50.938    36082839.424 7 299932409.91907      -251.801 7        44.844  
I10  39407094.805 7 154638760.87307       -71.248 7        42.969    39407089.370 6 327565196.95906      -150.839 6        36.875  
> 2024 01 02  0 49  0.0000000  0  9      -212.661586079729
I01         0.000 8         0.00008        -0.117 8        50.469           0.000 4         0.00004        -0.248 4        24.219  
I02  39498179.130 7 154996168.79507      -101.238 7        42.969    39498174.392 6 328322337.08506      -213.958 6        36.562  
I03  36501956.594 8 143238400.08608        19.032 8        50.156    36501950.698 7 303416259.85607        40.307 7        44.688  
I04         0.000 7         0.00007        -0.117 7        45.000           0.000 6         0.00006        -0.248 6        37.500  
I05         0.000 7         0.00007        -0.117 7        47.344           0.000 7         0.00007        -0.248 7        42.500  
I06  38357215.217 7 150518901.42907       -50.721 7        45.312    38357209.228 6 318838061.40706      -107.341 6        39.219  
I07         0.000 7         0.00007        -0.117 7        43.281           0.000 6         0.00006        -0.248 6        38.594  
I09  36081937.373 8 141590472.24108      -118.861 8        50.781    36081931.853 7 299924865.60607      -251.633 7        45.156  
I10  39406551.334 7 154636627.60507       -71.155 7        42.812    39406545.768 6 327560678.31406      -150.989 6        36.875  
> 2024 01 02  0 49 30.0000000  0  9      -212.895506953349
I01         0.000 8         0.00008        -0.123 8        50.469           0.000 3         0.00003        -0.261 3        20.938  
I02  39497401.014 7 154993115.17607      -102.833 7        42.969    39497396.154 6 328315868.83106      -217.619 6        36.406  
I03  36502103.519 8 143238976.39808        19.079 8        50.156    36502097.718 7 303417480.66907        40.478 7        44.531  
I04         0.000 7         0.00007        -0.123 7        45.469           0.000 6         0.00006        -0.261 6        37.500  
I05         0.000 7         0.00007        -0.123 7        47.500           0.000 7         0.00007        -0.261 7        42.188  
I06  38356828.753 7 150517384.06407       -50.746 7        45.312    38356821.926 6 318834847.25006      -107.356 6        39.219  
I07         0.000 7         0.00007        -0.123 7        43.125           0.000 6         0.00006        -0.261 6        38.594  
I09  36081029.936 8 141586911.38608      -118.772 8        50.781    36081024.615 7 299917322.79307      -251.558 7        45.000  
I10  39406006.897 7 154634492.59107       -71.443 7        42.969    39406000.505 6 327556155.97606      -151.188 6        36.562  
> 2024 01 02  0 50  0.0000000  0  9      -213.194998258865
I01         0.000 8         0.00008        -0.087 8        50.469           0.000 4         0.00004        -0.185 4        25.625  
I02  39496609.215 7 154990006.91607      -104.592 7        43.125    39496604.408 6 328309284.86306      -221.812 6        36.094  
I03  36502251.420 8 143239557.08008        19.342 8        50.156    36502245.677 7 303418710.75407        41.140 7        44.219  
I04         0.000 7         0.00007        -0.087 7        45.312           0.000 6         0.00006        -0.185 6        36.875  
I05         0.000 7         0.00007        -0.087 7        47.812           0.000 7         0.00007        -0.185 7        42.188  
I06  38356441.832 7 150515866.17607       -50.622 7        45.312    38356435.297 6 318831632.01606      -107.324 6        38.906  
I07         0.000 7         0.00007        -0.087 7        43.594           0.000 6         0.00006        -0.185 6        38.125  
I09  36080122.717 8 141583351.27308      -118.737 8        50.781    36080117.331 7 299909781.55707      -251.564 7        44.531  
I10  39405462.700 7 154632355.84507       -71.456 7        42.812    39405456.421 6 327551629.96506      -151.023 6        36.250  
> 2024 01 02  0 50 30.0000000  0  9      -213.259583161418
I01         0.000 8         0.00008        -0.071 8        50.469           0.000 3         0.00003        -0.150 3        20.156  
I02  39495803.810 7 154986843.80607      -106.457 7        43.438    39495798.153 6 328302584.68206      -225.033 6        36.250  
I03  36502400.615 8 143240142.12508        19.598 8        50.156    36502394.704 7 303419950.07307        41.313 7        44.531  
I04         0.000 7         0.00007        -0.071 7        45.312           0.000 6         0.00006        -0.150 6        37.500  
I05         0.000 7         0.00007        -0.071 7        47.969           0.000 6         0.00006        -0.150 6        41.875  
I06  38356054.864 7 150514347.83607       -50.686 7        45.156    38356048.508 6 318828415.79406      -107.194 6        38.750  
I07         0.000 7         0.00007        -0.071 7        43.281           0.000 6         0.00006        -0.150 6        38.594  
I09  36079215.803 8 141579791.91108      -118.784 8        50.781    36079210.240 7 299902241.90307      -251.510 7        45.000  
I10  39404917.581 7 154630217.38907       -71.274 7        42.812    39404911.575 6 327547100.34706      -150.973 6        36.719  
> 2024 01 02  0 51  0.0000000  0  9      -213.811500175407
I01         0.000 8         0.00008        -0.092 8        50.469           0.000 3         0.00003        -0.195 3        23.125  
I02  39494983.714 7 154983627.62307      -108.028 7        43.281    39494978.656 6 328295772.12106      -229.239 6        36.250  
I03  36502550.755 8 143240731.54208        19.605 8        50.156    36502545.105 7 303421198.65807        41.513 7        44.375  
I04         0.000 7         0.00007        -0.092 7        45.156           0.000 6         0.00006        -0.195 6        37.031  
I05         0.000 7         0.00007        -0.092 7        47.969           0.000 7         0.00007        -0.195 7        42.031  
I06  38355667.799 7 150512829.01507       -50.787 7        45.156    38355661.250 6 318825198.58006      -107.559 6        38.750  
I07         0.000 7         0.00007        -0.092 7        43.125           0.000 6         0.00006        -0.195 6        38.438  
I09  36078308.812 8 141576233.27508      -118.856 8        50.781    36078303.354 7 299894703.80607      -251.329 7        45.000  
I10  39404372.443 7 154628077.22107       -71.453 7        42.969    39404366.183 6 327542567.09706      -151.355 6        36.719  
> 2024 01 02  0 51 30.0000000  0  9      -213.224331216864
I01         0.000 8         0.00008        -0.023 8        50.625           0.000 3         0.00003        -0.048 3        21.875  
I02  39494150.499 7 154980356.99407      -109.880 7        43.125    39494144.940 6 328288844.21806      -233.432 6        36.406  
I03  36502702.132 8 143241325.31008        19.802 8        50.156    36502696.285 7 303422456.45407        41.963 7        44.688  
I04         0.000 7         0.00007        -0.023 7        44.844           0.000 6         0.00006        -0.048 6        37.500  
I05         0.000 8         0.00008        -0.023 8        48.125           0.000 7         0.00007        -0.048 7        42.188  
I06  38355280.843 7 150511309.74007       -50.514 7        45.312    38355274.265 6 318821980.40906      -107.493 6        38.594  
I07         0.000 7         0.00007        -0.023 7        43.125           0.000 6         0.00006        -0.048 6        38.594  
I09  36077402.270 8 141572675.45408      -118.505 8        50.781    36077396.857 7 299887167.44407      -251.239 7        45.156  
I10  39403826.588 7 154625935.35007       -71.428 7        42.969    39403820.716 6 327538030.22906      -151.454 6        36.562  
> 2024 01 02  0 52  0.0000000  0  9      -213.139240647527
I01         0.000 8         0.00008        -0.049 8        50.625           0.000 4         0.00004        -0.104 4        25.469  
I02  39493302.934 7 154977031.66907      -111.596 7        42.812    39493298.465 6 328281800.45006      -236.797 6        36.562  
I03  36502854.368 8 143241923.39808        19.904 8        50.156    36502848.701 7 303423723.41507        42.198 7        44.531  
I04         0.000 7         0.00007        -0.049 7        44.844           0.000 6         0.00006        -0.104 6        38.125  
I05         0.000 8         0.00008        -0.049 8        48.125           0.000 7         0.00007        -0.104 7        42.031  
I06  38354893.486 7 150509790.01007       -50.703 7        45.156    38354886.878 6 318818761.26706      -107.576 6        38.750  
I07         0.000 7         0.00007        -0.049 7        43.281           0.000 6         0.00006        -0.104 6        38.594  
I09  36076495.845 8 141569118.44908      -118.657 8        50.781    36076490.799 7 299879632.79407      -251.035 7        45.312  
I10  39403280.507 7 154623791.79807       -71.431 7        42.969    39403273.751 6 327533489.82206      -151.896 6        36.094  
> 2024 01 02  0 52 30.0000000  0  9      -213.331656125610
I01         0.000 8         0.00008        -0.185 8        50.781           0.000 4         0.00004        -0.391 4        24.688  
I02  39492442.025 7 154973653.04007      -113.754 7        42.812    39492437.194 6 328274643.76106      -241.094 6        36.719  
I03  36503007.989 8 143242525.88108        20.034 8        50.156    36503002.176 7 303424999.67807        42.429 7        44.688  
I04         0.000 7         0.00007        -0.185 7        45.312           0.000 6         0.00006        -0.391 6        38.281  
I05         0.000 8         0.00008        -0.185 8        48.281           0.000 7         0.00007        -0.391 7        42.344  
I06  38354506.054 7 150508269.83507       -50.892 7        45.312    38354499.367 6 318815541.16706      -107.707 6        38.750  
I07         0.000 7         0.00007        -0.185 7        43.281           0.000 6         0.00006        -0.391 6        38.750  
I09  36075589.627 8 141565562.28208      -118.771 8        50.781    36075584.409 7 299872099.92607      -251.373 7        45.156  
I10  39402733.855 7 154621646.59507       -72.148 7        42.969    39402727.468 5 327528945.91705      -152.243 5        35.938  
> 2024 01 02  0 53  0.0000000  0  9      -213.563252702568
I01         0.000 8         0.00008        -0.061 8        50.781           0.000 4         0.00004        -0.130 4        24.688  
I02  39491567.356 7 154970220.73107      -115.378 7        42.969    39491562.719 6 328267373.43206      -244.823 6        36.562  
I03  36503162.702 8 143243132.71308        20.252 8        50.156    36503156.872 7 303426285.15007        42.850 7        44.531  
I04         0.000 7         0.00007        -0.061 7        45.469           0.000 6         0.00006        -0.130 6        38.594  
I05         0.000 8         0.00008        -0.061 8        48.281           0.000 7         0.00007        -0.130 7        42.500  
I06  38354118.470 7 150506749.19907       -50.842 7        45.156    38354111.805 6 318812320.10406      -107.475 6        38.750  
I07         0.000 7         0.00007        -0.061 7        43.281           0.000 6         0.00006        -0.130 6        38.594  
I09  36074683.727 8 141562006.95908      -118.507 8        50.781    36074678.410 7 299864568.84607      -251.099 7        45.156  
I10  39402186.671 7 154619499.73607       -71.510 7        42.812    39402180.211 5 327524398.49305      -151.842 5        35.781  
> 2024 01 02  0 53 30.0000000  0  9      -213.871204387494
I01         0.000 8         0.00008        -0.126 8        50.781           0.000 4         0.00004        -0.266 4        24.688  
I02  39490679.109 7 154966734.53807      -117.195 7        43.125    39490674.053 6 328259988.92306      -248.268 6        36.562  
I03  36503318.455 8 143243743.87908        20.256 8        50.156    36503312.556 7 303427579.79307        42.927 7        44.531  
I04         0.000 7         0.00007        -0.126 7        45.469           0.000 6         0.00006        -0.266 6        39.219  
I05         0.000 8         0.00008        -0.126 8        48.438           0.000 7         0.00007        -0.266 7        42.344  
I06  38353730.808 7 150505228.10507       -50.732 7        45.156    38353724.339 6 318809098.07206      -107.484 6        38.750  
I07         0.000 7         0.00007        -0.126 7        43.281           0.000 6         0.00006        -0.266 6        38.594  
I09  36073777.946 8 141558452.53708      -118.577 8        50.938    36073772.651 7 299857039.67707      -251.255 7        45.156  
I10  39401639.219 7 154617351.23607       -72.067 7        42.969    39401632.774 5 327519847.57705      -152.133 5        35.781  
> 2024 01 02  0 54  0.0000000  0  9      -213.663594183881
I01         0.000 8         0.00008        -0.114 8        50.781           0.000 3         0.00003        -0.241 3        22.812  
I02  39489777.367 7 154963195.03307      -118.883 7        42.969    39489771.892 6 328252491.45306      -252.536 6        36.406  
I03  36503475.252 8 143244359.38408        20.425 8        50.156    36503469.508 7 303428883.64007        43.415 7        44.688  
I04         0.000 7         0.00007        -0.114 7        45.312           0.000 6         0.00006        -0.241 6        39.531  
I05         0.000 8         0.00008        -0.114 8        48.281           0.000 7         0.00007        -0.241 7        42.188  
I06  38353343.176 7 150503706.59807       -51.053 7        45.000    38353336.461 6 318805875.17306      -107.520 6        38.750  
I07         0.000 7         0.00007        -0.114 7        43.281           0.000 6         0.00006        -0.241 6        38.750  
I09  36072872.396 8 141554898.98808      -118.412 8        50.938    36072867.117 7 299849512.37007      -250.943 7        45.000  
I10  39401091.547 7 154615201.09607       -71.957 7        42.656    39401084.935 5 327515293.22405      -152.421 5        35.781  
> 2024 01 02  0 54 30.0000000  0  9      -214.877543550039
I01         0.000 8         0.00008        -0.066 8        50.781           0.000 4         0.00004        -0.139 4        26.250  
I02  39488861.845 7 154959602.20607      -120.616 7        42.969    39488856.934 6 328244881.08306      -255.747 6        36.562  
I03  36503633.194 8 143244979.24108        20.762 8        50.156    36503627.357 7 303430196.70107        43.721 7        44.688  
I04         0.000 7         0.00007        -0.066 7        45.312           0.000 6         0.00006        -0.139 6        39.375  
I05         0.000 8         0.00008        -0.066 8        48.281           0.000 6         0.00006        -0.139 6        41.719  
I06  38352955.351 7 150502184.66807       -50.861 7        45.000    38352948.596 6 318802651.36206      -107.379 6        38.906  
I07         0.000 7         0.00007        -0.066 7        43.281           0.000 6         0.00006        -0.139 6        38.750  
I09  36071967.089 8 141551346.38508      -118.487 8        50.781    36071961.661 7 299841987.04907      -250.901 7        45.000  
I10  39400543.108 7 154613049.34907       -71.881 7        42.656    39400536.709 5 327510735.45805      -152.081 5        35.781  
> 2024 01 02  0 55  0.0000000  0  9      -214.386376668961
I01         0.000 8         0.00008        -0.095 8        50.781           0.000 3         0.00003        -0.201 3        22.031  
I02  39487932.847 7 154955954.36607      -122.561 7        42.969    39487928.098 6 328237154.16806      -259.919 6        36.562  
I03  36503792.359 8 143245603.40008        20.816 8        50.156    36503786.793 7 303431518.88307        44.047 7        44.531  
I04         0.000 7         0.00007        -0.095 7        45.312           0.000 6         0.00006        -0.201 6        39.219  
I05         0.000 8         0.00008        -0.095 8        48.125           0.000 6         0.00006        -0.201 6        41.875  
I06  38352567.298 7 150500662.31707       -50.766 7        45.000    38352561.140 6 318799426.67606      -107.730 6        38.750  
I07         0.000 7         0.00007        -0.095 7        43.281           0.000 6         0.00006        -0.201 6        38.750  
I09  36071062.096 8 141547794.75008      -118.522 8        50.781    36071056.743 7 299834463.78207      -250.869 7        45.156  
I10  39399994.727 7 154610895.99907       -72.018 7        42.656    39399987.720 5 327506174.27005      -152.580 5        35.625  
> 2024 01 02  0 55 30.0000000  0  9      -215.045583087468
I01         0.000 8         0.00008        -0.106 8        50.781           0.000 3         0.00003        -0.225 3        21.875  
I02  39486989.688 7 154952253.91707      -124.564 7        42.812    39486984.390 6 328229315.79706      -263.777 6        36.406  
I03  36503952.470 8 143246231.88808        20.928 8        50.156    36503946.602 7 303432850.23707        44.280 7        44.531  
I04         0.000 7         0.00007        -0.106 7        45.469           0.000 6         0.00006        -0.225 6        39.375  
I05         0.000 8         0.00008        -0.106 8        48.125           0.000 7         0.00007        -0.225 7        42.031  
I06  38352179.136 7 150499139.55907       -50.779 7        45.000    38352173.083 6 318796201.10606      -107.726 6        38.750  
I07         0.000 7         0.00007        -0.106 7        43.281           0.000 6         0.00006        -0.225 6        38.750  
I09  36070157.313 8 141544244.09608      -118.452 8        50.938    36070151.611 7 299826942.60407      -250.879 7        45.156  
I10  39399445.487 7 154608741.04707       -71.967 7        42.656    39399438.388 5 327501609.72505      -152.701 5        35.781  
> 2024 01 02  0 56  0.0000000  0  9      -214.897021990021
I01         0.000 8         0.00008        -0.109 8        50.781           0.000 3         0.00003        -0.231 3        22.031  
I02  39486033.549 7 154948500.05507      -126.319 7        43.125    39486027.560 6 328221364.30006      -267.527 6        36.719  
I03  36504113.843 8 143246864.71608        21.109 8        50.156    36504107.957 7 303434190.78707        44.709 7        44.531  
I04         0.000 7         0.00007        -0.109 7        45.312           0.000 6         0.00006        -0.231 6        39.219  
I05         0.000 8         0.00008        -0.109 8        48.281           0.000 6         0.00006        -0.231 6        41.875  
I06  38351791.038 7 150497616.35607       -50.856 7        45.000    38351784.907 6 318792974.60706      -108.164 6        38.906  
I07         0.000 7         0.00007        -0.109 7        43.281           0.000 6         0.00006        -0.231 6        38.594  
I09  36069252.832 8 141540694.47308      -118.322 8        50.938    36069247.286 7 299819423.59307      -250.783 7        45.000  
I10  39398895.910 7 154606584.48707       -72.143 7        42.812    39398889.116 5 327497041.79605      -152.549 5        35.781  
> 2024 01 02  0 56 30.0000000  0  9      -214.771724213368
I01         0.000 8         0.00008        -0.107 8        50.781           0.000 4         0.00004        -0.227 4        25.000  
I02  39485063.007 7 154944692.32807      -127.909 7        42.812    39485057.352 6 328213298.72106      -271.185 6        36.250  
I03  36504276.236 8 143247501.87208        21.207 8        50.156    36504270.406 7 303435540.50807        44.801 7        44.531  
I04         0.000 7         0.00007        -0.107 7        45.469           0.000 6         0.00006        -0.227 6        39.375  
I05         0.000 8         0.00008        -0.107 8        48.125           0.000 6         0.00006        -0.227 6        41.875  
I06  38351402.888 7 150496092.76807       -50.894 7        45.000    38351396.940 6 318789747.30706      -107.764 6        39.062  
I07         0.000 7         0.00007        -0.107 7        43.281           0.000 6         0.00006        -0.227 6        38.750  
I09  36068348.522 8 141537145.88608      -118.456 8        50.938    36068342.749 7 299811906.76907      -250.836 7        45.000  
I10  39398345.986 7 154604426.37407       -72.127 7        42.656    39398339.032 5 327492470.56105      -152.883 5        35.781  
> 2024 01 02  0 57  0.0000000  0  9      -215.253265591863
I01         0.000 8         0.00008        -0.115 8        50.781           0.000 4         0.00004        -0.243 4        25.000  
I02  39484079.065 7 154940830.68607      -129.709 7        42.656    39484073.069 6 328205118.94706      -274.495 6        36.250  
I03  36504439.656 8 143248143.34108        21.308 8        50.156    36504433.734 7 303436899.36707        45.131 7        44.531  
I04         0.000 7         0.00007        -0.115 7        45.312           0.000 6         0.00006        -0.243 6        39.531  
I05         0.000 7         0.00007        -0.115 7        47.656           0.000 7         0.00007        -0.243 7        42.031  
I06  38351014.357 7 150494568.78807       -51.116 7        45.000    38351008.605 6 318786519.15506      -107.680 6        39.062  
I07         0.000 7         0.00007        -0.115 7        43.281           0.000 6         0.00006        -0.243 6        38.594  
I09  36067444.495 8 141533598.36208      -118.414 8        50.938    36067438.992 7 299804392.21707      -250.641 7        45.000  
I10  39397795.634 7 154602266.70807       -71.984 7        42.656    39397788.588 5 327487896.02005      -152.680 5        35.625  
> 2024 01 02  0 57 30.0000000  0  9      -214.703074158852
I01         0.000 8         0.00008        -0.103 8        50.938           0.000 4         0.00004        -0.218 4        24.062  
I02  39483081.415 7 154936917.04607      -131.578 7        42.656    39483076.288 6 328196829.00806      -278.296 6        36.406  
I03  36504604.171 8 143248789.13408        21.513 8        50.156    36504598.208 7 303438267.39407        45.689 7        44.531  
I04         0.000 7         0.00007        -0.103 7        45.000           0.000 6         0.00006        -0.218 6        39.375  
I05         0.000 7         0.00007        -0.103 7        47.500           0.000 7         0.00007        -0.218 7        42.188  
I06  38350626.085 7 150493044.39407       -50.851 7        45.156    38350620.536 6 318783290.14606      -107.852 6        39.062  
I07         0.000 7         0.00007        -0.103 7        43.438           0.000 6         0.00006        -0.218 6        38.906  
I09  36066540.909 8 141530051.94808      -118.335 8        50.938    36066535.245 7 299796879.99907      -250.657 7        45.000  
I10  39397245.109 7 154600105.48907       -72.204 7        42.500    39397238.278 5 327483318.20905      -152.889 5        35.781  
> 2024 01 02  0 58  0.0000000  0  9      -214.712468215428
I01         0.000 8         0.00008        -0.044 8        50.938           0.000 4         0.00004        -0.094 4        24.219  
I02  39482070.981 7 154932949.64607      -133.027 7        42.656    39482064.982 6 328188425.21006      -282.353 6        36.250  
I03  36504769.939 8 143249439.24408        21.678 8        50.156    36504763.921 7 303439644.55307        46.027 7        44.219  
I04         0.000 7         0.00007        -0.044 7        45.000           0.000 6         0.00006        -0.094 6        38.906  
I05         0.000 7         0.00007        -0.044 7        47.812           0.000 6         0.00006        -0.094 6        41.562  
I06  38350237.524 7 150491519.59507       -51.067 7        45.156    38350231.556 6 318780060.27706      -107.913 6        38.906  
I07         0.000 7         0.00007        -0.044 7        43.438           0.000 6         0.00006        -0.094 6        38.438  
I09  36065637.409 8 141526506.64508      -118.161 8        51.094    36065631.861 7 299789370.14907      -250.429 7        44.844  
I10  39396693.897 7 154597942.74107       -71.950 7        42.500    39396686.796 5 327478737.16105      -152.878 5        35.625  
> 2024 01 02  0 58 30.0000000  0  9      -215.151111053878
I01         0.000 8         0.00008        -0.100 8        50.938           0.000 3         0.00003        -0.212 3        23.438  
I02  39481046.216 7 154928929.31907      -135.100 7        42.656    39481040.165 6 328179909.30006      -286.083 6        36.562  
I03  36504936.740 8 143250093.66908        21.722 8        50.156    36504930.733 7 303441030.83307        45.998 7        44.688  
I04         0.000 7         0.00007        -0.100 7        45.156           0.000 6         0.00006        -0.212 6        39.375  
I05         0.000 7         0.00007        -0.100 7        47.969           0.000 6         0.00006        -0.212 6        41.875  
I06  38349848.921 7 150489994.44307       -50.981 7        45.156    38349843.065 6 318776829.63706      -107.789 6        39.062  
I07         0.000 7         0.00007        -0.100 7        43.594           0.000 6         0.00006        -0.212 6        38.906  
I09  36064734.309 8 141522962.49608      -118.186 8        51.094    36064728.673 7 299781862.73607      -250.598 7        45.156  
I10  39396142.184 7 154595778.47607       -72.189 7        42.344    39396135.758 5 327474152.90805      -153.067 5        35.938  
> 2024 01 02  0 59  0.0000000  0  9      -214.641077436400
I01         0.000 8         0.00008         0.016 8        50.938           0.000 4         0.00004         0.034 4        24.844  
I02  39480008.483 7 154924855.35907      -136.772 7        42.812    39480002.132 6 328171279.76806      -289.811 6        36.406  
I03  36505104.646 8 143250752.39808        22.138 8        50.156    36505098.924 7 303442426.22407        46.660 7        44.688  
I04         0.000 7         0.00007         0.016 7        45.156           0.000 6         0.00006         0.034 6        38.906  
I05         0.000 7         0.00007         0.016 7        47.969           0.000 6         0.00006         0.034 6        41.875  
I06  38349460.162 7 150488468.92107       -50.767 7        45.156    38349454.704 6 318773598.24706      -107.939 6        39.219  
I07         0.000 7         0.00007         0.016 7        43.438           0.000 6         0.00006         0.034 6        38.906  
I09  36063831.620 8 141519419.54008      -118.053 8        51.250    36063825.920 7 299774357.84907      -250.019 7        45.312  
I10  39395590.339 7 154593612.69907       -71.764 7        42.656    39395583.758 6 327469565.43806      -153.229 6        36.094  
> 2024 01 02  0 59 30.0000000  0  9      -214.761788333361
I01         0.000 8         0.00008        -0.115 8        50.938           0.000 4         0.00004        -0.244 4        25.312  
I02  39478956.628 7 154920727.84207      -138.634 7        42.812    39478950.467 6 328162536.81206      -293.475 6        36.562  
I03  36505273.481 8 143251415.44008        22.038 8        50.156    36505267.593 7 303443830.76107        46.698 7        44.688  
I04         0.000 7         0.00007        -0.115 7        44.688           0.000 6         0.00006        -0.244 6        38.750  
I05         0.000 7         0.00007        -0.115 7        47.812           0.000 7         0.00007        -0.244 7        42.031  
I06  38349071.474 7 150486942.99307       -51.000 7        45.156    38349065.825 6 318770365.97606      -108.083 6        39.375  
I07         0.000 7         0.00007        -0.115 7        43.438           0.000 6         0.00006        -0.244 6        38.906  
I09  36062929.026 8 141515877.76908      -118.114 8        51.250    36062923.236 7 299766855.48507      -250.193 7        45.156  
I10  39395038.137 7 154591445.41207       -72.465 7        42.188    39395031.643 5 327464974.79905      -152.890 5        35.781  
> 2024 01 02  1  0  0.0000000  0  9      -214.984315834474
I01         0.000 8         0.00008        -0.085 8        50.938           0.000 4         0.00004        -0.180 4        24.531  
I02  39477891.708 7 154916548.47707      -140.323 7        42.812    39477885.350 6 328153684.02406      -296.831 6        36.562  
I03  36505443.653 8 143252082.80208        22.230 8        50.156    36505437.698 7 303445244.46507        47.138 7        44.531  
I04         0.000 7         0.00007        -0.085 7        44.688           0.000 6         0.00006        -0.180 6        38.125  
I05         0.000 7         0.00007        -0.085 7        47.812           0.000 6         0.00006        -0.180 6        41.719  
I06  38348682.359 7 150485416.75107       -50.863 7        45.000    38348676.847 6 318767133.05406      -107.895 6        39.219  
I07         0.000 7         0.00007        -0.085 7        43.594           0.000 6         0.00006        -0.180 6        38.750  
I09  36062026.774 8 141512337.24808      -118.039 8        51.250    36062021.031 7 299759355.76807      -250.228 7        45.156  
I10  39394485.466 7 154589276.64207       -72.522 7        42.344    39394478.937 5 327460381.02105      -153.488 5        35.781  
> 2024 01 02  1  0 30.0000000  0  9      -214.525414844847
I01         0.000 8         0.00008        -0.053 8        50.938           0.000 3         0.00003        -0.111 3        22.188  
I02  39476813.595 7 154912316.12607      -141.905 7        42.656    39476807.075 6 328144718.96806      -300.262 6        36.719  
I03  36505614.934 8 143252754.40908        22.452 8        50.156    36505608.919 7 303446667.15807        47.397 7        44.531  
I04         0.000 7         0.00007        -0.053 7        44.844           0.000 6         0.00006        -0.111 6        37.656  
I05         0.000 7         0.00007        -0.053 7        47.969           0.000 6         0.00006        -0.111 6        41.875  
I06  38348293.599 7 150483890.11007       -50.883 7        45.000    38348287.666 6 318763899.28406      -107.870 6        39.062  
I07         0.000 7         0.00007        -0.053 7        43.594           0.000 6         0.00006        -0.111 6        38.906  
I09  36061124.962 8 141508798.00908      -117.985 8        51.250    36061119.305 7 299751858.78207      -249.865 7        45.312  
I10  39393932.564 7 154587106.39707       -72.507 7        42.344    39393925.826 5 327455784.10205      -153.268 5        35.781  
> 2024 01 02  1  1  0.0000000  0  9      -214.969654388098
I01         0.000 8         0.00008        -0.178 8        50.938           0.000 4         0.00004        -0.377 4        25.312  
I02  39475721.296 7 154908030.97907      -144.061 7        42.812    39475715.020 6 328135642.07906      -305.073 6        36.875  
I03  36505787.130 8 143253430.31008        22.427 8        50.156    36505781.143 7 303448098.94407        47.416 7        44.531  
I04         0.000 7         0.00007        -0.178 7        44.844           0.000 6         0.00006        -0.377 6        37.344  
I05         0.000 7         0.00007        -0.178 7        47.812           0.000 6         0.00006        -0.377 6        41.562  
I06  38347904.404 7 150482363.14307       -51.169 7        45.156    38347898.401 6 318760664.82906      -108.376 6        39.062  
I07         0.000 7         0.00007        -0.178 7        43.438           0.000 6         0.00006        -0.377 6        38.906  
I09  36060223.479 8 141505260.06308      -118.204 8        51.250    36060217.737 7 299744364.52507      -250.122 7        45.156  
I10  39393379.123 7 154584934.72107       -72.706 7        42.500    39393372.733 5 327451184.17505      -153.854 5        35.781  
> 2024 01 02  1  1 30.0000000  0  9      -215.392382833371
I01         0.000 8         0.00008        -0.080 8        50.938           0.000 3         0.00003        -0.170 3        22.656  
I02  39474615.779 7 154903693.37307      -145.524 7        42.812    39474609.495 6 328126454.09006      -308.260 6        36.875  
I03  36505960.428 8 143254110.49808        22.680 8        50.156    36505954.346 7 303449539.81007        48.153 7        44.531  
I04         0.000 7         0.00007        -0.080 7        45.000           0.000 6         0.00006        -0.170 6        37.500  
I05         0.000 7         0.00007        -0.080 7        47.969           0.000 6         0.00006        -0.170 6        41.719  
I06  38347515.314 7 150480835.84507       -50.933 7        45.000    38347509.405 6 318757429.67106      -108.371 6        39.062  
I07         0.000 7         0.00007        -0.080 7        43.594           0.000 6         0.00006        -0.170 6        38.906  
I09  36059322.196 8 141501723.43308      -117.920 8        51.250    36059316.473 7 299736873.07807      -249.824 7        45.156  
I10  39392825.084 7 154582761.55607       -72.668 7        42.344    39392818.605 5 327446581.10105      -153.620 5        35.625  
> 2024 01 02  1  2  0.0000000  0  9      -215.465672519415
I01         0.000 8         0.00008        -0.155 8        50.938           0.000 4         0.00004        -0.328 4        24.844  
I02  39473496.836 7 154899301.81407      -147.543 7        42.812    39473490.575 6 328117151.82706      -312.367 6        36.719  
I03  36506134.906 8 143254795.00408        22.634 8        50.156    36506128.885 7 303450989.83207        48.203 7        44.531  
I04         0.000 7         0.00007        -0.155 7        45.000           0.000 6         0.00006        -0.328 6        37.500  
I05         0.000 7         0.00007        -0.155 7        47.812           0.000 7         0.00007        -0.328 7        42.031  
I06  38347125.798 7 150479308.18307       -51.050 7        45.000    38347119.932 6 318754193.74306      -108.406 6        39.062  
I07         0.000 7         0.00007        -0.155 7        43.594           0.000 6         0.00006        -0.328 6        38.906  
I09  36058421.326 8 141498188.17908      -118.009 8        51.250    36058415.615 7 299729384.52507      -249.874 7        45.000  
I10  39392271.350 7 154580586.99007       -72.771 7        42.344    39392264.426 5 327441975.03205      -154.188 5        35.469  
> 2024 01 02  1  2 30.0000000  0  9      -215.356456149451
I01         0.000 8         0.00008        -0.064 8        50.938           0.000 4         0.00004        -0.136 4        24.688  
I02  39472364.495 7 154894858.06307      -148.917 7        42.500    39472358.129 6 328107738.99306      -315.652 6        36.719  
I03  36506310.423 8 143255483.77408        22.948 8        50.156    36506304.433 7 303452448.89107        48.710 7        44.531  
I04         0.000 7         0.00007        -0.064 7        44.844           0.000 6         0.00006        -0.136 6        37.969  
I05         0.000 7         0.00007        -0.064 7        47.812           0.000 7         0.00007        -0.136 7        42.188  
I06  38346736.774 7 150477780.21207       -50.997 7        45.156    38346730.450 6 318750957.13506      -107.845 6        39.062  
I07         0.000 7         0.00007        -0.064 7        43.594           0.000 6         0.00006        -0.136 6        39.062  
I09  36057520.831 8 141494654.32308      -117.824 8        51.250    36057515.193 7 299721898.93807      -249.582 7        45.000  
I10  39391716.861 7 154578410.99407       -72.661 7        42.344    39391710.076 5 327437365.97205      -153.722 5        35.469  
> 2024 01 02  1  3  0.0000000  0  9      -215.428668709920
I01         0.000 8         0.00008         0.014 8        50.938           0.000 3         0.00003         0.030 3        23.750  
I02  39471218.759 7 154890362.25707      -150.507 7        42.500    39471212.576 6 328098215.91606      -319.141 6        36.719  
I03  36506487.085 8 143256176.79308        23.212 8        50.156    36506481.097 7 303453916.95307        49.251 7        44.531  
I04         0.000 7         0.00007         0.014 7        45.000           0.000 6         0.00006         0.030 6        38.281  
I05         0.000 7         0.00007         0.014 7        47.969           0.000 6         0.00006         0.030 6        41.875  
I06  38346347.058 7 150476251.89007       -50.833 7        45.000    38346341.082 6 318747719.81606      -107.909 6        38.906  
I07         0.000 7         0.00007         0.014 7        43.594           0.000 6         0.00006         0.030 6        39.062  
I09  36056620.601 8 141491121.91508      -117.692 8        51.250    36056614.898 7 299714416.42007      -249.262 7        45.000  
I10  39391161.959 7 154576233.59507       -72.467 7        42.500    39391155.062 5 327432753.92005      -153.727 5        35.625  
> 2024 01 02  1  3 30.0000000  0  9      -215.511741592387
I01         0.000 8         0.00008        -0.131 8        50.938           0.000 4         0.00004        -0.278 4        24.375  
I02  39470059.357 7 154885813.43707      -152.643 7        42.656    39470053.282 6 328088580.52706      -323.410 6        36.719  
I03  36506664.781 8 143256874.10808        23.135 8        50.156    36506658.848 7 303455394.11107        49.070 7        44.688  
I04         0.000 7         0.00007        -0.131 7        45.156           0.000 6         0.00006        -0.278 6        38.750  
I05         0.000 8         0.00008        -0.131 8        48.125           0.000 6         0.00006        -0.278 6        41.719  
I06  38345957.572 7 150474723.25507       -50.920 7        45.000    38345951.572 6 318744481.82506      -108.232 6        38.906  
I07         0.000 7         0.00007        -0.131 7        43.750           0.000 6         0.00006        -0.278 6        38.906  
I09  36055720.765 8 141487590.97808      -117.922 8        51.094    36055715.129 7 299706937.01407      -249.625 7        45.000  
I10  39390606.807 7 154574054.78107       -73.006 7        42.344    39390600.414 5 327428138.89105      -154.346 5        35.469  
> 2024 01 02  1  4  0.0000000  0  9      -215.464500954486
I01         0.000 8         0.00008        -0.048 8        50.781           0.000 4         0.00004        -0.101 4        25.469  
I02  39468887.700 7 154881212.99207      -154.083 7        42.656    39468881.051 6 328078835.77606      -326.624 6        36.719  
I03  36506843.552 8 143257575.69208        23.439 8        50.156    36506837.507 7 303456880.32407        49.609 7        44.531  
I04         0.000 7         0.00007        -0.048 7        45.000           0.000 6         0.00006        -0.101 6        38.750  
I05         0.000 7         0.00007        -0.048 7        47.969           0.000 7         0.00007        -0.101 7        42.031  
I06  38345567.930 7 150473194.31907       -51.045 7        44.844    38345562.073 6 318741243.20006      -108.133 6        38.906  
I07         0.000 7         0.00007        -0.048 7        43.750           0.000 6         0.00006        -0.101 6        38.906  
I09  36054821.312 8 141484061.52408      -117.725 8        51.094    36054815.561 7 299699460.75107      -249.293 7        45.000  
I10  39390051.270 7 154571874.61207       -72.716 7        42.656    39390044.651 5 327423520.97805      -154.265 5        35.625  
> 2024 01 02  1  4 30.0000000  0  9      -215.623442955030
I01         0.000 8         0.00008        -0.031 8        50.781           0.000 4         0.00004        -0.066 4        25.156  
I02  39467701.729 7 154876560.49807      -155.718 7        42.812    39467695.539 6 328068980.78806      -329.873 6        37.031  
I03  36507023.591 8 143258281.54208        23.542 8        50.156    36507017.404 7 303458375.56507        49.944 7        44.688  
I04         0.000 7         0.00007        -0.031 7        45.000           0.000 6         0.00006        -0.066 6        38.906  
I05         0.000 7         0.00007        -0.031 7        47.812           0.000 7         0.00007        -0.066 7        42.031  
I06  38345178.040 7 150471665.05207       -50.893 7        45.000    38345171.780 6 318738003.84806      -108.012 6        39.062  
I07         0.000 7         0.00007        -0.031 7        43.750           0.000 6         0.00006        -0.066 6        38.906  
I09  36053922.297 8 141480533.58508      -117.663 8        50.938    36053916.777 7 299691987.68807      -249.067 7        45.000  
I10  39389495.515 7 154569693.05607       -72.837 7        42.500    39389488.515 5 327418900.13105      -154.307 5        35.625  
> 2024 01 02  1  5  0.0000000  0  9      -215.413418409315
I01         0.000 8         0.00008        -0.072 8        50.625           0.000 4         0.00004        -0.152 4        25.781  
I02  39466502.898 7 154871855.23707      -157.744 7        42.969    39466496.723 6 328059014.03106      -334.234 6        36.406  
I03  36507204.522 8 143258991.65608        23.593 8        50.312    36507198.628 7 303459879.84207        50.386 7        44.375  
I04         0.000 7         0.00007        -0.072 7        45.156           0.000 6         0.00006        -0.152 6        38.906  
I05         0.000 7         0.00007        -0.072 7        47.812           0.000 6         0.00006        -0.152 6        41.406  
I06  38344788.544 7 150470135.49707       -51.156 7        44.844    38344782.337 6 318734763.92106      -108.331 6        38.906  
I07         0.000 7         0.00007        -0.072 7        43.594           0.000 6         0.00006        -0.152 6        38.281  
I09  36053023.542 8 141477007.21908      -117.589 8        50.938    36053018.141 7 299684517.97307      -249.164 7        44.844  
I10  39388939.292 7 154567510.13907       -72.677 7        42.656    39388932.610 5 327414276.40605      -154.504 5        35.625  
> 2024 01 02  1  5 30.0000000  0  9      -215.622458196115
I01         0.000 8         0.00008        -0.039 8        50.625           0.000 3         0.00003        -0.083 3        23.594  
I02  39465290.821 7 154867097.61007      -159.293 7        42.969    39465283.807 6 328048936.33206      -337.338 6        36.875  
I03  36507386.452 8 143259706.02308        23.868 8        50.156    36507380.613 7 303461393.12207        50.489 7        44.531  
I04         0.000 7         0.00007        -0.039 7        45.000           0.000 6         0.00006        -0.083 6        39.375  
I05         0.000 7         0.00007        -0.039 7        47.812           0.000 6         0.00006        -0.083 6        41.719  
I06  38344398.567 7 150468605.65307       -50.984 7        45.156    38344392.518 6 318731523.37006      -108.370 6        39.062  
I07         0.000 7         0.00007        -0.039 7        43.438           0.000 6         0.00006        -0.083 6        38.750  
I09  36052125.409 8 141473482.45208      -117.571 8        50.938    36052120.012 7 299677051.63307      -248.827 7        45.312  
I10  39388382.883 7 154565325.87607       -72.868 7        42.656    39388375.952 5 327409649.85505      -154.054 5        35.469  
> 2024 01 02  1  6  0.0000000  0  9      -215.462411076183
I01         0.000 8         0.00008        -0.064 8        50.625           0.000 3         0.00003        -0.135 3        22.656  
I02  39464065.271 7 154862288.25407      -161.164 7        42.812    39464058.237 6 328038749.04506      -341.472 6        36.719  
I03  36507569.683 8 143260424.63108        23.917 8        50.312    36507563.539 7 303462915.40407        50.542 7        44.688  
I04         0.000 7         0.00007        -0.064 7        45.156           0.000 6         0.00006        -0.135 6        39.531  
I05         0.000 7         0.00007        -0.064 7        47.969           0.000 7         0.00007        -0.135 7        42.188  
I06  38344008.515 7 150467075.52307       -50.925 7        45.156    38344002.315 6 318728282.23006      -108.176 6        39.219  
I07         0.000 7         0.00007        -0.064 7        43.438           0.000 6         0.00006        -0.135 6        38.750  
I09  36051227.595 8 141469959.30808      -117.478 8        50.938    36051222.220 7 299669588.74307      -248.798 7        45.312  
I10  39387825.980 7 154563140.27007       -73.035 7        42.500    39387818.851 5 327405020.45805      -154.412 5        35.938  
> 2024 01 02  1  6 30.0000000  0  9      -215.788268661575
I01         0.000 8         0.00008        -0.134 8        50.469           0.000 3         0.00003        -0.283 3        23.281  
I02  39462826.311 7 154857426.23007      -163.097 7        42.656    39462819.175 6 328028450.24206      -345.456 6        36.562  
I03  36507753.902 8 143261147.48208        24.036 8        50.156    36507747.811 7 303464446.67407        50.941 7        44.688  
I04         0.000 7         0.00007        -0.134 7        45.156           0.000 6         0.00006        -0.283 6        39.375  
I05         0.000 8         0.00008        -0.134 8        48.125           0.000 6         0.00006        -0.283 6        41.875  
I06  38343618.718 7 150465545.08607       -51.177 7        45.156    38343612.406 6 318725040.42006      -108.521 6        39.062  
I07         0.000 7         0.00007        -0.134 7        43.594           0.000 6         0.00006        -0.283 6        38.906  
I09  36050330.264 8 141466437.84508      -117.543 8        50.781    36050324.783 7 299662129.40707      -248.878 7        45.156  
I10  39387268.666 7 154560953.34407       -73.192 7        42.656    39387261.449 5 327400388.29005      -154.632 5        35.469  
> 2024 01 02  1  7  0.0000000  0  9      -215.947726947160
I01         0.000 8         0.00008        -0.112 8        50.469           0.000 3         0.00003        -0.237 3        22.969  
I02  39461573.756 7 154852511.72707      -164.694 7        42.188    39461567.104 6 328018040.24706      -348.899 6        36.406  
I03  36507939.220 8 143261874.58608        24.194 8        50.156    36507933.235 7 303465986.95107        51.251 7        44.531  
I04         0.000 7         0.00007        -0.112 7        45.156           0.000 6         0.00006        -0.237 6        39.375  
I05         0.000 7         0.00007        -0.112 7        47.812           0.000 7         0.00007        -0.237 7        42.188  
I06  38343228.982 7 150464014.40407       -51.268 7        45.156    38343222.198 6 318721798.08706      -108.347 6        38.594  
I07         0.000 7         0.00007        -0.112 7        43.438           0.000 6         0.00006        -0.237 6        38.594  
I09  36049433.183 8 141462918.12008      -117.535 8        50.625    36049427.762 7 299654673.76807      -248.477 7        45.000  
I10  39386711.318 7 154558765.14307       -73.038 7        42.656    39386704.412 5 327395753.34905      -154.681 5        35.312  
> 2024 01 02  1  7 30.0000000  0  9      -215.826020241879
I01         0.000 8         0.00008        -0.049 8        50.625           0.000 4         0.00004        -0.104 4        24.219  
I02  39460308.619 7 154847545.38807      -166.270 7        42.500    39460302.002 6 328007520.46206      -352.792 6        36.406  
I03  36508125.546 8 143262605.93008        24.395 8        50.156    36508119.655 7 303467536.20907        51.602 7        44.688  
I04         0.000 7         0.00007        -0.049 7        45.312           0.000 6         0.00006        -0.104 6        39.531  
I05         0.000 7         0.00007        -0.049 7        47.656           0.000 7         0.00007        -0.104 7        42.188  
I06  38342838.702 7 150462483.42807       -51.166 7        45.312    38342831.927 6 318718555.15706      -108.145 6        38.906  
I07         0.000 7         0.00007        -0.049 7        43.438           0.000 6         0.00006        -0.104 6        38.750  
I09  36048536.694 8 141459400.10208      -117.269 8        50.625    36048531.263 7 299647221.74007      -248.469 7        45.312  
I10  39386153.529 7 154556575.62107       -72.986 7        42.656    39386146.105 5 327391115.66105      -154.805 5        35.781  
> 2024 01 02  1  8  0.0000000  0  9      -216.213365253194
I01         0.000 8         0.00008        -0.188 8        50.469           0.000 4         0.00004        -0.398 4        25.156  
I02  39459029.538 7 154842526.77107      -168.773 7        42.969    39459022.685 6 327996889.94606      -356.770 6        36.250  
I03  36508313.072 8 143263341.53808        24.369 8        50.156    36508306.954 7 303469094.50607        51.753 7        44.219  
I04         0.000 7         0.00007        -0.188 7        45.156           0.000 6         0.00006        -0.398 6        38.906  
I05         0.000 7         0.00007        -0.188 7        47.656           0.000 6         0.00006        -0.398 6        41.875  
I06  38342448.439 7 150460952.19707       -51.236 7        45.156    38342441.826 6 318715311.68106      -108.377 6        38.594  
I07         0.000 7         0.00007        -0.188 7        43.594           0.000 6         0.00006        -0.398 6        38.438  
I09  36047640.589 8 141455883.86308      -117.391 8        50.469    36047635.239 7 299639773.48907      -248.687 7        44.844  
I10  39385595.208 7 154554384.83007       -73.226 7        42.500    39385588.183 5 327386475.26805      -154.867 5        35.781  
> 2024 01 02  1  8 30.0000000  0  9      -215.853473687724
I01         0.000 8         0.00008        -0.134 8        50.625           0.000 4         0.00004        -0.284 4        24.844  
I02  39457738.033 7 154837458.48707      -170.020 7        42.812    39457731.223 5 327986154.22005      -360.490 5        35.781  
I03  36508501.614 8 143264081.36908        24.662 8        50.156    36508495.450 7 303470661.75007        52.164 7        44.219  
I04         0.000 7         0.00007        -0.134 7        45.312           0.000 6         0.00006        -0.284 6        39.219  
I05         0.000 7         0.00007        -0.134 7        47.656           0.000 7         0.00007        -0.284 7        42.031  
I06  38342058.148 7 150459420.69107       -51.418 7        45.000    38342051.893 6 318712067.62006      -108.387 6        38.594  
I07         0.000 7         0.00007        -0.134 7        43.438           0.000 6         0.00006        -0.284 6        38.281  
I09  36046745.115 8 141452369.44908      -117.364 8        50.469    36046739.741 7 299632329.09107      -248.329 7        45.000  
I10  39385036.678 7 154552192.73907       -73.155 7        42.656    39385030.178 5 327381832.18205      -155.394 5        35.938  
> 2024 01 02  1  9  0.0000000  0  9      -216.069662250355
I01         0.000 8         0.00008        -0.067 8        50.625           0.000 3         0.00003        -0.143 3        23.125  
I02  39456432.688 7 154832337.19607      -171.563 7        42.656    39456426.121 5 327975306.22505      -363.233 5        35.938  
I03  36508691.329 8 143264825.43208        24.781 8        50.156    36508685.292 7 303472237.95807        52.526 7        44.688  
I04         0.000 7         0.00007        -0.067 7        45.469           0.000 6         0.00006        -0.143 6        39.062  
I05         0.000 7         0.00007        -0.067 7        47.812           0.000 7         0.00007        -0.143 7        42.188  
I06  38341667.916 7 150457888.97007       -51.149 7        45.000    38341661.027 6 318708823.10506      -108.272 6        38.750  
I07         0.000 7         0.00007        -0.067 7        43.438           0.000 6         0.00006        -0.143 6        38.906  
I09  36045849.980 8 141448856.89308      -117.079 8        50.469    36045844.621 7 299624888.63907      -247.971 7        45.312  
I10  39384478.199 7 154549999.42807       -73.184 7        42.656    39384470.770 6 327377186.46606      -154.973 6        36.094  
> 2024 01 02  1  9 30.0000000  0  9      -216.034231835303
I01         0.000 8         0.00008        -0.048 8        50.625           0.000 3         0.00003        -0.102 3        22.812  
I02  39455114.828 7 154827164.77907      -173.126 7        42.812    39455108.124 6 327964349.93406      -367.225 6        36.250  
I03  36508882.051 8 143265573.71908        25.014 8        50.156    36508875.861 7 303473823.12407        53.023 7        44.688  
I04         0.000 7         0.00007        -0.048 7        45.625           0.000 6         0.00006        -0.102 6        39.219  
I05         0.000 7         0.00007        -0.048 7        47.656           0.000 7         0.00007        -0.102 7        42.188  
I06  38341277.226 7 150456357.00107       -51.186 7        45.000    38341271.148 6 318705578.08006      -108.577 6        38.750  
I07         0.000 7         0.00007        -0.048 7        43.438           0.000 6         0.00006        -0.102 6        38.906  
I09  36044955.376 8 141445346.20208      -117.011 8        50.625    36044950.114 7 299617452.13307      -248.073 7        45.156  
I10  39383918.652 7 154547804.84707       -73.258 7        42.500    39383912.170 6 327372538.06506      -155.166 6        36.094  
> 2024 01 02  1 10  0.0000000  0  9      -215.581384800979
I01         0.000 8         0.00008        -0.137 8        50.781           0.000 4         0.00004        -0.289 4        25.000  
I02  39453783.761 7 154821940.54507      -175.181 7        42.812    39453776.876 6 327953283.88606      -370.952 6        36.094  
I03  36509073.728 8 143266326.21508        24.973 8        50.156    36509067.526 7 303475417.20507        52.898 7        44.531  
I04         0.000 7         0.00007        -0.137 7        45.781           0.000 6         0.00006        -0.289 6        39.375  
I05         0.000 7         0.00007        -0.137 7        47.656           0.000 6         0.00006        -0.289 6        41.719  
I06  38340887.234 7 150454824.79207       -51.255 7        44.844    38340880.775 6 318702332.52306      -108.552 6        38.750  
I07         0.000 7         0.00007        -0.137 7        43.438           0.000 6         0.00006        -0.289 6        38.750  
I09  36044061.336 8 141441837.45408      -117.001 8        50.625    36044056.024 7 299610019.75207      -247.948 7        45.156  
I10  39383359.368 7 154545609.03207       -73.545 7        42.656    39383352.100 6 327367887.08006      -155.830 6        36.094  
> 2024 01 02  1 10 30.0000000  0  9      -215.764089612064
I01         0.000 8         0.00008        -0.007 8        50.781           0.000 3         0.00003        -0.015 3        22.656  
I02  39452439.577 7 154816664.84607      -176.667 7        42.969    39452432.430 5 327942108.79305      -374.524 5        35.938  
I03  36509266.612 8 143267082.94008        25.347 8        50.156    36509260.433 7 303477020.24307        53.710 7        44.688  
I04         0.000 7         0.00007        -0.007 7        45.938           0.000 6         0.00006        -0.015 6        39.375  
I05         0.000 7         0.00007        -0.007 7        47.656           0.000 6         0.00006        -0.015 6        41.875  
I06  38340496.689 7 150453292.32507       -51.022 7        45.000    38340490.094 6 318699086.44406      -108.260 6        38.594  
I07         0.000 7         0.00007        -0.007 7        43.438           0.000 6         0.00006        -0.015 6        38.750  
I09  36043167.682 8 141438330.69108      -116.898 8        50.625    36043162.343 7 299602591.57507      -247.614 7        45.312  
I10  39382799.503 7 154543412.02307       -73.028 7        42.656    39382792.123 6 327363233.54006      -154.694 6        36.406  
> 2024 01 02  1 11  0.0000000  0  9      -215.718708435352
I01         0.000 8         0.00008        -0.035 8        50.781           0.000 3         0.00003        -0.074 3        20.625  
I02  39451082.243 7 154811337.60207      -178.452 7        42.969    39451075.015 6 327930824.53406      -377.935 6        36.094  
I03  36509460.528 8 143267843.89208        25.351 8        50.156    36509454.495 7 303478632.23107        53.760 7        44.688  
I04         0.000 7         0.00007        -0.035 7        45.625           0.000 6         0.00006        -0.074 6        39.375  
I05         0.000 7         0.00007        -0.035 7        47.969           0.000 6         0.00006        -0.074 6        41.875  
I06  38340106.097 7 150451759.65707       -50.977 7        45.000    38340099.369 6 318695839.93406      -108.450 6        38.750  
I07         0.000 7         0.00007        -0.035 7        43.281           0.000 6         0.00006        -0.074 6        38.750  
I09  36042274.590 8 141434825.92908      -116.847 8        50.625    36042269.238 7 299595167.63707      -247.533 7        45.312  
I10  39382239.165 7 154541213.79807       -73.175 7        42.812    39382232.698 6 327358577.43606      -155.563 6        36.250  
> 2024 01 02  1 11 30.0000000  0  9      -215.847906616999
I01         0.000 8         0.00008        -0.096 8        50.781           0.000 3         0.00003        -0.204 3        21.875  
I02  39449711.581 7 154805959.67207      -180.292 7        42.812    39449704.428 5 327919432.89705      -381.821 5        35.312  
I03  36509655.559 8 143268609.02008        25.461 8        50.156    36509649.592 7 303480253.07807        53.999 7        44.688  
I04         0.000 7         0.00007        -0.096 7        45.781           0.000 6         0.00006        -0.204 6        39.375  
I05         0.000 8         0.00008        -0.096 8        48.125           0.000 6         0.00006        -0.204 6        41.719  
I06  38339715.552 7 150450226.74207       -51.217 7        45.000    38339708.906 6 318692592.88906      -108.553 6        38.750  
I07         0.000 7         0.00007        -0.096 7        43.281           0.000 6         0.00006        -0.204 6        38.906  
I09  36041382.016 8 141431323.21508      -116.745 8        50.469    36041376.681 7 299587748.02907      -247.474 7        45.312  
I10  39381678.662 7 154539014.37707       -73.464 7        42.500    39381671.522 6 327353918.80506      -155.419 6        36.094  
> 2024 01 02  1 12  0.0000000  0  9      -215.946682880330
I01         0.000 8         0.00008        -0.063 8        50.781           0.000 4         0.00004        -0.133 4        25.469  
I02  39448327.814 7 154800529.74407      -181.857 7        42.812    39448320.803 5 327907931.15005      -385.177 5        35.938  
I03  36509851.615 8 143269378.37408        25.583 8        50.312    36509845.422 7 303481882.87507        54.336 7        44.688  
I04         0.000 7         0.00007        -0.063 7        45.781           0.000 6         0.00006        -0.133 6        39.375  
I05         0.000 7         0.00007        -0.063 7        47.969           0.000 6         0.00006        -0.133 6        41.719  
I06  38339324.716 7 150448693.62107       -51.200 7        45.000    38339318.279 6 318689345.43006      -108.429 6        38.750  
I07         0.000 7         0.00007        -0.063 7        43.281           0.000 6         0.00006        -0.133 6        38.906  
I09  36040489.969 8 141427822.57908      -116.643 8        50.469    36040484.898 7 299580332.83007      -247.216 7        45.312  
I10  39381118.280 7 154536813.77307       -73.347 7        42.656    39381111.122 6 327349257.67806      -155.516 6        36.250  
> 2024 01 02  1 12 30.0000000  0  9      -215.778021877272
I01         0.000 8         0.00008        -0.066 8        50.625           0.000 4         0.00004        -0.140 4        25.312  
I02  39446931.226 7 154795048.52207      -183.557 7        42.969    39446924.171 5 327896320.72405      -389.013 5        35.469  
I03  36510048.815 8 143270151.94508        25.755 8        50.312    36510042.659 7 303483521.59807        54.691 7        44.688  
I04         0.000 7         0.00007        -0.066 7        45.938           0.000 6         0.00006        -0.140 6        39.375  
I05         0.000 7         0.00007        -0.066 7        47.812           0.000 6         0.00006        -0.140 6        41.406  
I06  38338933.901 7 150447160.29107       -51.202 7        45.000    38338927.403 6 318686097.51106      -108.394 6        38.906  
I07         0.000 7         0.00007        -0.066 7        43.281           0.000 6         0.00006        -0.140 6        38.906  
I09  36039598.394 8 141424324.09808      -116.613 8        50.625    36039593.320 7 299572922.17507      -247.086 7        45.469  
I10  39380557.364 7 154534611.99907       -73.419 7        42.812    39380549.814 5 327344594.08305      -155.895 5        35.781  
> 2024 01 02  1 13  0.0000000  0  9      -215.787782964944
I01         0.000 8         0.00008        -0.088 8        50.625           0.000 4         0.00004        -0.187 4        24.688  
I02  39445521.626 7 154789516.35007      -185.436 7        42.969    39445514.222 5 327884602.38205      -393.175 5        35.938  
I03  36510247.050 8 143270929.69308        25.852 8        50.156    36510240.985 7 303485169.17707        54.853 7        44.688  
I04         0.000 7         0.00007        -0.088 7        46.094           0.000 6         0.00006        -0.187 6        39.062  
I05         0.000 7         0.00007        -0.088 7        47.812           0.000 6         0.00006        -0.187 6        41.562  
I06  38338543.179 7 150445626.75407       -51.226 7        45.156    38338536.528 6 318682849.17606      -108.531 6        38.906  
I07         0.000 7         0.00007        -0.088 7        43.438           0.000 6         0.00006        -0.187 6        38.906  
I09  36038707.509 8 141420827.79008      -116.521 8        50.469    36038702.496 7 299565516.14707      -246.899 7        45.625  
I10  39379996.139 7 154532409.08207       -73.457 7        42.812    39379988.462 5 327339928.04205      -155.774 5        35.938  
> 2024 01 02  1 13 30.0000000  0  9      -215.037918747319
I01         0.000 8         0.00008        -0.152 8        50.625           0.000 3         0.00003        -0.322 3        22.812  
I02  39444099.435 7 154783934.10707      -187.071 7        43.125    39444092.286 6 327872777.98406      -396.707 6        36.094  
I03  36510446.307 8 143271711.67208        26.045 8        50.156    36510440.257 7 303486825.71207        54.903 7        44.844  
I04         0.000 7         0.00007        -0.152 7        45.938           0.000 6         0.00006        -0.322 6        39.062  
I05         0.000 7         0.00007        -0.152 7        47.812           0.000 6         0.00006        -0.322 6        41.562  
I06  38338152.400 7 150444093.03307       -51.434 7        45.000    38338145.730 6 318679600.43106      -108.696 6        38.750  
I07         0.000 7         0.00007        -0.152 7        43.281           0.000 6         0.00006        -0.322 6        38.750  
I09  36037817.003 8 141417333.67908      -116.515 8        50.469    36037812.207 7 299558114.77407      -246.950 7        45.625  
I10  39379434.760 7 154530205.01907       -73.980 7        42.969    39379427.196 6 327335259.58406      -156.055 6        36.094  
> 2024 01 02  1 14  0.0000000  0  9      -215.525516581275
I01         0.000 8         0.00008        -0.063 8        50.469           0.000 4         0.00004        -0.134 4        25.312  
I02  39442663.601 7 154778300.34707      -188.496 7        43.125    39442656.622 5 327860844.44705      -399.868 5        35.781  
I03  36510646.745 8 143272497.82408        26.269 8        50.156    36510640.575 7 303488491.09907        55.657 7        44.688  
I04         0.000 7         0.00007        -0.063 7        45.625           0.000 6         0.00006        -0.134 6        39.062  
I05         0.000 7         0.00007        -0.063 7        47.656           0.000 6         0.00006        -0.134 6        41.562  
I06  38337761.574 7 150442559.13207       -51.058 7        45.000    38337754.873 6 318676351.31706      -108.059 6        38.750  
I07         0.000 7         0.00007        -0.063 7        43.125           0.000 6         0.00006        -0.134 6        38.750  
I09  36036927.320 8 141413841.84208      -116.460 8        50.625    36036922.322 7 299550718.20707      -246.564 7        45.625  
I10  39378873.044 7 154527999.81807       -73.848 7        42.969    39378865.012 5 327330588.72805      -155.953 5        35.938  
> 2024 01 02  1 14 30.0000000  0  9      -215.661826384323
I01         0.000 8         0.00008        -0.155 8        50.312           0.000 4         0.00004        -0.328 4        26.719  
I02  39441215.344 7 154772616.14707      -190.778 7        43.125    39441207.887 5 327848804.07505      -404.065 5        35.625  
I03  36510848.122 8 143273288.15808        26.276 8        50.312    36510841.955 7 303490165.35807        55.706 7        44.688  
I04         0.000 7         0.00007        -0.155 7        45.312           0.000 6         0.00006        -0.328 6        39.062  
I05         0.000 7         0.00007        -0.155 7        47.812           0.000 6         0.00006        -0.328 6        41.875  
I06  38337370.631 7 150441025.03307       -51.374 7        45.000    38337364.226 6 318673101.78706      -108.620 6        38.750  
I07         0.000 7         0.00007        -0.155 7        43.125           0.000 6         0.00006        -0.328 6        38.594  
I09  36036038.142 8 141410352.28208      -116.374 8        50.469    36036033.204 7 299543326.47207      -246.639 7        45.625  
I10  39378310.942 7 154525793.51107       -73.777 7        43.125    39378302.424 5 327325915.53105      -156.092 5        35.938  
> 2024 01 02  1 15  0.0000000  0  9      -215.660045024480
I01         0.000 8         0.00008        -0.084 8        50.625           0.000 4         0.00004        -0.178 4        24.844  
I02  39439754.201 7 154766881.21407      -192.001 7        43.281    39439746.004 5 327836656.25905      -407.099 5        35.625  
I03  36511050.665 8 143274082.67308        26.477 8        50.312    36511044.519 7 303491848.47407        56.231 7        44.688  
I04         0.000 7         0.00007        -0.084 7        45.312           0.000 6         0.00006        -0.178 6        39.219  
I05         0.000 7         0.00007        -0.084 7        47.812           0.000 7         0.00007        -0.178 7        42.188  
I06  38336979.734 7 150439490.74407       -51.111 7        45.000    38336972.961 6 318669851.85006      -108.418 6        38.906  
I07         0.000 7         0.00007        -0.084 7        43.125           0.000 6         0.00006        -0.178 6        38.906  
I09  36035149.589 8 141406865.05708      -116.340 8        50.469    36035144.427 7 299535939.69707      -246.328 7        45.625  
I10  39377748.519 7 154523586.08907       -73.857 7        43.125    39377740.590 6 327321239.97606      -155.810 6        36.094  
> 2024 01 02  1 15 30.0000000  0  9      -215.578011998837
I01         0.000 8         0.00008        -0.054 8        50.625           0.000 3         0.00003        -0.115 3        23.438  
I02  39438279.617 7 154761094.45807      -193.863 7        43.281    39438271.722 5 327824398.66905      -410.795 5        35.469  
I03  36511254.206 8 143274881.34708        26.581 8        50.156    36511247.919 7 303493540.39707        56.600 7        44.688  
I04         0.000 7         0.00007        -0.054 7        45.312           0.000 6         0.00006        -0.115 6        39.531  
I05         0.000 7         0.00007        -0.054 7        47.500           0.000 7         0.00007        -0.115 7        42.500  
I06  38336588.846 7 150437956.30707       -50.836 7        44.844    38336581.988 6 318666601.61606      -108.299 6        38.906  
I07         0.000 7         0.00007        -0.054 7        43.125           0.000 6         0.00006        -0.115 6        38.906  
I09  36034261.601 8 141403380.21808      -116.246 8        50.625    36034256.188 7 299528557.96907      -246.169 7        45.625  
I10  39377185.895 7 154521377.58707       -73.680 7        43.125    39377178.105 5 327316562.12405      -156.071 5        35.781  
> 2024 01 02  1 16  0.0000000  0  9      -216.009237674752
I01         0.000 8         0.00008        -0.165 8        50.781           0.000 3         0.00003        -0.349 3        22.812  
I02  39436792.280 7 154755258.01107      -195.715 7        43.281    39436784.217 5 327812035.82005      -414.957 5        35.469  
I03  36511458.847 8 143275684.21508        26.549 8        50.156    36511452.648 7 303495241.20407        56.481 7        44.688  
I04         0.000 7         0.00007        -0.165 7        45.469           0.000 6         0.00006        -0.349 6        39.688  
I05         0.000 7         0.00007        -0.165 7        47.500           0.000 7         0.00007        -0.349 7        42.656  
I06  38336197.724 7 150436421.70907       -51.430 7        45.000    38336190.917 6 318663351.04106      -109.135 6        38.750  
I07         0.000 7         0.00007        -0.165 7        43.125           0.000 6         0.00006        -0.349 6        38.750  
I09  36033374.127 8 141399897.80308      -116.210 8        50.625    36033369.006 7 299521181.38407      -246.135 7        45.625  
I10  39376623.221 7 154519168.00007       -73.850 7        43.281    39376615.006 5 327311881.98205      -156.506 5        35.938  
> 2024 01 02  1 16 30.0000000  0  9      -215.807382878789
I01         0.000 8         0.00008        -0.089 8        50.781           0.000 4         0.00004        -0.188 4        24.375  
I02  39435292.511 7 154749371.35507      -197.159 7        43.438    39435284.330 5 327799566.62905      -417.259 5        35.625  
I03  36511664.533 8 143276491.25108        26.900 8        50.156    36511658.190 7 303496950.84907        56.939 7        44.688  
I04         0.000 7         0.00007        -0.089 7        45.469           0.000 6         0.00006        -0.188 6        39.375  
I05         0.000 7         0.00007        -0.089 7        47.656           0.000 7         0.00007        -0.188 7        42.344  
I06  38335806.632 7 150434886.94907       -51.310 7        45.000    38335800.115 6 318660100.11506      -108.663 6        38.906  
I07         0.000 7         0.00007        -0.089 7        43.125           0.000 6         0.00006        -0.188 6        38.750  
I09  36032487.415 8 141396417.84808      -116.098 8        50.625    36032482.135 7 299513810.01807      -245.899 7        45.625  
I10  39376059.889 7 154516957.34007       -73.728 7        43.281    39376051.780 5 327307199.57905      -156.242 5        35.938  
> 2024 01 02  1 17  0.0000000  0  9      -216.212469873673
I01         0.000 8         0.00008        -0.053 8        50.625           0.000 3         0.00003        -0.113 3        21.719  
I02  39433779.199 7 154743433.38207      -198.820 7        43.438    39433771.049 5 327786988.72305      -421.763 5        35.625  
I03  36511871.331 8 143277302.44008        27.050 8        50.156    36511865.122 7 303498669.28607        57.302 7        44.688  
I04         0.000 7         0.00007        -0.053 7        45.625           0.000 6         0.00006        -0.113 6        39.531  
I05         0.000 7         0.00007        -0.053 7        47.656           0.000 6         0.00006        -0.113 6        41.719  
I06  38335414.902 7 150433352.02007       -51.174 7        45.000    38335408.606 6 318656848.84506      -108.560 6        38.750  
I07         0.000 7         0.00007        -0.053 7        43.125           0.000 6         0.00006        -0.113 6        38.594  
I09  36031601.205 8 141392940.42108      -115.820 8        50.625    36031596.011 7 299506444.01207      -245.599 7        45.625  
I10  39375496.457 7 154514745.63507       -73.771 7        43.438    39375488.227 6 327302514.95606      -156.545 6        36.250  
> 2024 01 02  1 17 30.0000000  0  9      -215.945863604017
I01         0.000 8         0.00008        -0.103 8        50.625           0.000 4         0.00004        -0.219 4        25.469  
I02  39432253.541 7 154737445.80007      -200.662 7        43.438    39432245.113 5 327774305.74205      -424.853 5        35.625  
I03  36512079.096 8 143278117.82208        27.120 8        50.156    36512072.924 7 303500396.62107        57.421 7        44.688  
I04         0.000 7         0.00007        -0.103 7        45.781           0.000 6         0.00006        -0.219 6        39.531  
I05         0.000 7         0.00007        -0.103 7        47.500           0.000 6         0.00006        -0.219 6        41.875  
I06  38335024.311 7 150431816.95407       -51.213 7        45.000    38335017.741 6 318653597.29006      -108.512 6        38.906  
I07         0.000 7         0.00007        -0.103 7        43.125           0.000 6         0.00006        -0.219 6        38.750  
I09  36030715.812 8 141389465.54908      -115.897 8        50.625    36030710.603 7 299499083.41407      -245.510 7        45.625  
I10  39374932.738 7 154512532.87807       -73.873 7        43.594    39374924.351 6 327297828.11706      -156.460 6        36.250  
> 2024 01 02  1 18  0.0000000  0  9      -215.861642905634
I01         0.000 8         0.00008         0.001 8        50.469           0.000 3         0.00003         0.002 3        23.281  
I02  39430714.583 7 154731407.57307      -202.090 7        43.281    39430706.751 5 327761515.50205      -427.620 5        35.781  
I03  36512288.039 8 143278937.34308        27.379 8        50.156    36512281.705 7 303502132.73707        57.954 7        44.688  
I04         0.000 7         0.00007         0.001 7        45.625           0.000 6         0.00006         0.002 6        39.688  
I05         0.000 7         0.00007         0.001 7        47.500           0.000 6         0.00006         0.002 6        41.562  
I06  38334633.385 7 150430281.71707       -51.107 7        45.156    38334626.598 6 318650345.37506      -108.409 6        39.062  
I07         0.000 7         0.00007         0.001 7        43.125           0.000 6         0.00006         0.002 6        38.750  
I09  36029830.985 8 141385993.25408      -115.695 8        50.625    36029825.811 7 299491728.27707      -245.024 7        45.781  
I10  39374368.582 7 154510319.10707       -73.458 7        43.750    39374360.512 6 327293139.14506      -156.287 6        36.406  
> 2024 01 02  1 18 30.0000000  0  9      -216.077695565063
I01         0.000 8         0.00008        -0.077 8        50.469           0.000 4         0.00004        -0.163 4        24.531  
I02  39429163.175 7 154725318.32007      -203.857 7        43.281    39429155.002 5 327748617.18305      -431.288 5        35.469  
I03  36512497.923 8 143279760.99608        27.433 8        50.156    36512491.715 7 303503877.59107        58.179 7        44.688  
I04         0.000 7         0.00007        -0.077 7        45.625           0.000 6         0.00006        -0.163 6        40.156  
I05         0.000 7         0.00007        -0.077 7        47.500           0.000 6         0.00006        -0.163 6        41.719  
I06  38334241.883 7 150428746.37007       -51.188 7        45.000    38334235.276 6 318647093.22206      -108.426 6        39.062  
I07         0.000 7         0.00007        -0.077 7        43.125           0.000 6         0.00006        -0.163 6        38.750  
I09  36028946.840 8 141382523.62608      -115.606 8        50.781    36028941.697 7 299484378.77807      -245.116 7        45.938  
I10  39373804.695 7 154508104.29907       -74.014 7        43.750    39373795.999 6 327288447.97306      -156.470 6        36.250  
> 2024 01 02  1 19  0.0000000  0  9      -216.267621442819
I01         0.000 8         0.00008        -0.083 8        50.625           0.000 3         0.00003        -0.175 3        22.812  
I02  39427599.002 7 154719179.56307      -205.589 7        43.438    39427590.566 5 327735613.95305      -435.832 5        35.781  
I03  36512708.926 8 143280588.81508        27.589 8        50.156    36512702.789 7 303505631.28907        58.355 7        44.688  
I04         0.000 7         0.00007        -0.083 7        45.469           0.000 6         0.00006        -0.175 6        39.844  
I05         0.000 7         0.00007        -0.083 7        47.500           0.000 6         0.00006        -0.175 6        41.719  
I06  38333850.735 7 150427210.88507       -51.241 7        45.000    38333843.906 6 318643840.79006      -108.746 6        39.062  
I07         0.000 7         0.00007        -0.083 7        43.125           0.000 6         0.00006        -0.175 6        38.750  
I09  36028063.563 8 141379056.71308      -115.753 8        50.781    36028058.061 7 299477035.02807      -244.864 7        45.781  
I10  39373240.061 7 154505888.51107       -73.768 7        43.906    39373231.777 6 327283754.71406      -156.185 6        36.406  
> 2024 01 02  1 19 30.0000000  0  9      -215.725170845834
I01         0.000 8         0.00008        -0.090 8        50.625           0.000 4         0.00004        -0.190 4        24.531  
I02  39426022.467 7 154712991.10007      -207.338 7        43.438    39426013.555 5 327722505.46705      -439.302 5        35.625  
I03  36512920.973 8 143281420.78608        27.779 8        50.156    36512914.687 7 303507393.76907        58.658 7        44.688  
I04         0.000 7         0.00007        -0.090 7        45.469           0.000 6         0.00006        -0.190 6        39.531  
I05         0.000 7         0.00007        -0.090 7        47.500           0.000 6         0.00006        -0.190 6        41.719  
I06  38333459.722 7 150425675.29407       -51.397 7        45.156    38333452.757 6 318640588.11506      -108.729 6        39.219  
I07         0.000 7         0.00007        -0.090 7        43.125           0.000 6         0.00006        -0.190 6        38.594  
I09  36027180.664 8 141375592.52308      -115.551 8        50.781    36027175.453 7 299469697.06007      -244.691 7        45.781  
I10  39372675.627 7 154503671.73507       -73.796 7        44.062    39372667.180 6 327279059.36006      -156.804 6        36.406  
> 2024 01 02  1 20  0.0000000  0  9      -215.855303102286
I01         0.000 8         0.00008        -0.031 8        50.781           0.000 3         0.00003        -0.066 3        23.281  
I02  39424432.900 7 154706753.24507      -208.673 7        43.594    39424423.919 5 327709292.37205      -442.200 5        35.469  
I03  36513134.047 8 143282256.90308        27.895 8        50.156    36513127.767 7 303509165.04207        59.183 7        44.688  
I04         0.000 7         0.00007        -0.031 7        45.312           0.000 6         0.00006        -0.066 6        39.531  
I05         0.000 7         0.00007        -0.031 7        47.656           0.000 6         0.00006        -0.066 6        41.875  
I06  38333068.103 7 150424139.55307       -51.076 7        45.156    38333061.605 6 318637335.15306      -108.512 6        39.375  
I07         0.000 7         0.00007        -0.031 7        43.125           0.000 6         0.00006        -0.066 6        38.594  
I09  36026298.663 8 141372131.10008      -115.378 8        50.781    36026293.376 7 299462364.96607      -244.383 7        45.938  
I10  39372110.802 7 154501453.99007       -73.956 7        44.062    39372101.793 6 327274361.96506      -156.693 6        36.562  
> 2024 01 02  1 20 30.0000000  0  9      -215.952016198741
I01         0.000 8         0.00008        -0.082 8        50.938           0.000 4         0.00004        -0.173 4        25.312  
I02  39422830.551 7 154700465.00507      -210.401 7        43.594    39422821.542 5 327695972.54705      -445.862 5        35.469  
I03  36513348.301 8 143283097.14108        28.059 8        50.156    36513341.957 7 303510945.03907        59.384 7        44.688  
I04         0.000 7         0.00007        -0.082 7        45.312           0.000 6         0.00006        -0.173 6        39.688  
I05         0.000 7         0.00007        -0.082 7        47.500           0.000 6         0.00006        -0.173 6        41.875  
I06  38332676.561 7 150422603.73907       -51.475 7        45.000    38332670.427 6 318634082.01006      -108.648 6        39.219  
I07         0.000 7         0.00007        -0.082 7        43.125           0.000 6         0.00006        -0.173 6        38.594  
I09  36025417.430 8 141368672.51408      -115.346 8        50.625    36025412.218 7 299455038.88107      -244.295 7        45.781  
I10  39371545.365 7 154499235.28207       -73.989 7        44.219    39371536.714 6 327269662.52006      -157.150 6        36.562  
> 2024 01 02  1 21  0.0000000  0  9      -215.826455204694
I01         0.000 8         0.00008        -0.037 8        50.938           0.000 3         0.00003        -0.078 3        23.906  
I02  39421215.419 7 154694127.45407      -211.955 7        43.281    39421206.489 5 327682548.24805      -448.692 5        35.938  
I03  36513563.497 8 143283941.53908        28.267 8        50.156    36513557.098 7 303512733.85107        59.634 7        44.688  
I04         0.000 7         0.00007        -0.037 7        45.469           0.000 6         0.00006        -0.078 6        39.688  
I05         0.000 7         0.00007        -0.037 7        47.812           0.000 6         0.00006        -0.078 6        41.875  
I06  38332285.413 7 150421067.80007       -51.294 7        45.000    38332278.892 6 318630828.62106      -108.881 6        39.375  
I07         0.000 7         0.00007        -0.037 7        43.125           0.000 6         0.00006        -0.078 6        38.594  
I09  36024536.692 8 141365216.84208      -115.244 8        50.625    36024531.617 7 299447718.95407      -243.838 7        45.781  
I10  39370979.876 7 154497015.61307       -73.937 7        44.219    39370971.142 6 327264961.04806      -157.218 6        36.719  
> 2024 01 02  1 21 30.0000000  0  9      -215.255257884489
I01         0.000 8         0.00008        -0.044 8        51.094           0.000 3         0.00003        -0.093 3        20.781  
I02  39419587.808 7 154687740.48707      -213.850 7        43.281    39419579.559 5 327669019.29405      -452.798 5        35.781  
I03  36513779.795 8 143284790.07108        28.292 8        50.156    36513773.360 7 303514531.41307        59.809 7        44.688  
I04         0.000 7         0.00007        -0.044 7        45.469           0.000 6         0.00006        -0.093 6        39.688  
I05         0.000 7         0.00007        -0.044 7        47.969           0.000 6         0.00006        -0.093 6        41.875  
I06  38331893.817 7 150419531.76207       -51.343 7        45.156    38331887.516 6 318627575.02706      -108.504 6        39.219  
I07         0.000 7         0.00007        -0.044 7        43.125           0.000 6         0.00006        -0.093 6        38.594  
I09  36023656.940 8 141361764.07408      -114.964 8        50.625    36023651.667 7 299440405.19007      -243.783 7        45.781  
I10  39370414.156 7 154494795.02207       -73.820 7        44.219    39370405.755 6 327260257.62506      -156.861 6        36.719  
> 2024 01 02  1 22  0.0000000  0  9      -215.050082566023
I01         0.000 8         0.00008        -0.073 8        51.094           0.000 4         0.00004        -0.155 4        25.781  
I02  39417947.804 7 154681304.55307      -215.481 7        43.125    39417939.516 5 327655386.61005      -456.603 5        35.781  
I03  36513997.129 8 143285642.73508        28.445 8        50.156    36513990.775 7 303516337.73307        60.178 7        44.844  
I04         0.000 7         0.00007        -0.073 7        45.781           0.000 6         0.00006        -0.155 6        39.844  
I05         0.000 7         0.00007        -0.073 7        47.969           0.000 6         0.00006        -0.155 6        41.719  
I06  38331502.535 7 150417995.64607       -51.220 7        45.156    38331496.634 6 318624321.27606      -108.623 6        39.375  
I07         0.000 7         0.00007        -0.073 7        43.125           0.000 6         0.00006        -0.155 6        38.281  
I09  36022777.856 8 141358314.29108      -115.007 8        50.469    36022772.709 7 299433097.75707      -243.579 7        45.781  
I10  39369848.021 7 154492573.51107       -74.160 7        44.375    39369839.774 6 327255552.23906      -157.071 6        36.875  
> 2024 01 02  1 22 30.0000000  0  9      -214.658354549701
I01         0.000 8         0.00008        -0.062 8        50.938           0.000 3         0.00003        -0.130 3        22.812  
I02  39416295.051 7 154674817.71707      -216.930 7        43.125    39416286.682 5 327641646.12105      -459.526 5        35.938  
I03  36514215.482 8 143286499.52408        28.487 8        50.156    36514209.072 7 303518152.79007        60.527 7        44.688  
I04         0.000 7         0.00007        -0.062 7        45.625           0.000 6         0.00006        -0.130 6        39.844  
I05         0.000 7         0.00007        -0.062 7        47.812           0.000 7         0.00007        -0.130 7        42.188  
I06  38331111.176 7 150416459.45607       -51.243 7        45.156    38331104.466 6 318621067.36806      -108.625 6        39.219  
I07         0.000 7         0.00007        -0.062 7        43.125           0.000 6         0.00006        -0.130 6        38.438  
I09  36021899.444 8 141354867.52308      -114.876 8        50.469    36021894.353 7 299425796.69307      -243.346 7        45.781  
I10  39369281.778 7 154490351.07107       -74.183 7        44.375    39369273.459 6 327250844.91306      -156.728 6        36.875  
> 2024 01 02  1 23  0.0000000  0  9      -214.380995285890
I01         0.000 8         0.00008        -0.086 8        50.938           0.000 3         0.00003        -0.181 3        23.906  
I02  39414629.564 7 154668281.45007      -218.820 7        42.969    39414620.845 6 327627800.91106      -463.848 6        36.094  
I03  36514434.955 8 143287360.41108        28.601 8        50.156    36514428.459 7 303519976.53607        61.031 7        44.688  
I04         0.000 7         0.00007        -0.086 7        45.781           0.000 6         0.00006        -0.181 6        39.688  
I05         0.000 7         0.00007        -0.086 7        47.969           0.000 7         0.00007        -0.181 7        42.031  
I06  38330719.853 7 150414923.17007       -51.206 7        45.156    38330713.235 6 318617813.26606      -108.767 6        39.219  
I07         0.000 7         0.00007        -0.086 7        42.969           0.000 6         0.00006        -0.181 6        38.438  
I09  36021022.002 8 141351423.83208      -114.868 8        50.469    36021016.890 7 299418502.16407      -243.217 7        45.781  
I10  39368715.492 7 154488127.74507       -74.129 7        44.062    39368706.968 6 327246135.69206      -157.340 6        36.719  
> 2024 01 02  1 23 30.0000000  0  9      -214.641261692551
I01         0.000 8         0.00008        -0.093 8        50.938           0.000 3         0.00003        -0.197 3        23.281  
I02  39412951.294 7 154661696.34507      -220.391 7        43.125    39412943.287 6 327613852.27106      -466.993 6        36.250  
I03  36514655.366 8 143288225.40608        28.729 8        50.156    36514649.018 7 303521808.96407        61.189 7        44.688  
I04         0.000 7         0.00007        -0.093 7        45.781           0.000 6         0.00006        -0.197 6        39.375  
I05         0.000 8         0.00008        -0.093 8        48.125           0.000 6         0.00006        -0.197 6        41.719  
I06  38330328.165 7 150413386.78307       -51.250 7        45.156    38330321.842 6 318614558.93906      -108.637 6        39.219  
I07         0.000 7         0.00007        -0.093 7        42.969           0.000 6         0.00006        -0.197 6        38.125  
I09  36020145.287 8 141347983.26908      -114.749 8        50.625    36020140.174 7 299411214.26807      -243.040 7        45.781  
I10  39368148.937 7 154485903.54007       -74.268 7        44.062    39368140.457 6 327241424.62306      -157.498 6        37.031  
> 2024 01 02  1 24  0.0000000  0  9      -214.032583793226
I01         0.000 8         0.00008        -0.147 8        50.781           0.000 4         0.00004        -0.312 4        24.688  
I02  39411261.215 7 154655062.67907      -222.240 7        43.125    39411253.183 6 327599800.76906      -470.620 6        36.250  
I03  36514876.985 8 143289094.52308        28.831 8        50.156    36514870.593 7 303523650.14607        61.105 7        44.688  
I04         0.000 7         0.00007        -0.147 7        45.781           0.000 6         0.00006        -0.312 6        39.688  
I05         0.000 8         0.00008        -0.147 8        48.281           0.000 6         0.00006        -0.312 6        41.719  
I06  38329936.752 7 150411850.35207       -51.350 7        45.156    38329930.213 6 318611304.53006      -108.794 6        39.219  
I07         0.000 7         0.00007        -0.147 7        42.969           0.000 6         0.00006        -0.312 6        38.281  
I09  36019269.256 8 141344545.87508      -114.746 8        50.625    36019263.923 7 299403933.09007      -242.936 7        45.781  
I10  39367581.946 7 154483678.44407       -74.393 7        44.062    39367573.217 6 327236711.68006      -157.273 6        37.188  
> 2024 01 02  1 24 30.0000000  0  9      -214.165458374688
I01         0.000 8         0.00008        -0.017 8        50.781           0.000 4         0.00004        -0.037 4        26.562  
I02  39409558.288 7 154648380.09707      -223.485 7        43.281    39409550.355 6 327585645.66006      -473.562 6        36.406  
I03  36515099.519 8 143289967.73908        29.121 8        50.156    36515093.029 7 303525500.00207        61.874 7        44.688  
I04         0.000 7         0.00007        -0.017 7        45.938           0.000 6         0.00006        -0.037 6        39.688  
I05         0.000 8         0.00008        -0.017 8        48.125           0.000 6         0.00006        -0.037 6        41.562  
I06  38329545.476 7 150410313.86707       -51.034 7        45.156    38329538.168 6 318608050.01506      -108.465 6        39.219  
I07         0.000 7         0.00007        -0.017 7        42.969           0.000 6         0.00006        -0.037 6        38.125  
I09  36018394.279 8 141341111.72708      -114.390 8        50.625    36018388.945 7 299396658.78607      -242.367 7        45.781  
I10  39367014.772 7 154481452.48307       -74.231 7        44.062    39367006.138 6 327231996.90006      -157.276 6        37.031  
> 2024 01 02  1 25  0.0000000  0  9      -214.188129381790
I01         0.000 8         0.00008        -0.093 8        50.625           0.000 4         0.00004        -0.198 4        26.094  
I02  39407842.879 7 154641647.13407      -225.226 7        43.281    39407834.192 6 327571383.81206      -476.887 6        36.250  
I03  36515323.102 8 143290845.08008        29.234 8        50.156    36515316.624 7 303527358.58607        61.765 7        44.688  
I04         0.000 7         0.00007        -0.093 7        45.781           0.000 6         0.00006        -0.198 6        39.531  
I05         0.000 8         0.00008        -0.093 8        48.281           0.000 6         0.00006        -0.198 6        41.250  
I06  38329153.685 7 150408777.32807       -51.442 7        45.156    38329146.978 6 318604795.38206      -108.508 6        39.062  
I07         0.000 7         0.00007        -0.093 7        42.812           0.000 6         0.00006        -0.198 6        38.125  
I09  36017519.972 8 141337680.84208      -114.326 8        50.625    36017514.838 7 299389391.39407      -242.292 7        45.781  
I10  39366447.571 7 154479225.67607       -74.433 7        44.062    39366438.996 6 327227280.33106      -157.283 6        36.875  
> 2024 01 02  1 25 30.0000000  0  9      -214.238573417513
I01         0.000 8         0.00008        -0.076 8        50.625           0.000 4         0.00004        -0.162 4        24.062  
I02  39406115.194 7 154634865.24807      -226.855 7        43.125    39406106.391 6 327557018.36706      -480.376 6        36.406  
I03  36515547.682 8 143291726.52008        29.387 8        50.156    36515541.295 7 303529225.85907        62.320 7        44.688  
I04         0.000 7         0.00007        -0.076 7        45.781           0.000 6         0.00006        -0.162 6        39.219  
I05         0.000 8         0.00008        -0.076 8        48.438           0.000 6         0.00006        -0.162 6        41.250  
I06  38328762.433 7 150407240.72107       -51.264 7        45.156    38328755.457 6 318601540.61406      -108.846 6        39.219  
I07         0.000 7         0.00007        -0.076 7        42.969           0.000 6         0.00006        -0.162 6        38.281  
I09  36016646.651 8 141334253.27008      -114.342 8        50.625    36016641.336 7 299382131.01307      -241.993 7        45.781  
I10  39365879.708 7 154476998.04807       -74.358 7        43.906    39365871.166 6 327222562.01306      -157.460 6        36.875  
> 2024 01 02  1 26  0.0000000  0  9      -214.577877969121
I01         0.000 8         0.00008        -0.044 8        50.625           0.000 4         0.00004        -0.094 4        24.375  
I02  39404373.889 7 154628034.51307      -228.750 7        43.125    39404366.380 6 327542549.44306      -484.445 6        36.562  
I03  36515773.449 8 143292612.05308        29.568 8        50.156    36515766.871 7 303531101.80207        62.577 7        44.688  
I04         0.000 7         0.00007        -0.044 7        45.625           0.000 6         0.00006        -0.094 6        39.062  
I05         0.000 8         0.00008        -0.044 8        48.594           0.000 6         0.00006        -0.094 6        41.250  
I06  38328370.739 7 150405704.09407       -51.154 7        45.156    38328364.049 6 318598285.81206      -108.885 6        39.062  
I07         0.000 7         0.00007        -0.044 7        42.969           0.000 6         0.00006        -0.094 6        38.125  
I09  36015774.021 8 141330829.09908      -114.102 8        50.469    36015768.726 7 299374877.84707      -241.735 7        45.781  
I10  39365312.141 7 154474769.58507       -74.077 7        43.906    39365303.068 6 327217841.92106      -157.630 6        37.031  
> 2024 01 02  1 26 30.0000000  0  9      -214.094537515948
I01         0.000 8         0.00008        -0.080 8        50.625           0.000 4         0.00004        -0.170 4        25.156  
I02  39402621.196 7 154621154.87507      -230.356 7        43.281    39402613.260 6 327527976.93306      -487.664 6        36.875  
I03  36516000.293 8 143293501.67308        29.647 8        50.156    36515993.704 7 303532986.41207        62.774 7        44.688  
I04         0.000 7         0.00007        -0.080 7        45.625           0.000 6         0.00006        -0.170 6        38.906  
I05         0.000 8         0.00008        -0.080 8        48.438           0.000 6         0.00006        -0.170 6        41.562  
I06  38327979.150 7 150404167.40507       -51.166 7        45.156    38327972.210 6 318595030.87306      -108.783 6        39.062  
I07         0.000 7         0.00007        -0.080 7        42.812           0.000 6         0.00006        -0.170 6        38.125  
I09  36014902.362 8 141327408.38708      -114.009 8        50.469    36014897.220 7 299367631.99207      -241.508 7        45.625  
I10  39364744.126 7 154472540.33907       -74.394 7        43.906    39364735.283 6 327213120.18906      -157.522 6        36.875  
> 2024 01 02  1 27  0.0000000  0  9      -214.957962159767
I01         0.000 8         0.00008        -0.060 8        50.625           0.000 3         0.00003        -0.127 3        22.344  
I02  39400855.796 7 154614226.99907      -231.698 7        43.281    39400847.454 6 327513302.25006      -490.746 6        36.562  
I03  36516227.963 8 143294395.35908        29.810 8        50.156    36516221.535 7 303534879.63807        63.107 7        44.844  
I04         0.000 7         0.00007        -0.060 7        45.625           0.000 6         0.00006        -0.127 6        38.750  
I05         0.000 8         0.00008        -0.060 8        48.438           0.000 6         0.00006        -0.127 6        41.719  
I06  38327587.442 7 150402630.69607       -51.289 7        45.156    38327580.882 6 318591775.90006      -108.526 6        38.906  
I07         0.000 7         0.00007        -0.060 7        42.812           0.000 6         0.00006        -0.127 6        38.125  
I09  36014031.548 8 141323991.12608      -113.945 8        50.469    36014026.264 7 299360393.45107      -241.378 7        45.625  
I10  39364175.979 7 154470310.28907       -74.346 7        43.906    39364166.929 6 327208396.75206      -157.791 6        36.719  
> 2024 01 02  1 27 30.0000000  0  9      -215.301483841111
I01         0.000 8         0.00008        -0.063 8        50.625           0.000 3         0.00003        -0.134 3        22.812  
I02  39399078.378 7 154607251.38207      -233.280 7        43.438    39399069.312 6 327498526.42706      -494.386 6        36.562  
I03  36516456.788 8 143295293.12708        29.874 8        50.156    36516450.298 7 303536781.52307        63.400 7        44.844  
I04         0.000 7         0.00007        -0.063 7        45.781           0.000 6         0.00006        -0.134 6        38.594  
I05         0.000 8         0.00008        -0.063 8        48.281           0.000 6         0.00006        -0.134 6        41.406  
I06  38327195.975 7 150401093.96107       -51.267 7        45.000    38327189.106 6 318588520.88706      -108.688 6        39.062  
I07         0.000 7         0.00007        -0.063 7        42.969           0.000 6         0.00006        -0.134 6        37.969  
I09  36013161.657 8 141320577.40108      -113.827 8        50.469    36013156.380 7 299353162.40507      -241.104 7        45.625  
I10  39363607.584 7 154468079.44807       -74.388 7        43.750    39363598.326 6 327203671.62906      -157.733 6        36.562  
> 2024 01 02  1 28  0.0000000  0  9      -215.394388188451
I01         0.000 8         0.00008        -0.144 8        50.625           0.000 3         0.00003        -0.304 3        22.344  
I02  39397288.346 7 154600226.36407      -235.091 7        43.438    39397279.318 6 327483645.97006      -497.911 6        36.406  
I03  36516686.676 8 143296194.97608        29.911 8        50.156    36516680.125 7 303538692.04907        63.470 7        44.844  
I04         0.000 7         0.00007        -0.144 7        45.781           0.000 6         0.00006        -0.304 6        38.750  
I05         0.000 8         0.00008        -0.144 8        48.125           0.000 6         0.00006        -0.304 6        41.875  
I06  38326804.410 7 150399557.19807       -51.343 7        45.000    38326797.950 6 318585265.80606      -108.719 6        39.062  
I07         0.000 7         0.00007        -0.144 7        42.969           0.000 6         0.00006        -0.304 6        37.969  
I09  36012292.886 8 141317167.27408      -113.617 8        50.469    36012287.210 7 299345938.99407      -241.015 7        45.469  
I10  39363039.006 7 154465847.84407       -74.934 7        43.594    39363029.437 6 327198944.89106      -157.626 6        36.250  
> 2024 01 02  1 28 30.0000000  0  9      -215.661736378647
I01         0.000 8         0.00008        -0.076 8        50.469           0.000 4         0.00004        -0.161 4        25.781  
I02  39395486.065 7 154593153.34907      -236.678 7        43.281    39395477.325 6 327468663.84606      -501.296 6        36.719  
I03  36516917.602 8 143297100.86908        30.161 8        50.156    36516911.067 7 303540611.14507        63.972 7        44.844  
I04         0.000 7         0.00007        -0.076 7        45.781           0.000 6         0.00006        -0.161 6        38.594  
I05         0.000 7         0.00007        -0.076 7        47.812           0.000 6         0.00006        -0.161 6        41.406  
I06  38326413.007 7 150398020.46107       -51.179 7        45.000    38326405.978 6 318582010.77406      -108.630 6        39.375  
I07         0.000 7         0.00007        -0.076 7        42.969           0.000 6         0.00006        -0.161 6        38.125  
I09  36011424.732 8 141313760.77608      -113.547 8        50.469    36011419.112 7 299338723.25907      -240.514 7        45.469  
I10  39362470.019 7 154463615.49507       -74.534 7        43.750    39362460.924 6 327194216.57606      -157.727 6        36.250  
> 2024 01 02  1 29  0.0000000  0  9      -215.632004906453
I01         0.000 8         0.00008        -0.170 8        50.625           0.000 4         0.00004        -0.360 4        25.312  
I02  39393671.539 7 154586032.13407      -238.490 7        43.125    39393662.781 6 327453579.63306      -504.708 6        36.875  
I03  36517149.553 8 143298010.84908        30.282 8        50.156    36517142.852 7 303542538.89407        64.266 7        44.844  
I04         0.000 7         0.00007        -0.170 7        45.938           0.000 6         0.00006        -0.360 6        38.594  
I05         0.000 7         0.00007        -0.170 7        47.656           0.000 6         0.00006        -0.360 6        41.406  
I06  38326021.274 7 150396483.69807       -51.541 7        44.844    38326014.675 6 318578755.69406      -109.048 6        39.219  
I07         0.000 7         0.00007        -0.170 7        42.969           0.000 6         0.00006        -0.360 6        38.125  
I09  36010557.480 8 141310357.97908      -113.527 8        50.469    36010552.111 7 299331515.39407      -240.413 7        45.469  
I10  39361901.319 7 154461382.40407       -74.813 7        43.750    39361891.460 6 327189486.66406      -157.955 6        36.250  
> 2024 01 02  1 29 30.0000000  0  9      -215.682783013937
I01         0.000 8         0.00008        -0.092 8        50.625           0.000 3         0.00003        -0.196 3        23.438  
I02  39391844.614 7 154578863.35907      -239.845 7        43.281    39391836.414 6 327438394.67106      -508.310 6        36.562  
I03  36517382.590 8 143298924.89708        30.483 8        50.312    36517375.918 7 303544475.26307        64.523 7        44.844  
I04         0.000 7         0.00007        -0.092 7        46.094           0.000 6         0.00006        -0.196 6        38.594  
I05         0.000 7         0.00007        -0.092 7        47.812           0.000 6         0.00006        -0.196 6        41.250  
I06  38325629.867 7 150394946.93207       -51.398 7        45.000    38325623.045 6 318575500.62806      -108.659 6        39.219  
I07         0.000 7         0.00007        -0.092 7        42.969           0.000 6         0.00006        -0.196 6        37.969  
I09  36009691.368 8 141306958.92008      -113.228 8        50.469    36009685.599 7 299324315.42807      -240.147 7        45.312  
I10  39361332.021 7 154459148.58907       -74.692 7        43.906    39361322.041 6 327184755.23106      -157.883 6        36.250  
> 2024 01 02  1 30  0.0000000  0  9      -215.681184702417
I01         0.000 8         0.00008        -0.079 8        50.625           0.000 4         0.00004        -0.168 4        25.312  
I02  39390005.623 7 154571645.93707      -241.630 7        43.281    39389996.553 6 327423106.67006      -512.267 6        36.562  
I03  36517616.531 8 143299843.00608        30.575 8        50.156    36517609.928 7 303546420.25007        64.765 7        44.844  
I04         0.000 7         0.00007        -0.079 7        45.938           0.000 6         0.00006        -0.168 6        39.062  
I05         0.000 7         0.00007        -0.079 7        47.656           0.000 6         0.00006        -0.168 6        41.406  
I06  38325238.285 7 150393410.18907       -51.245 7        44.844    38325231.923 6 318572245.60406      -108.460 6        39.375  
I07         0.000 7         0.00007        -0.079 7        42.969           0.000 6         0.00006        -0.168 6        37.812  
I09  36008826.209 8 141303563.69608      -113.146 8        50.469    36008820.443 7 299317123.58507      -239.644 7        45.156  
I10  39360762.766 7 154456914.05507       -74.463 7        43.750    39360752.606 6 327180022.26406      -158.042 6        36.250  
> 2024 01 02  1 30 30.0000000  0  9      -215.438961824183
I01         0.000 8         0.00008         0.033 8        50.625           0.000 4         0.00004         0.070 4        25.469  
I02  39388154.411 7 154564380.58407      -242.847 7        43.281    39388145.616 6 327407717.13506      -514.580 6        36.406  
I03  36517851.634 8 143300765.17008        30.947 8        50.156    36517844.907 7 303548373.80407        65.192 7        44.844  
I04         0.000 7         0.00007         0.033 7        46.094           0.000 6         0.00006         0.070 6        39.375  
I05         0.000 7         0.00007         0.033 7        47.500           0.000 6         0.00006         0.070 6        41.406  
I06  38324846.921 7 150391873.47507       -50.843 7        45.000    38324840.141 6 318568990.64106      -108.469 6        39.688  
I07         0.000 7         0.00007         0.033 7        42.969           0.000 6         0.00006         0.070 6        38.125  
I09  36007961.856 8 141300172.30608      -112.994 8        50.312    36007956.182 7 299309939.86707      -239.225 7        45.156  
I10  39360193.348 7 154454678.83507       -74.402 7        43.906    39360182.968 6 327175287.82506      -157.945 6        36.094  
> 2024 01 02  1 31  0.0000000  0  9      -215.640318542018
I01         0.000 8         0.00008        -0.197 8        50.781           0.000 3         0.00003        -0.417 3        22.656  
I02  39386290.836 7 154557067.44507      -244.945 7        43.125    39386281.922 6 327392226.39906      -518.648 6        36.250  
I03  36518087.617 8 143301691.36208        30.735 8        50.156    36518080.920 7 303550335.91607        65.017 7        44.844  
I04         0.000 7         0.00007        -0.197 7        46.094           0.000 6         0.00006        -0.417 6        39.531  
I05         0.000 7         0.00007        -0.197 7        47.500           0.000 6         0.00006        -0.417 6        41.719  
I06  38324455.374 7 150390336.75007       -51.454 7        45.000    38324448.551 6 318565735.66706      -108.994 6        39.688  
I07         0.000 7         0.00007        -0.197 7        43.125           0.000 6         0.00006        -0.417 6        37.969  
I09  36007098.783 8 141296784.84608      -113.126 8        50.469    36007093.020 7 299302764.46807      -239.552 7        45.000  
I10  39359623.851 7 154452442.90207       -75.002 7        44.062    39359613.480 6 327170551.90706      -158.047 6        36.094  
> 2024 01 02  1 31 30.0000000  0  9      -215.908262192228
I01         0.000 8         0.00008        -0.063 8        50.781           0.000 4         0.00004        -0.133 4        24.219  
I02  39384415.005 7 154549705.72607      -246.224 7        43.125    39384406.329 5 327376632.77305      -521.837 5        35.938  
I03  36518324.870 8 143302621.64108        31.034 8        50.156    36518318.092 7 303552306.65607        65.656 7        44.844  
I04         0.000 7         0.00007        -0.063 7        46.250           0.000 6         0.00006        -0.133 6        39.375  
I05         0.000 7         0.00007        -0.063 7        47.656           0.000 6         0.00006        -0.133 6        41.875  
I06  38324063.534 7 150388800.06407       -51.292 7        44.844    38324057.037 6 318562480.76906      -108.664 6        39.531  
I07         0.000 7         0.00007        -0.063 7        42.969           0.000 6         0.00006        -0.133 6        37.812  
I09  36006236.593 8 141293401.33908      -112.789 8        50.469    36006230.798 7 299295597.44807      -238.962 7        45.156  
I10  39359053.881 7 154450206.30707       -74.521 7        43.906    39359043.248 6 327165814.57306      -158.088 6        36.094  
> 2024 01 02  1 32  0.0000000  0  9      -215.869601454197
I01         0.000 8         0.00008        -0.075 8        50.781           0.000 4         0.00004        -0.158 4        24.219  
I02  39382527.163 7 154542296.90107      -247.935 7        43.125    39382518.499 6 327360939.35306      -524.891 6        36.250  
I03  36518563.018 8 143303555.94108        31.171 8        50.156    36518556.219 7 303554285.93107        65.844 7        44.844  
I04         0.000 7         0.00007        -0.075 7        46.250           0.000 6         0.00006        -0.158 6        39.219  
I05         0.000 7         0.00007        -0.075 7        47.500           0.000 6         0.00006        -0.158 6        41.875  
I06  38323671.949 7 150387263.40507       -51.356 7        44.844    38323665.635 6 318559225.92206      -108.230 6        39.531  
I07         0.000 7         0.00007        -0.075 7        42.969           0.000 6         0.00006        -0.158 6        37.812  
I09  36005375.344 8 141290021.87608      -112.635 8        50.312    36005369.538 7 299288438.99007      -238.599 7        45.000  
I10  39358483.803 7 154447969.04707       -74.496 7        44.062    39358473.293 5 327161075.82005      -157.854 5        35.781  
> 2024 01 02  1 32 30.0000000  0  9      -215.640609489788
I01         0.000 8         0.00008        -0.159 8        50.781           0.000 3         0.00003        -0.337 3        22.344  
I02  39380627.333 7 154534840.22707      -249.743 7        42.969    39380618.393 6 327345144.58506      -528.979 6        36.094  
I03  36518802.078 8 143304494.29508        31.116 8        50.156    36518795.457 7 303556273.79507        66.028 7        44.844  
I04         0.000 7         0.00007        -0.159 7        46.562           0.000 6         0.00006        -0.337 6        39.219  
I05         0.000 7         0.00007        -0.159 7        47.500           0.000 6         0.00006        -0.337 6        41.875  
I06  38323280.588 7 150385726.78907       -51.305 7        45.000    38323274.061 6 318555971.18006      -108.969 6        39.531  
I07         0.000 7         0.00007        -0.159 7        42.969           0.000 6         0.00006        -0.337 6        37.812  
I09  36004515.135 8 141286646.47008      -112.625 8        50.312    36004509.596 7 299281289.14907      -238.591 7        45.156  
I10  39357913.866 7 154445731.12007       -74.873 7        44.062    39357903.027 5 327156335.67105      -158.678 5        35.625  
> 2024 01 02  1 33  0.0000000  0  9      -216.057595132579
I01         0.000 8         0.00008        -0.066 8        50.781           0.000 4         0.00004        -0.139 4        25.469  
I02  39378714.774 7 154527336.27607      -250.860 7        42.812    39378705.884 5 327329249.68105      -531.506 5        35.938  
I03  36519042.218 8 143305436.68508        31.544 8        50.156    36519035.552 7 303558270.21207        66.656 7        44.844  
I04         0.000 7         0.00007        -0.066 7        46.562           0.000 6         0.00006        -0.139 6        39.219  
I05         0.000 7         0.00007        -0.066 7        47.656           0.000 7         0.00007        -0.139 7        42.031  
I06  38322889.131 7 150384190.20807       -51.307 7        45.000    38322882.380 6 318552716.51606      -108.706 6        39.531  
I07         0.000 7         0.00007        -0.066 7        43.125           0.000 6         0.00006        -0.139 6        37.969  
I09  36003656.003 8 141283275.22408      -112.375 8        50.312    36003650.591 7 299274148.10807      -238.096 7        45.156  
I10  39357343.404 7 154443492.57307       -74.825 7        44.219    39357333.050 5 327151594.20305      -158.281 5        35.625  
> 2024 01 02  1 33 30.0000000  0  9      -215.530222042003
I01         0.000 8         0.00008        -0.068 8        50.781           0.000 4         0.00004        -0.144 4        24.844  
I02  39376791.023 7 154519786.17407      -252.491 7        42.969    39376782.422 6 327313257.00806      -534.624 6        36.094  
I03  36519283.464 8 143306383.09708        31.534 8        50.156    36519276.712 7 303560275.14307        66.672 7        44.844  
I04         0.000 7         0.00007        -0.068 7        46.719           0.000 6         0.00006        -0.144 6        39.062  
I05         0.000 7         0.00007        -0.068 7        47.656           0.000 6         0.00006        -0.144 6        41.875  
I06  38322497.714 7 150382653.68407       -51.232 7        44.844    38322491.007 6 318549461.98606      -108.627 6        39.688  
I07         0.000 7         0.00007        -0.068 7        42.969           0.000 6         0.00006        -0.144 6        37.500  
I09  36002798.025 8 141279908.17308      -112.283 8        50.312    36002792.603 7 299267015.96007      -237.726 7        45.312  
I10  39356772.974 7 154441253.40907       -74.696 7        44.219    39356762.398 5 327146851.39605      -158.098 5        35.781  
> 2024 01 02  1 34  0.0000000  0  9      -215.433601645231
I01         0.000 8         0.00008        -0.034 8        50.625           0.000 3         0.00003        -0.073 3        23.125  
I02  39374854.726 7 154512187.19007      -254.064 7        42.812    39374845.701 5 327297160.79505      -538.459 5        35.938  
I03  36519525.790 8 143307333.55108        31.680 8        50.156    36519519.019 7 303562288.64407        67.140 7        44.688  
I04         0.000 7         0.00007        -0.034 7        46.875           0.000 6         0.00006        -0.073 6        39.375  
I05         0.000 7         0.00007        -0.034 7        47.188           0.000 6         0.00006        -0.073 6        41.719  
I06  38322106.126 7 150381117.21807       -51.074 7        45.000    38322099.720 6 318546207.58806      -108.511 6        39.688  
I07         0.000 7         0.00007        -0.034 7        43.125           0.000 6         0.00006        -0.073 6        37.656  
I09  36001941.161 8 141276545.38908      -112.009 8        50.312    36001935.696 7 299259892.85707      -237.307 7        45.312  
I10  39356202.125 7 154439013.62907       -74.680 7        44.375    39356191.405 5 327142107.31205      -158.079 5        35.625  
> 2024 01 02  1 34 30.0000000  0  9      -215.189190313891
I01         0.000 8         0.00008        -0.072 8        50.625           0.000 4         0.00004        -0.152 4        25.000  
I02  39372906.311 7 154504541.24607      -255.659 7        42.812    39372897.540 5 327280965.11105      -541.337 5        35.625  
I03  36519769.116 8 143308288.01308        31.726 8        50.156    36519762.421 7 303564310.63607        67.263 7        44.844  
I04         0.000 7         0.00007        -0.072 7        46.719           0.000 6         0.00006        -0.152 6        39.531  
I05         0.000 7         0.00007        -0.072 7        47.188           0.000 7         0.00007        -0.152 7        42.031  
I06  38321714.701 7 150379580.78307       -51.185 7        44.844    38321708.009 6 318542953.26306      -108.799 6        39.844  
I07         0.000 7         0.00007        -0.072 7        42.969           0.000 6         0.00006        -0.152 6        37.500  
I09  36001085.357 8 141273186.88308      -111.893 8        50.312    36001079.813 7 299252778.80807      -237.146 7        45.156  
I10  39355631.547 7 154436773.23407       -74.822 7        44.375    39355620.745 5 327137361.93305      -158.395 5        35.781  
> 2024 01 02  1 35  0.0000000  0  9      -215.062547437508
I01         0.000 8         0.00008        -0.096 8        50.625           0.000 4         0.00004        -0.203 4        24.375  
I02  39370946.086 7 154496847.90707      -257.208 7        42.969    39370936.682 5 327264669.03605      -544.842 5        35.938  
I03  36520013.455 8 143309246.48908        31.900 8        50.156    36520006.453 7 303566341.14007        67.583 7        44.844  
I04         0.000 7         0.00007        -0.096 7        46.719           0.000 6         0.00006        -0.203 6        39.688  
I05         0.000 7         0.00007        -0.096 7        47.500           0.000 6         0.00006        -0.203 6        41.719  
I06  38321323.165 7 150378044.44707       -51.332 7        44.844    38321317.148 6 318539699.13706      -108.628 6        40.156  
I07         0.000 7         0.00007        -0.096 7        42.969           0.000 6         0.00006        -0.203 6        37.656  
I09  36000230.693 8 141269832.76508      -111.946 8        50.156    36000225.069 7 299245674.06507      -236.915 7        45.156  
I10  39355060.638 7 154434532.28307       -74.790 7        44.531    39355049.666 5 327132615.31105      -158.365 5        35.625  
> 2024 01 02  1 35 30.0000000  0  9      -214.797362614344
I01         0.000 8         0.00008        -0.081 8        50.781           0.000 3         0.00003        -0.171 3        23.594  
I02  39368974.019 7 154489108.32607      -258.790 7        42.812    39368964.984 5 327248275.02405      -548.173 5        35.938  
I03  36520258.682 8 143310208.96508        32.119 8        50.156    36520251.964 7 303568380.11507        67.913 7        44.844  
I04         0.000 7         0.00007        -0.081 7        46.562           0.000 6         0.00006        -0.171 6        39.844  
I05         0.000 7         0.00007        -0.081 7        47.500           0.000 7         0.00007        -0.171 7        42.188  
I06  38320931.946 7 150376508.17507       -51.336 7        44.844    38320925.394 6 318536445.16006      -108.622 6        40.156  
I07         0.000 7         0.00007        -0.081 7        43.125           0.000 6         0.00006        -0.171 6        37.500  
I09  35999377.194 8 141266483.09108      -111.807 8        50.156    35999371.484 7 299238578.72307      -236.503 7        45.156  
I10  39354489.536 7 154432290.74407       -74.707 7        44.688    39354478.532 5 327127867.48505      -158.645 5        35.781  
> 2024 01 02  1 36  0.0000000  0  9      -215.083989659373
I01         0.000 8         0.00008        -0.025 8        50.781           0.000 3         0.00003        -0.052 3        22.188  
I02  39366989.887 7 154481320.94607      -260.247 7        42.969    39366980.578 5 327231779.74705      -552.053 5        35.781  
I03  36520505.103 8 143311175.45208        32.198 8        50.156    36520498.123 7 303570427.57807        68.195 7        44.844  
I04         0.000 7         0.00007        -0.025 7        46.719           0.000 6         0.00006        -0.052 6        40.156  
I05         0.000 7         0.00007        -0.025 7        47.656           0.000 6         0.00006        -0.052 6        41.875  
I06  38320540.420 7 150374971.98807       -51.070 7        44.844    38320534.040 6 318533191.37506      -108.669 6        39.844  
I07         0.000 7         0.00007        -0.025 7        43.125           0.000 6         0.00006        -0.052 6        37.500  
I09  35998524.818 8 141263137.91008      -111.446 8        50.156    35998519.213 7 299231492.90807      -235.995 7        45.156  
I10  39353918.309 7 154430048.63607       -74.689 7        44.688    39353906.178 5 327123118.43205      -158.508 5        35.625  
> 2024 01 02  1 36 30.0000000  0  9      -215.248594651204
I01         0.000 8         0.00008        -0.086 8        50.781           0.000 3         0.00003        -0.181 3        23.750  
I02  39364993.763 7 154473487.41007      -262.031 7        42.969    39364984.236 5 327215186.70305      -555.207 5        35.312  
I03  36520752.503 8 143312145.95208        32.378 8        50.156    36520745.709 7 303572483.54607        68.360 7        44.844  
I04         0.000 7         0.00007        -0.086 7        46.562           0.000 6         0.00006        -0.181 6        40.469  
I05         0.000 7         0.00007        -0.086 7        47.812           0.000 6         0.00006        -0.181 6        41.562  
I06  38320149.267 7 150373435.90507       -51.335 7        44.844    38320142.721 6 318529937.80806      -108.818 6        39.844  
I07         0.000 7         0.00007        -0.086 7        43.125           0.000 6         0.00006        -0.181 6        37.500  
I09  35997673.491 8 141259797.26708      -111.386 8        50.312    35997667.967 7 299224416.70007      -235.822 7        45.156  
I10  39353346.827 7 154427805.98207       -74.777 7        44.688    39353335.974 5 327118368.24005      -158.536 5        35.469  
> 2024 01 02  1 37  0.0000000  0  9      -215.491665704194
I01         0.000 8         0.00008        -0.039 8        50.938           0.000 3         0.00003        -0.083 3        20.938  
I02  39362985.687 7 154465606.70107      -263.567 7        42.969    39362976.031 5 327198493.71805      -558.670 5        35.312  
I03  36521000.768 8 143313120.44408        32.526 8        50.156    36520994.000 7 303574547.97507        68.961 7        44.844  
I04         0.000 7         0.00007        -0.039 7        46.562           0.000 6         0.00006        -0.083 6        40.938  
I05         0.000 7         0.00007        -0.039 7        47.500           0.000 6         0.00006        -0.083 6        41.562  
I06  38319757.913 7 150371899.93107       -51.175 7        44.844    38319751.704 6 318526684.47506      -108.357 6        40.000  
I07         0.000 7         0.00007        -0.039 7        43.125           0.000 6         0.00006        -0.083 6        37.656  
I09  35996823.567 8 141256461.24308      -111.134 8        50.156    35996817.884 7 299217350.27907      -235.509 7        45.156  
I10  39352775.353 7 154425562.80207       -74.615 7        44.688    39352764.530 5 327113616.91805      -158.033 5        35.781  
> 2024 01 02  1 37 30.0000000  0  9      -215.409601647767
I01         0.000 8         0.00008        -0.066 8        50.781           0.000 4         0.00004        -0.140 4        24.375  
I02  39360965.661 7 154457679.81607      -265.058 7        42.969    39360956.274 5 327181702.93105      -561.642 5        35.469  
I03  36521250.185 8 143314098.93108        32.589 8        50.156    36521243.201 7 303576620.87007        69.113 7        44.844  
I04         0.000 7         0.00007        -0.066 7        46.562           0.000 6         0.00006        -0.140 6        40.625  
I05         0.000 7         0.00007        -0.066 7        47.656           0.000 6         0.00006        -0.140 6        41.719  
I06  38319366.704 7 150370364.03607       -51.176 7        44.844    38319359.852 6 318523431.30906      -108.616 6        40.000  
I07         0.000 7         0.00007        -0.066 7        43.281           0.000 6         0.00006        -0.140 6        37.344  
I09  35995974.608 8 141253129.89308      -111.113 8        50.156    35995968.979 7 299210293.75607      -235.239 7        45.156  
I10  39352203.812 7 154423319.10107       -74.753 7        44.531    39352192.340 5 327108864.50805      -158.746 5        35.625  
> 2024 01 02  1 38  0.0000000  0  9      -215.192633040919
I01         0.000 8         0.00008        -0.028 8        50.938           0.000 3         0.00003        -0.060 3        22.969  
I02  39358933.594 7 154449706.30507      -266.283 7        42.812    39358924.955 5 327164813.38205      -564.406 5        35.625  
I03  36521500.644 8 143315081.41208        32.794 8        50.312    36521493.847 7 303578702.22307        69.415 7        44.844  
I04         0.000 7         0.00007        -0.028 7        46.562           0.000 6         0.00006        -0.060 6        40.469  
I05         0.000 8         0.00008        -0.028 8        48.125           0.000 6         0.00006        -0.060 6        41.250  
I06  38318975.365 7 150368828.25107       -51.284 7        44.844    38318968.790 6 318520178.38406      -108.319 6        40.000  
I07         0.000 7         0.00007        -0.028 7        43.125           0.000 6         0.00006        -0.060 6        37.812  
I09  35995127.064 8 141249803.28308      -110.786 8        50.312    35995121.296 7 299203247.28407      -234.804 7        45.000  
I10  39351631.945 7 154421074.89307       -74.845 7        44.531    39351620.788 5 327104111.01205      -158.882 5        35.625  
> 2024 01 02  1 38 30.0000000  0  9      -214.969212506357
I01         0.000 8         0.00008        -0.100 8        50.938           0.000 4         0.00004        -0.211 4        25.000  
I02  39356890.211 7 154441686.28807      -268.422 7        42.969    39356881.086 5 327147825.33105      -568.073 5        35.469  
I03  36521752.077 8 143316067.85008        32.866 8        50.156    36521745.208 7 303580791.96107        69.581 7        44.844  
I04         0.000 7         0.00007        -0.100 7        46.719           0.000 6         0.00006        -0.211 6        40.469  
I05         0.000 8         0.00008        -0.100 8        48.281           0.000 6         0.00006        -0.211 6        41.719  
I06  38318584.010 7 150367292.59507       -51.183 7        44.844    38318577.644 6 318516925.73406      -108.541 6        40.000  
I07         0.000 7         0.00007        -0.100 7        43.281           0.000 6         0.00006        -0.211 6        37.812  
I09  35994280.645 8 141246481.45908      -110.674 8        50.469    35994274.735 7 299196210.94907      -234.560 7        45.156  
I10  39351060.213 7 154418830.17807       -74.965 7        44.531    39351048.479 5 327099356.46005      -158.628 5        35.781  
> 2024 01 02  1 39  0.0000000  0  9      -215.680526475026
I01         0.000 8         0.00008        -0.083 8        50.938           0.000 4         0.00004        -0.175 4        24.688  
I02  39354834.972 7 154433620.66107      -269.668 7        42.969    39354825.327 5 327130740.66505      -571.341 5        35.156  
I03  36522004.562 8 143317058.30608        32.978 8        50.156    36521997.671 7 303582890.21007        69.761 7        44.844  
I04         0.000 7         0.00007        -0.083 7        46.719           0.000 6         0.00006        -0.175 6        40.312  
I05         0.000 8         0.00008        -0.083 8        48.281           0.000 6         0.00006        -0.175 6        41.406  
I06  38318192.678 7 150365757.05007       -51.175 7        44.844    38318186.084 6 318513673.32606      -108.758 6        40.000  
I07         0.000 7         0.00007        -0.083 7        43.281           0.000 6         0.00006        -0.175 6        37.656  
I09  35993435.371 8 141243164.48708      -110.581 8        50.469    35993429.551 7 299189184.89807      -234.184 7        45.156  
I10  39350487.768 7 154416584.97507       -75.018 7        44.531    39350476.587 5 327094600.86705      -158.539 5        35.469  
> 2024 01 02  1 39 30.0000000  0  9      -215.471805341520
I01         0.000 8         0.00008        -0.005 8        50.781           0.000 3         0.00003        -0.010 3        23.906  
I02  39352768.082 7 154425508.62007      -270.993 7        43.125    39352758.275 5 327113557.66305      -574.459 5        35.000  
I03  36522258.108 8 143318052.75008        33.214 8        50.156    36522251.111 7 303584996.90207        70.265 7        44.844  
I04         0.000 7         0.00007        -0.005 7        46.562           0.000 6         0.00006        -0.010 6        40.312  
I05         0.000 7         0.00007        -0.005 7        47.969           0.000 6         0.00006        -0.010 6        41.562  
I06  38317801.531 7 150364221.66107       -51.075 7        45.000    38317794.392 6 318510421.24206      -108.445 6        39.688  
I07         0.000 7         0.00007        -0.005 7        43.281           0.000 6         0.00006        -0.010 6        37.344  
I09  35992591.496 8 141239852.39808      -110.271 8        50.469    35992585.426 7 299182169.19107      -233.735 7        45.000  
I10  39349915.920 7 154414339.32207       -74.813 7        44.531    39349904.220 5 327089844.29405      -159.059 5        35.469  
> 2024 01 02  1 40  0.0000000  0  9      -216.470942489291
I01         0.000 8         0.00008        -0.124 8        50.781           0.000 4         0.00004        -0.262 4        25.312  
I02  39350689.285 7 154417350.52807      -272.902 7        42.969    39350679.343 5 327096277.12505      -578.444 5        34.844  
I03  36522512.551 8 143319051.14608        33.258 8        50.156    36522505.662 7 303587111.95807        70.625 7        44.844  
I04         0.000 7         0.00007        -0.124 7        46.406           0.000 6         0.00006        -0.262 6        40.156  
I05         0.000 7         0.00007        -0.124 7        47.656           0.000 6         0.00006        -0.262 6        41.406  
I06  38317410.551 7 150362686.34407       -51.372 7        45.000    38317403.370 6 318507169.33806      -108.534 6        39.844  
I07         0.000 7         0.00007        -0.124 7        43.281           0.000 6         0.00006        -0.262 6        37.344  
I09  35991748.808 8 141236545.30208      -110.241 8        50.625    35991742.791 7 299175164.06207      -233.561 7        45.156  
I10  39349343.486 7 154412093.19907       -75.116 7        44.531    39349332.043 5 327085086.74505      -158.984 5        35.469  
> 2024 01 02  1 40 30.0000000  0  9      -216.806866837693
I01         0.000 8         0.00008        -0.083 8        50.781           0.000 4         0.00004        -0.176 4        24.062  
I02  39348598.785 7 154409147.12307      -274.276 7        42.812    39348588.575 5 327078900.59605      -581.590 5        34.844  
I03  36522768.121 8 143320053.51408        33.393 8        50.312    36522761.023 7 303589235.43307        70.762 7        44.844  
I04         0.000 7         0.00007        -0.083 7        46.250           0.000 6         0.00006        -0.176 6        39.844  
I05         0.000 7         0.00007        -0.083 7        47.656           0.000 6         0.00006        -0.176 6        41.562  
I06  38317019.466 7 150361151.19407       -51.211 7        45.000    38317012.437 6 318503917.77406      -108.627 6        39.688  
I07         0.000 7         0.00007        -0.083 7        43.281           0.000 6         0.00006        -0.176 6        37.188  
I09  35990907.434 8 141233243.25508      -110.045 8        50.625    35990901.369 7 299168169.62107      -233.137 7        45.156  
I10  39348771.024 7 154409846.64007       -75.065 7        44.375    39348759.814 5 327080328.26205      -158.925 5        35.625  
> 2024 01 02  1 41  0.0000000  0  9      -216.642221878133
I01         0.000 8         0.00008        -0.109 8        50.781           0.000 4         0.00004        -0.231 4        24.844  
I02  39346496.266 7 154400896.50807      -275.970 7        42.969    39346486.460 5 327061424.07305      -584.832 5        35.156  
I03  36523024.497 8 143321059.86808        33.420 8        50.156    36523017.476 7 303591367.34007        70.817 7        44.844  
I04         0.000 7         0.00007        -0.109 7        45.938           0.000 6         0.00006        -0.231 6        38.906  
I05         0.000 7         0.00007        -0.109 7        47.500           0.000 6         0.00006        -0.231 6        41.250  
I06  38316628.345 7 150359616.18507       -51.328 7        45.156    38316621.001 6 318500666.53206      -108.388 6        39.844  
I07         0.000 7         0.00007        -0.109 7        43.281           0.000 6         0.00006        -0.231 6        37.344  
I09  35990067.428 8 141229946.31508      -110.050 8        50.625    35990061.048 7 299161186.01207      -232.849 7        45.000  
I10  39348198.683 7 154407599.64007       -74.766 7        44.375    39348187.847 5 327075568.85605      -159.047 5        35.781  
> 2024 01 02  1 41 30.0000000  0  9      -216.325139756633
I01         0.000 8         0.00008        -0.072 8        50.625           0.000 4         0.00004        -0.154 4        25.000  
I02  39344382.324 7 154392600.63007      -277.296 7        42.812    39344372.515 5 327043851.64805      -587.875 5        35.000  
I03  36523282.014 8 143322070.16808        33.664 8        50.312    36523275.004 7 303593507.60907        71.531 7        44.844  
I04         0.000 7         0.00007        -0.072 7        45.781           0.000 6         0.00006        -0.154 6        38.594  
I05         0.000 7         0.00007        -0.072 7        47.344           0.000 6         0.00006        -0.154 6        41.406  
I06  38316237.488 7 150358081.33007       -51.078 7        45.000    38316230.007 6 318497415.60106      -108.547 6        39.844  
I07         0.000 7         0.00007        -0.072 7        43.438           0.000 6         0.00006        -0.154 6        37.031  
I09  35989228.597 8 141226654.53008      -109.732 8        50.781    35989222.202 7 299154213.31307      -232.343 7        45.000  
I10  39347626.405 7 154405352.25807       -75.115 7        44.375    39347614.708 5 327070808.59205      -158.845 5        35.469  
> 2024 01 02  1 42  0.0000000  0  9      -216.648026190458
I01         0.000 8         0.00008        -0.079 8        50.781           0.000 4         0.00004        -0.167 4        24.688  
I02  39342256.889 7 154384259.10907      -278.950 7        42.969    39342247.294 5 327026182.56705      -590.920 5        35.156  
I03  36523540.636 8 143323084.41508        33.825 8        50.312    36523533.370 7 303595656.24807        71.631 7        44.844  
I04         0.000 7         0.00007        -0.079 7        45.625           0.000 6         0.00006        -0.167 6        38.125  
I05         0.000 7         0.00007        -0.079 7        47.188           0.000 6         0.00006        -0.167 6        41.562  
I06  38315846.615 7 150356546.63007       -51.440 7        44.844    38315839.061 6 318494165.01106      -108.226 6        39.844  
I07         0.000 7         0.00007        -0.079 7        43.438           0.000 6         0.00006        -0.167 6        37.031  
I09  35988391.246 8 141223367.98408      -109.443 8        50.781    35988384.832 7 299147251.69807      -232.055 7        45.156  
I10  39347053.123 7 154403104.46307       -74.832 7        44.375    39347042.610 5 327066047.47505      -158.903 5        35.312  
> 2024 01 02  1 42 30.0000000  0  9      -216.304068736108
I01         0.000 8         0.00008        -0.124 8        51.094           0.000 3         0.00003        -0.263 3        23.125  
I02  39340119.673 7 154375872.32207      -280.492 7        42.500    39340109.517 5 327008417.58805      -594.050 5        35.312  
I03  36523800.219 8 143324102.61008        33.886 8        50.156    36523793.049 7 303597813.24407        71.782 7        44.688  
I04         0.000 7         0.00007        -0.124 7        45.938           0.000 6         0.00006        -0.263 6        37.969  
I05         0.000 7         0.00007        -0.124 7        47.344           0.000 6         0.00006        -0.263 6        41.406  
I06  38315455.647 7 150355012.13007       -51.273 7        45.000    38315447.823 6 318490914.85506      -108.601 6        39.531  
I07         0.000 7         0.00007        -0.124 7        42.969           0.000 6         0.00006        -0.263 6        37.188  
I09  35987555.285 8 141220086.75008      -109.481 8        51.094    35987548.715 7 299140301.33307      -231.741 7        45.156  
I10  39346480.944 7 154400856.27507       -75.150 7        43.750    39346469.518 5 327061285.53605      -159.216 5        35.781  
> 2024 01 02  1 43  0.0000000  0  9      -217.420881340925
I01         0.000 8         0.00008        -0.151 8        50.938           0.000 4         0.00004        -0.320 4        24.844  
I02  39337970.460 7 154367439.91107      -282.059 7        42.188    39337961.128 5 326990555.97605      -597.494 5        35.469  
I03  36524060.567 8 143325124.74108        34.059 8        50.312    36524053.568 7 303599978.56907        71.964 7        44.688  
I04         0.000 7         0.00007        -0.151 7        46.094           0.000 6         0.00006        -0.320 6        38.906  
I05         0.000 7         0.00007        -0.151 7        47.812           0.000 6         0.00006        -0.320 6        41.719  
I06  38315064.708 7 150353477.76907       -51.518 7        45.156    38315056.724 6 318487664.98306      -108.720 6        39.375  
I07         0.000 7         0.00007        -0.151 7        42.812           0.000 6         0.00006        -0.320 6        36.719  
I09  35986720.391 8 141216810.85908      -109.200 8        50.938    35986713.700 7 299133362.31007      -231.499 7        44.844  
I10  39345907.768 7 154398607.72407       -75.266 7        43.750    39345896.054 5 327056522.77905      -159.003 5        35.000  
> 2024 01 02  1 43 30.0000000  0  9      -217.328145229840
I01         0.000 8         0.00008        -0.024 8        50.938           0.000 3         0.00003        -0.050 3        22.031  
I02  39335810.559 7 154358961.59207      -283.244 7        42.344    39335801.121 5 326972597.08305      -600.170 5        35.156  
I03  36524322.212 8 143326150.82908        34.164 8        50.312    36524314.892 7 303602152.27407        72.484 7        44.688  
I04         0.000 7         0.00007        -0.024 7        46.250           0.000 6         0.00006        -0.050 6        38.750  
I05         0.000 8         0.00008        -0.024 8        48.125           0.000 6         0.00006        -0.050 6        41.562  
I06  38314673.879 7 150351943.59907       -51.019 7        45.156    38314665.920 6 318484415.50806      -108.167 6        39.375  
I07         0.000 7         0.00007        -0.024 7        42.812           0.000 6         0.00006        -0.050 6        37.031  
I09  35985887.171 8 141213540.40808      -108.848 8        50.781    35985880.468 7 299126434.79607      -230.905 7        45.000  
I10  39345334.939 7 154396358.80807       -74.964 7        43.750    39345323.104 5 327051759.24905      -158.796 5        35.312  
> 2024 01 02  1 44  0.0000000  0  9      -218.307460536252
I01         0.000 8         0.00008        -0.065 8        50.000           0.000 4         0.00004        -0.137 4        27.031  
I02  39333637.644 6 154350438.09206      -284.907 6        36.250    39333629.079 5 326954542.61505      -603.423 5        35.312  
I03  36524585.117 7 143327180.89607        34.309 7        47.812    36524577.876 6 303604334.37806        72.837 6        40.156  
I04         0.000 6         0.00006        -0.065 6        41.406           0.000 5         0.00005        -0.137 5        35.000  
I05         0.000 7         0.00007        -0.065 7        42.188           0.000 5         0.00005        -0.137 5        35.156  
I06  38314284.081 7 150350409.59607       -51.327 7        42.812    38314274.847 6 318481166.42106      -108.629 6        39.375  
I07         0.000 5         0.00005        -0.065 5        32.812           0.000 5         0.00005        -0.137 5        32.500  
I09  35985055.058 8 141210275.45408      -108.843 8        49.375    35985048.041 6 299119518.95306      -230.426 6        39.688  
I10  39344760.689 6 154394109.43406       -74.749 6        36.094    39344749.430 5 327046994.91905      -158.314 5        30.781  
> 2024 01 02  1 44 30.0000000  0  9      -217.785402507469
I01         0.000 8         0.00008        -0.102 8        50.000           0.000 4         0.00004        -0.216 4        25.781  
I02  39331454.858 6 154341870.59406      -286.663 6        36.875    39331446.203 5 326936394.80505      -606.778 5        35.469  
I03  36524848.711 7 143328214.84507        34.490 7        47.656    36524841.291 6 303606524.72806        73.026 6        40.312  
I04         0.000 6         0.00006        -0.102 6        41.094           0.000 6         0.00006        -0.216 6        36.562  
I05         0.000 6         0.00006        -0.102 6        41.875           0.000 5         0.00005        -0.216 5        35.000  
I06  38313893.511 7 150348875.78707       -51.320 7        43.125    38313883.853 6 318477917.74506      -108.507 6        39.062  
I07         0.000 5         0.00005        -0.102 5        33.281           0.000 5         0.00005        -0.216 5        32.656  
I09  35984224.473 8 141207016.02108      -108.689 8        49.219    35984217.030 6 299112614.79406      -230.079 6        39.531  
I10  39344188.136 6 154391859.82106       -74.897 6        37.031    39344175.257 5 327042229.92405      -158.914 5        31.406  
> 2024 01 02  1 45  0.0000000  0  9      -218.555535806384
I01         0.000 8         0.00008        -0.033 8        50.000           0.000 4         0.00004        -0.070 4        24.531  
I02  39329260.117 6 154333257.96106      -287.751 6        37.344    39329251.304 5 326918151.40705      -609.625 5        35.156  
I03  36525113.127 7 143329252.72307        34.600 7        47.812    36525106.005 6 303608723.39906        73.511 6        40.469  
I04         0.000 6         0.00006        -0.033 6        41.719           0.000 6         0.00006        -0.070 6        36.562  
I05         0.000 7         0.00007        -0.033 7        42.188           0.000 6         0.00006        -0.070 6        37.031  
I06  38313502.698 7 150347342.19307       -51.106 7        42.969    38313493.032 6 318474669.46706      -108.249 6        39.219  
I07         0.000 5         0.00005        -0.033 5        34.844           0.000 5         0.00005        -0.070 5        31.719  
I09  35983395.362 8 141203762.23508      -108.317 8        49.375    35983388.625 6 299105722.60306      -229.486 6        40.156  
I10  39343614.212 6 154389609.91706       -74.997 6        37.656    39343602.469 5 327037464.20505      -158.855 5        31.406  
> 2024 01 02  1 45 30.0000000  0  9      -219.030738186751
I01         0.000 8         0.00008        -0.149 8        48.438           0.000 4         0.00004        -0.316 4        26.406  
I02  39327055.265 6 154324600.39406      -289.603 6        40.156    39327043.998 6 326899812.86706      -613.319 6        38.281  
I03  36525379.091 7 143330294.55607        34.711 7        47.344    36525370.634 6 303610930.29906        73.985 6        39.844  
I04         0.000 6         0.00006        -0.149 6        37.344           0.000 6         0.00006        -0.316 6        39.688  
I05         0.000 7         0.00007        -0.149 7        42.969           0.000 6         0.00006        -0.316 6        38.438  
I06  38313110.955 7 150345808.74907       -51.436 7        44.375    38313102.476 6 318471421.49106      -108.232 6        39.375  
I07         0.000 5         0.00005        -0.149 5        35.312           0.000 6         0.00006        -0.316 6        39.688  
I09  35982567.844 7 141200514.11707      -108.341 7        47.812    35982560.049 6 299098842.32606      -229.189 6        39.062  
I10  39343041.093 5 154387358.80005       -75.242 5        32.812    39343029.419 6 327032697.89406      -159.385 6        37.500  
> 2024 01 02  1 46  0.0000000  0  9      -220.461761226024
I01         0.000 8         0.00008        -0.131 8        51.094           0.000 3         0.00003        -0.278 3        23.750  
I02  39324837.677 7 154315897.73807      -290.960 7        42.812    39324827.303 5 326881380.04705      -616.448 5        35.312  
I03  36525645.231 8 143331340.20808        34.806 8        50.312    36525637.614 7 303613145.65707        73.725 7        44.844  
I04         0.000 7         0.00007        -0.131 7        45.781           0.000 6         0.00006        -0.278 6        39.688  
I05         0.000 7         0.00007        -0.131 7        47.812           0.000 6         0.00006        -0.278 6        41.562  
I06  38312720.610 7 150344275.61407       -51.341 7        45.000    38312711.922 6 318468174.21106      -108.443 6        38.906  
I07         0.000 7         0.00007        -0.131 7        43.281           0.000 6         0.00006        -0.278 6        36.719  
I09  35981741.842 8 141197271.67508      -108.193 8        50.781    35981734.509 7 299091974.21507      -229.045 7        45.000  
I10         0.000 7         0.00007        -0.131 7        44.375    39342456.742 5 327027930.90505      -159.326 5        35.469  
> 2024 01 02  1 46 30.0000000  0  9      -218.454000407837
I01         0.000 8         0.00008        -0.069 8        51.094           0.000 3         0.00003        -0.147 3        23.594  
I02  39322609.001 7 154307150.90707      -292.546 7        42.812    39322598.294 5 326862852.34405      -619.392 5        35.469  
I03  36525912.487 8 143332389.85608        35.044 8        50.312    36525905.211 7 303615369.26607        74.116 7        44.844  
I04         0.000 7         0.00007        -0.069 7        46.094           0.000 6         0.00006        -0.147 6        39.688  
I05         0.000 7         0.00007        -0.069 7        47.656           0.000 6         0.00006        -0.147 6        41.719  
I06  38312329.797 7 150342742.65307       -50.974 7        45.000    38312321.270 6 318464927.31206      -108.326 6        39.062  
I07         0.000 7         0.00007        -0.069 7        43.594           0.000 6         0.00006        -0.147 6        36.719  
I09  35980917.241 8 141194035.15208      -107.960 8        50.938    35980910.397 7 299085118.55807      -228.424 7        45.000  
I10  39341894.555 7 154382844.85707       -75.005 7        44.688    39341882.926 5 327023163.29605      -159.505 5        35.312  
> 2024 01 02  1 47  0.0000000  0  9      -217.682429771767
I01         0.000 8         0.00008        -0.130 8        50.781           0.000 3         0.00003        -0.275 3        20.156  
I02  39320368.875 7 154298359.02307      -294.092 7        42.656    39320357.804 5 326844229.19105      -622.065 5        35.156  
I03  36526180.959 8 143333443.41008        35.020 8        50.312    36526173.581 7 303617601.16107        74.423 7        44.844  
I04         0.000 7         0.00007        -0.130 7        46.562           0.000 6         0.00006        -0.275 6        39.844  
I05         0.000 7         0.00007        -0.130 7        47.500           0.000 6         0.00006        -0.275 6        41.250  
I06  38311939.386 7 150341209.88507       -51.264 7        45.312    38311930.701 6 318461680.81506      -108.265 6        39.062  
I07         0.000 7         0.00007        -0.130 7        42.969           0.000 6         0.00006        -0.275 6        37.031  
I09  35980094.125 8 141190804.49108      -107.719 8        50.781    35980087.129 7 299078275.35307      -228.263 7        45.000  
I10  39341321.513 7 154380593.76607       -75.149 7        44.219    39341309.758 5 327018395.12405      -159.151 5        35.781  
> 2024 01 02  1 47 30.0000000  0  9      -217.828632420298
I01         0.000 8         0.00008        -0.070 8        50.938           0.000 4         0.00004        -0.148 4        24.375  
I02  39318117.183 7 154289522.69007      -295.186 7        43.281    39318106.177 5 326825511.92105      -625.618 5        35.312  
I03  36526450.468 8 143334500.86508        35.266 8        50.312    36526443.162 7 303619841.31007        74.422 7        45.000  
I04         0.000 7         0.00007        -0.070 7        46.562           0.000 6         0.00006        -0.148 6        40.625  
I05         0.000 7         0.00007        -0.070 7        47.812           0.000 6         0.00006        -0.148 6        41.406  
I06  38311548.818 7 150339677.38007       -51.040 7        45.000    38311540.426 6 318458434.85106      -108.358 6        39.219  
I07         0.000 7         0.00007        -0.070 7        43.594           0.000 6         0.00006        -0.148 6        36.406  
I09  35979272.392 8 141187579.77008      -107.571 8        50.938    35979265.427 7 299071444.73607      -227.644 7        45.000  
I10  39340748.023 7 154378342.41707       -75.224 7        44.531    39340735.676 5 327013625.86705      -159.369 5        34.844  
> 2024 01 02  1 48  0.0000000  0  9      -218.417574283875
I01         0.000 8         0.00008        -0.055 8        48.906           0.000 4         0.00004        -0.116 4        24.062  
I02  39315853.567 6 154280641.74706      -296.713 6        36.875    39315843.095 5 326806700.29205      -628.773 5        35.781  
I03  36526721.490 8 143335562.28908        35.456 8        48.281    36526713.042 6 303622089.78806        75.096 6        39.062  
I04         0.000 7         0.00007        -0.055 7        42.344           0.000 6         0.00006        -0.116 6        38.281  
I05         0.000 7         0.00007        -0.055 7        45.312           0.000 5         0.00005        -0.116 5        34.375  
I06  38311159.082 7 150338145.06607       -51.063 7        42.969    38311149.290 6 318455189.36306      -108.550 6        37.969  
I07         0.000 6         0.00006        -0.055 6        39.062           0.000 6         0.00006        -0.116 6        38.281  
I09  35978452.144 8 141184361.15208      -107.207 8        48.281    35978445.564 6 299064626.96506      -227.276 6        41.094  
I10  39340172.780 6 154376090.90906       -75.222 6        38.750    39340161.683 6 327008856.45106      -159.313 6        36.250  
> 2024 01 02  1 48 30.0000000  0  9      -219.240439625611
I01         0.000 8         0.00008        -0.153 8        49.062           0.000 4         0.00004        -0.325 4        25.312  
I02  39313579.827 6 154271716.94306      -298.502 6        37.344    39313568.542 6 326787795.57906      -631.872 6        36.562  
I03  36526993.091 8 143336627.51808        35.536 8        48.281    36526984.478 6 303624346.41506        75.267 6        38.906  
I04         0.000 7         0.00007        -0.153 7        42.188           0.000 6         0.00006        -0.325 6        38.281  
I05         0.000 7         0.00007        -0.153 7        45.312           0.000 5         0.00005        -0.325 5        35.156  
I06  38310768.787 7 150336613.01507       -51.083 7        42.500    38310758.664 6 318451944.33406      -108.276 6        37.500  
I07         0.000 6         0.00006        -0.153 6        38.750           0.000 6         0.00006        -0.325 6        38.906  
I09  35977633.424 8 141181148.55208      -107.109 8        48.438    35977626.879 6 299057822.03606      -226.877 6        41.562  
I10  39339598.639 6 154373839.05306       -75.714 6        37.031    39339587.465 6 327004086.71406      -159.231 6        36.875  
> 2024 01 02  1 49  0.0000000  0  9      -220.042038641265
I01         0.000 8         0.00008        -0.123 8        49.531           0.000 3         0.00003        -0.261 3        23.438  
I02  39311294.083 5 154262748.11505      -299.795 5        35.312    39311283.495 6 326768797.43306      -635.349 6        37.656  
I03  36527265.290 8 143337696.69008        35.529 8        49.688    36527257.444 6 303626611.39606        75.354 6        41.875  
I04         0.000 7         0.00007        -0.123 7        42.344           0.000 6         0.00006        -0.261 6        38.281  
I05         0.000 7         0.00007        -0.123 7        45.625           0.000 6         0.00006        -0.261 6        38.750  
I06  38310379.092 6 150335081.25706       -51.452 6        39.375    38310369.318 6 318448699.38206      -108.138 6        36.406  
I07         0.000 5         0.00005        -0.123 5        35.781           0.000 6         0.00006        -0.261 6        36.094  
I09  35976816.273 8 141177942.17208      -106.818 8        49.219    35976809.452 6 299051030.24906      -226.534 6        41.562  
I10  39339024.857 6 154371586.89906       -75.165 6        37.344    39339013.289 5 326999317.10705      -159.116 5        34.688  
> 2024 01 02  1 49 30.0000000  0  9      -218.940601389670
I01         0.000 8         0.00008        -0.042 8        49.688           0.000 4         0.00004        -0.089 4        25.625  
I02  39308995.894 5 154253735.19205      -301.082 5        34.375    39308986.672 6 326749705.87906      -638.356 6        38.125  
I03  36527538.582 8 143338769.72608        35.814 8        49.688    36527530.772 6 303628884.52406        75.806 6        41.094  
I04         0.000 7         0.00007        -0.042 7        42.656           0.000 6         0.00006        -0.089 6        37.969  
I05         0.000 7         0.00007        -0.042 7        45.156           0.000 6         0.00006        -0.089 6        40.312  
I06  38309988.570 6 150333549.74706       -51.191 6        40.000    38309980.325 6 318445455.44806      -108.424 6        36.094  
I07         0.000 6         0.00006        -0.042 6        36.250           0.000 6         0.00006        -0.089 6        36.094  
I09  35976000.710 8 141174741.95708      -106.518 8        49.375    35975994.466 7 299044251.48907      -225.923 7        42.656  
I10  39338450.705 6 154369334.61606       -75.035 6        36.250    39338439.511 5 326994546.36805      -159.667 5        34.375  
> 2024 01 02  1 50  0.0000000  0  9      -216.604290261625
I01         0.000 8         0.00008        -0.215 8        50.938           0.000 3         0.00003        -0.456 3        23.906  
I02  39306690.167 7 154244678.62707      -303.028 7        43.281    39306679.558 5 326730522.28805      -641.305 5        35.938  
I03  36527813.069 8 143339846.56308        35.723 8        50.156    36527805.763 7 303631165.77107        75.623 7        44.844  
I04         0.000 7         0.00007        -0.215 7        46.250           0.000 6         0.00006        -0.456 6        39.688  
I05         0.000 7         0.00007        -0.215 7        47.656           0.000 7         0.00007        -0.456 7        42.031  
I06  38309597.922 7 150332018.44207       -51.347 7        44.844    38309588.807 6 318442212.16406      -108.736 6        38.750  
I07         0.000 7         0.00007        -0.215 7        43.125           0.000 6         0.00006        -0.456 6        37.344  
I09  35975187.392 8 141171548.02608      -106.522 8        51.250    35975180.625 7 299037486.08107      -225.892 7        45.781  
I10  39337878.796 7 154367082.24607       -75.690 7        44.062    39337866.233 5 326989775.32905      -159.552 5        35.938  
> 2024 01 02  1 50 30.0000000  0  9      -217.136754816394
I01         0.000 8         0.00008        -0.067 8        50.938           0.000 3         0.00003        -0.142 3        22.656  
I02  39304371.019 7 154235577.74207      -304.169 7        43.438    39304360.195 6 326711244.57806      -644.261 6        36.094  
I03  36528088.537 8 143340927.35108        36.028 8        50.156    36528081.099 7 303633455.34407        76.447 7        45.000  
I04         0.000 7         0.00007        -0.067 7        46.250           0.000 6         0.00006        -0.142 6        39.844  
I05         0.000 7         0.00007        -0.067 7        47.812           0.000 6         0.00006        -0.142 6        41.562  
I06  38309207.825 7 150330487.44807       -51.057 7        45.000    38309198.688 6 318438969.41506      -108.303 6        38.906  
I07         0.000 7         0.00007        -0.067 7        43.281           0.000 6         0.00006        -0.142 6        36.719  
I09  35974375.258 8 141168360.51208      -106.173 8        51.250    35974368.436 7 299030734.20107      -224.833 7        45.781  
I10  39337304.766 7 154364829.62907       -75.118 7        43.906    39337292.558 6 326985003.84606      -159.131 6        36.094  
> 2024 01 02  1 51  0.0000000  0  9      -220.758776798886
I01         0.000 8         0.00008        -0.010 8        50.000           0.000 4         0.00004        -0.021 4        26.875  
I02  39302040.351 6 154226433.68806      -305.243 6        37.969    39302029.982 5 326691875.39605      -646.835 5        32.344  
I03  36528364.922 8 143342012.08308        36.229 8        49.219    36528356.459 6 303635753.28806        76.675 6        39.375  
I04         0.000 7         0.00007        -0.010 7        43.438           0.000 5         0.00005        -0.021 5        30.156  
I05         0.000 7         0.00007        -0.010 7        44.375           0.000 5         0.00005        -0.021 5        35.000  
I06  38308818.727 7 150328956.74207       -50.924 7        44.219    38308807.394 5 318435727.16305      -108.246 5        32.188  
I07         0.000 6         0.00006        -0.010 6        38.906           0.000 3         0.00003        -0.021 3        23.750  
I09  35973564.415 8 141165179.50108      -105.980 8        50.312    35973555.808 6 299023996.11306      -224.499 6        39.219  
I10  39336729.889 6 154362576.79206       -75.109 6        39.844    39336713.617 3 326980229.91203      -158.742 3        22.812  
> 2024 01 02  1 51 30.0000000  0  9      -226.807827056220
I01         0.000 8         0.00008        -0.023 8        51.094           0.000 3         0.00003        -0.049 3        22.969  
I02  39299699.706 7 154217245.94107      -306.914 7        42.969    39299689.123 6 326672413.22206      -650.096 6        36.094  
I03  36528642.535 8 143343100.51708        36.276 8        50.156    36528634.889 7 303638059.03207        77.155 7        44.844  
I04         0.000 7         0.00007        -0.023 7        46.875           0.000 6         0.00006        -0.049 6        39.062  
I05         0.000 7         0.00007        -0.023 7        47.656           0.000 6         0.00006        -0.049 6        41.406  
I06  38308427.921 7 150327426.26207       -51.073 7        45.312    38308418.706 6 318432485.61406      -108.032 6        38.438  
I07         0.000 7         0.00007        -0.023 7        43.125           0.000 6         0.00006        -0.049 6        37.031  
I09  35972755.494 8 141162004.88808      -105.618 8        51.094    35972748.964 7 299017271.57807      -223.853 7        45.469  
I10  39336156.733 7 154360323.92407       -74.926 7        44.062           0.000 6         0.00006        -0.049 6        36.094  
> 2024 01 02  1 52  0.0000000  0  9      -226.439436465761
I01         0.000 8         0.00008        -0.052 8        50.312           0.000 4         0.00004        -0.110 4        26.250  
I02  39297345.684 5 154208015.13905      -308.783 5        35.938    39297336.354 6 326652860.02106      -653.316 6        37.344  
I03  36528920.938 8 143344192.98108        36.511 8        49.531    36528913.191 6 303640373.12606        76.796 6        38.906  
I04         0.000 7         0.00007        -0.052 7        43.750           0.000 6         0.00006        -0.110 6        36.875  
I05         0.000 7         0.00007        -0.052 7        45.156           0.000 6         0.00006        -0.110 6        39.531  
I06  38308038.197 7 150325896.20107       -51.051 7        42.188           0.000 4         0.00004        -0.110 4        27.031  
I07         0.000 6         0.00006        -0.052 6        38.906           0.000 5         0.00005        -0.110 5        33.438  
I09  35971947.835 8 141158836.93608      -105.524 8        50.000    35971941.170 7 299010561.13407      -223.581 7        42.969  
I10  39335582.496 6 154358070.87206       -74.787 6        39.688    39335567.719 5 326970634.18505      -159.591 5        30.156  
> 2024 01 02  1 52 30.0000000  0  9      -226.579460931474
I01         0.000 8         0.00008        -0.026 8        50.469           0.000 4         0.00004        -0.054 4        27.031  
I02  39294982.395 6 154198741.03106      -309.818 6        36.719    39294972.924 6 326633215.26306      -656.078 6        37.500  
I03  36529200.481 8 143345289.22908        36.628 8        49.688    36529192.572 6 303642695.43106        77.499 6        38.750  
I04         0.000 7         0.00007        -0.026 7        43.594           0.000 6         0.00006        -0.054 6        37.031  
I05         0.000 7         0.00007        -0.026 7        44.844           0.000 6         0.00006        -0.054 6        39.375  
I06  38307648.520 7 150324366.34107       -51.041 7        42.344           0.000 3         0.00003        -0.054 3        23.281  
I07         0.000 6         0.00006        -0.026 6        38.594           0.000 5         0.00005        -0.054 5        33.281  
I09  35971142.097 8 141155675.59008      -105.300 8        50.000    35971135.512 7 299003864.69307      -223.068 7        43.125  
I10  39335007.640 6 154355817.68606       -74.922 6        39.219    39334994.940 5 326965861.44705      -158.691 5        31.094  
> 2024 01 02  1 53  0.0000000  0  9      -223.725339686641
I01         0.000 8         0.00008        -0.128 8        50.156           0.000 4         0.00004        -0.271 4        26.250  
I02  39292603.252 6 154189412.83406      -311.547 6        37.500    39292599.245 5 326613479.27305      -659.448 5        33.281  
I03  36529480.727 8 143346389.33708        36.596 8        49.688    36529472.971 6 303645025.96706        77.448 6        40.000  
I04         0.000 7         0.00007        -0.128 7        42.344           0.000 6         0.00006        -0.271 6        38.438  
I05         0.000 7         0.00007        -0.128 7        43.125           0.000 6         0.00006        -0.271 6        40.469  
I06  38307258.154 6 150322836.74606       -51.212 6        41.094           0.000 4         0.00004        -0.271 4        24.688  
I07         0.000 5         0.00005        -0.128 5        35.938           0.000 5         0.00005        -0.271 5        32.188  
I09  35970338.122 8 141152520.94508      -105.130 8        49.531    35970332.310 7 298997182.45907      -222.838 7        43.281  
I10  39334433.192 6 154353564.35706       -75.260 6        37.031    39334422.434 5 326961088.45705      -158.846 5        30.312  
> 2024 01 02  1 53 30.0000000  0  9      -225.276650763209
I01         0.000 8         0.00008        -0.134 8        49.688           0.000 3         0.00003        -0.285 3        23.438  
I02  39290223.678 6 154180069.12106      -312.724 6        37.656    39290218.142 5 326593664.26705      -662.729 5        30.469  
I03  36529762.168 8 143347493.32008        36.728 8        50.312    36529753.512 7 303647364.66207        77.894 7        42.656  
I04         0.000 6         0.00006        -0.134 6        41.406           0.000 6         0.00006        -0.285 6        38.750  
I05         0.000 6         0.00006        -0.134 6        41.719           0.000 6         0.00006        -0.285 6        40.156  
I06  38306869.666 7 150321307.35907       -51.058 7        42.344           0.000 5         0.00005        -0.285 5        34.844  
I07         0.000 4         0.00004        -0.134 4        28.750           0.000 6         0.00006        -0.285 6        38.906  
I09  35969536.712 8 141149373.08008      -104.976 8        49.219    35969529.727 6 298990514.59806      -222.319 6        40.781  
I10  39333867.559 5 154351342.84005       -75.659 5        35.938    39333847.481 6 326956315.30806      -159.619 6        38.281  
> 2024 01 02  1 54  0.0000000  0  9      -217.907801333928
I01         0.000 8         0.00008        -0.026 8        51.562           0.000 4         0.00004        -0.056 4        25.000  
I02  39287828.400 7 154170665.43807      -314.090 7        42.969    39287818.491 6 326573715.99406      -665.413 6        37.812  
I03  36530044.312 8 143348601.08008        37.019 8        50.469    36530036.645 7 303649711.34907        78.308 7        44.844  
I04         0.000 7         0.00007        -0.026 7        45.469           0.000 6         0.00006        -0.056 6        40.312  
I05         0.000 7         0.00007        -0.026 7        46.406           0.000 7         0.00007        -0.056 7        42.188  
I06  38306479.673 7 150319778.44307       -50.908 7        45.625    38306470.064 6 318416239.26706      -107.877 6        37.344  
I07         0.000 7         0.00007        -0.026 7        42.188           0.000 6         0.00006        -0.056 6        36.719  
I09  35968736.146 8 141146232.07808      -104.654 8        50.938    35968729.929 7 298983861.30307      -221.522 7        45.156  
I10  39333286.016 7 154349058.72407       -75.040 7        43.438    39333273.986 6 326951542.92306      -159.166 6        36.875  
> 2024 01 02  1 54 30.0000000  0  9      -216.505271249388
I01         0.000 8         0.00008        -0.184 8        50.156           0.000 3         0.00003        -0.390 3        22.969  
I02  39285408.706 4 154161179.89204      -316.583 4        27.656    39285412.181 6 326553705.87606      -668.778 6        37.500  
I03  36530327.430 8 143349712.78908        36.954 8        48.594    36530319.732 6 303652066.24406        78.152 6        39.531  
I04         0.000 6         0.00006        -0.184 6        41.719           0.000 6         0.00006        -0.390 6        40.781  
I05         0.000 7         0.00007        -0.184 7        42.500           0.000 6         0.00006        -0.390 6        40.938  
I06  38306090.580 6 150318249.87006       -50.923 6        39.844    38306078.623 5 318413002.50805      -108.458 5        31.875  
I07         0.000 6         0.00006        -0.184 6        36.875           0.000 6         0.00006        -0.390 6        38.438  
I09  35967937.006 8 141143098.07708      -104.426 8        48.750    35967931.206 7 298977222.81007      -221.453 7        42.344  
I10  39332709.208 6 154346805.13706       -75.330 6        37.031    39332699.492 6 326946769.26706      -159.632 6        37.969  
> 2024 01 02  1 55  0.0000000  0  9      -217.276103046623
I01         0.000 8         0.00008        -0.148 8        50.000           0.000 4         0.00004        -0.314 4        25.781  
I02         0.000 4         0.00004        -0.148 4        25.000    39282993.842 6 326533606.78506      -671.930 6        38.438  
I03  36530612.007 8 143350828.27808        37.060 8        48.594    36530603.970 6 303654429.27706        78.697 6        40.312  
I04         0.000 6         0.00006        -0.148 6        40.781           0.000 6         0.00006        -0.314 6        40.625  
I05         0.000 7         0.00007        -0.148 7        42.969           0.000 6         0.00006        -0.314 6        40.000  
I06  38305701.695 6 150316721.53906       -51.215 6        40.156    38305691.324 5 318409765.40905      -108.091 5        33.438  
I07         0.000 5         0.00005        -0.148 5        35.781           0.000 6         0.00006        -0.314 6        38.906  
I09  35967140.285 8 141139971.04908      -104.258 8        48.906    35967134.300 7 298970599.07807      -221.040 7        42.500  
I10  39332136.210 6 154344551.56106       -75.385 6        36.406    39332125.744 6 326941995.54706      -159.269 6        38.594  
> 2024 01 02  1 55 30.0000000  0  9      -218.696690084890
I01         0.000 8         0.00008        -0.254 8        49.844           0.000 4         0.00004        -0.537 4        26.562  
I02         0.000 4         0.00004        -0.254 4        24.062    39280564.623 6 326513417.09506      -674.917 6        38.594  
I03  36530897.140 8 143351947.58508        37.089 8        48.125    36530889.270 6 303656800.39906        78.508 6        39.688  
I04         0.000 6         0.00006        -0.254 6        40.312           0.000 6         0.00006        -0.537 6        40.000  
I05         0.000 7         0.00007        -0.254 7        42.500           0.000 6         0.00006        -0.537 6        40.000  
I06  38305312.829 6 150315193.58606       -51.725 6        39.688    38305301.782 5 318406528.99505      -108.125 5        35.000  
I07         0.000 5         0.00005        -0.254 5        35.156           0.000 6         0.00006        -0.537 6        38.906  
I09  35966345.557 8 141136851.08008      -104.066 8        48.594    35966339.572 7 298963990.33707      -220.558 7        42.188  
I10  39331560.937 6 154342297.85306       -75.783 6        36.719    39331550.822 6 326937221.71606      -159.829 6        38.906  
> 2024 01 02  1 56  0.0000000  0  9      -214.507107626830
I01         0.000 8         0.00008        -0.108 8        50.000           0.000 4         0.00004        -0.228 4        25.469  
I02         0.000 6         0.00006        -0.108 6        39.219    39278124.440 6 326493136.45606      -677.734 6        36.875  
I03  36531183.545 8 143353070.72208        37.395 8        48.281    36531175.003 6 303659179.63106        79.179 6        37.969  
I04         0.000 6         0.00006        -0.108 6        39.062           0.000 6         0.00006        -0.228 6        38.906  
I05         0.000 6         0.00006        -0.108 6        40.938           0.000 6         0.00006        -0.228 6        41.094  
I06  38304923.533 6 150313665.89206       -51.315 6        40.781    38304911.817 6 318403293.32106      -108.210 6        36.094  
I07         0.000 5         0.00005        -0.108 5        35.156           0.000 6         0.00006        -0.228 6        37.812  
I09  35965552.813 8 141133738.26908      -103.742 8        50.000    35965545.620 7 298957396.74707      -219.816 7        42.500  
I10  39330989.050 6 154340044.05106       -75.067 6        37.656    39330976.497 6 326932447.82806      -159.329 6        38.438  
> 2024 01 02  1 56 30.0000000  0  9      -218.004733803062
I01         0.000 8         0.00008        -0.126 8        49.688           0.000 4         0.00004        -0.267 4        25.938  
I02  39275684.577 6 154123021.82806      -321.418 6        37.812    39275674.377 6 326472766.41606      -680.815 6        36.719  
I03  36531471.023 8 143354197.70808        37.520 8        48.125    36531462.123 6 303661566.97706        79.596 6        38.281  
I04         0.000 6         0.00006        -0.126 6        39.219           0.000 6         0.00006        -0.267 6        38.906  
I05         0.000 6         0.00006        -0.126 6        40.938           0.000 6         0.00006        -0.267 6        41.094  
I06  38304534.197 6 150312138.59306       -51.232 6        40.000    38304522.455 5 318400058.37805      -108.180 5        35.781  
I07         0.000 5         0.00005        -0.126 5        35.312           0.000 6         0.00006        -0.267 6        37.500  
I09  35964761.575 8 141130632.70408      -103.555 8        49.844    35964754.376 7 298950818.46807      -219.302 7        43.125  
I10  39330414.914 6 154337790.31506       -75.200 6        37.656    39330402.884 6 326927673.84106      -159.153 6        38.281  
> 2024 01 02  1 57  0.0000000  0  9      -218.055635680777
I01         0.000 8         0.00008        -0.081 8        49.844           0.000 4         0.00004        -0.172 4        25.938  
I02  39273224.487 6 154113363.44106      -322.484 6        38.125    39273213.139 6 326452307.59706      -683.261 6        36.562  
I03  36531759.194 8 143355328.49708        37.678 8        48.125    36531750.066 6 303663962.40006        79.721 6        38.438  
I04         0.000 6         0.00006        -0.081 6        37.344           0.000 6         0.00006        -0.172 6        39.062  
I05         0.000 6         0.00006        -0.081 6        40.469           0.000 6         0.00006        -0.172 6        41.406  
I06  38304145.402 6 150310611.62806       -51.264 6        40.312    38304133.886 5 318396824.11805      -107.888 5        35.625  
I07         0.000 5         0.00005        -0.081 5        35.312           0.000 6         0.00006        -0.172 6        37.500  
I09  35963971.943 8 141127534.41108      -103.254 8        49.688    35963964.697 7 298944255.59707      -218.681 7        42.656  
I10  39329839.458 6 154335536.59506       -75.137 6        37.344    39329828.403 6 326922899.84906      -159.205 6        37.812  
> 2024 01 02  1 57 30.0000000  0  9      -218.370180858010
I01         0.000 8         0.00008        -0.114 8        49.688           0.000 4         0.00004        -0.241 4        25.938  
I02  39270752.789 6 154103663.07306      -324.107 6        39.531    39270741.192 6 326431759.94606      -686.412 6        36.719  
I03  36532048.403 7 143356463.10407        37.682 7        47.656    36532039.136 6 303666365.92006        79.728 6        38.594  
I04         0.000 6         0.00006        -0.114 6        38.906           0.000 6         0.00006        -0.241 6        38.281  
I05         0.000 6         0.00006        -0.114 6        39.531           0.000 6         0.00006        -0.241 6        40.781  
I06  38303755.886 6 150309085.04706       -50.915 6        40.156    38303744.749 6 318393590.59806      -107.916 6        36.719  
I07         0.000 6         0.00006        -0.114 6        37.188           0.000 6         0.00006        -0.241 6        38.438  
I09  35963184.357 8 141124443.50608      -103.103 8        49.844    35963176.750 7 298937708.41907      -218.290 7        42.344  
I10  39329266.479 6 154333282.90706       -75.357 6        38.594    39329254.162 6 326918125.78006      -159.561 6        38.750  
> 2024 01 02  1 58  0.0000000  0  9      -217.622808661341
I01         0.000 8         0.00008        -0.258 8        49.219           0.000 4         0.00004        -0.547 4        24.062  
I02  39268269.981 6 154093920.44506      -325.664 6        40.469    39268258.209 6 326411122.68206      -689.940 6        36.250  
I03  36532338.700 7 143357601.49607        37.780 7        47.812    36532329.616 6 303668777.46806        79.974 6        38.438  
I04         0.000 5         0.00005        -0.258 5        35.000           0.000 6         0.00006        -0.547 6        39.062  
I05         0.000 6         0.00006        -0.258 6        38.906           0.000 6         0.00006        -0.547 6        39.844  
I06  38303367.293 6 150307558.78406       -51.253 6        40.625    38303356.116 6 318390357.93506      -108.244 6        37.500  
I07         0.000 5         0.00005        -0.258 5        32.500           0.000 6         0.00006        -0.547 6        38.438  
I09  35962398.362 8 141121360.04408      -102.953 8        49.062    35962391.244 6 298931176.97606      -217.850 6        41.875  
I10  39328693.245 5 154331029.05905       -76.165 5        35.000    39328679.963 6 326913351.78206      -159.743 6        39.062  
> 2024 01 02  1 58 30.0000000  0  9      -218.862374627896
I01         0.000 8         0.00008        -0.125 8        49.062           0.000 4         0.00004        -0.266 4        26.250  
I02  39265776.059 6 154084135.71706      -326.888 6        39.062    39265765.304 5 326390396.28505      -692.570 5        35.781  
I03  36532629.703 8 143358743.71208        37.993 8        48.125    36532620.546 6 303671197.04906        80.756 6        37.812  
I04         0.000 6         0.00006        -0.125 6        36.719           0.000 6         0.00006        -0.266 6        38.594  
I05         0.000 6         0.00006        -0.125 6        39.688           0.000 6         0.00006        -0.266 6        40.781  
I06  38302978.679 6 150306032.93506       -50.879 6        41.406    38302967.224 6 318387126.00206      -107.778 6        36.875  
I07         0.000 5         0.00005        -0.125 5        35.469           0.000 6         0.00006        -0.266 6        37.656  
I09  35961614.692 8 141118284.12208      -102.570 8        49.688    35961607.211 7 298924661.50507      -217.392 7        42.188  
I10  39328117.023 6 154328775.37406       -75.585 6        37.031    39328105.510 6 326908577.84106      -159.552 6        38.281  
> 2024 01 02  1 59  0.0000000  0  9      -218.740181281591
I01         0.000 8         0.00008         0.025 8        48.125           0.000 3         0.00003         0.052 3        22.969  
I02  39263271.770 6 154074309.44506      -328.346 6        40.938    39263260.297 6 326369581.88906      -695.257 6        36.250  
I03  36532922.066 7 143359889.71807        38.237 7        47.500    36532913.416 6 303673624.68306        80.920 6        37.969  
I04         0.000 5         0.00005         0.025 5        35.000           0.000 6         0.00006         0.052 6        41.406  
I05         0.000 7         0.00007         0.025 7        42.188           0.000 6         0.00006         0.052 6        39.688  
I06  38302589.290 7 150304507.45607       -50.768 7        42.188    38302577.950 6 318383894.90406      -107.656 6        37.969  
I07         0.000 4         0.00004         0.025 4        25.469           0.000 6         0.00006         0.052 6        40.469  
I09  35960832.919 8 141115215.82308      -102.056 8        48.750    35960826.033 6 298918162.12706      -216.222 6        41.719  
I10  39327542.313 4 154326519.88204       -74.490 4        28.438    39327531.796 6 326903803.93106      -158.900 6        41.094  
